     3.04           OBSERVATION DATA    M                   RINEX VERSION / TYPE
sbf2rin-15.10.3                         20250316 155457 UTC PGM / RUN BY / DATE 
SEPT                                                        MARKER NAME         
Unknown                                                     MARKER NUMBER       
Unknown             Unknown                                 OBSERVER / AGENCY   
3672106             SEPT MOSAIC-X5C     4.12.1              REC # / TYPE / VERS 
Unknown             Unknown                                 ANT # / TYPE        
 -2751869.1195  4771225.3714  3205433.4055                  APPROX POSITION XYZ 
        0.0000        0.0000        0.0000                  ANTENNA: DELTA H/E/N
G    9 C1C L1C C1W C2W L2W C2L L2L C5Q L5Q                  SYS / # / OBS TYPES 
E    8 C1C L1C C5Q L5Q C7Q L7Q C8Q L8Q                      SYS / # / OBS TYPES 
S    4 C1C L1C C5I L5I                                      SYS / # / OBS TYPES 
R    8 C1C L1C C2P L2P C2C L2C C3Q L3Q                      SYS / # / OBS TYPES 
C   10 C1P L1P C5P L5P C2I L2I C7I L7I C6I L6I              SYS / # / OBS TYPES 
I    2 C5A L5A                                              SYS / # / OBS TYPES 
SEPTENTRIO RECEIVERS OUTPUT ALIGNED CARRIER PHASES.         COMMENT             
NO FURTHER PHASE SHIFT APPLIED IN THE RINEX ENCODER.        COMMENT             
G L1C                                                       SYS / PHASE SHIFT   
G L2W                                                       SYS / PHASE SHIFT   
G L2L  0.00000                                              SYS / PHASE SHIFT   
G L5Q  0.00000                                              SYS / PHASE SHIFT   
E L1C  0.00000                                              SYS / PHASE SHIFT   
E L5Q  0.00000                                              SYS / PHASE SHIFT   
E L7Q  0.00000                                              SYS / PHASE SHIFT   
E L8Q  0.00000                                              SYS / PHASE SHIFT   
S L1C                                                       SYS / PHASE SHIFT   
S L5I                                                       SYS / PHASE SHIFT   
R L1C                                                       SYS / PHASE SHIFT   
R L2P  0.00000                                              SYS / PHASE SHIFT   
R L2C                                                       SYS / PHASE SHIFT   
R L3Q  0.00000                                              SYS / PHASE SHIFT   
C L1P  0.00000                                              SYS / PHASE SHIFT   
C L5P  0.00000                                              SYS / PHASE SHIFT   
C L2I                                                       SYS / PHASE SHIFT   
C L7I                                                       SYS / PHASE SHIFT   
C L6I                                                       SYS / PHASE SHIFT   
I L5A                                                       SYS / PHASE SHIFT   
     1.000                                                  INTERVAL            
  2025     3    16    15    52   20.0000000     GPS         TIME OF FIRST OBS   
  2025     3    16    15    55    5.0000000     GPS         TIME OF LAST OBS    
    42                                                      # OF SATELLITES     
 C1C    0.000 C2C    0.000 C2P    0.000                     GLONASS COD/PHS/BIS 
    18                                                      LEAP SECONDS        
  5 R05  1 R06 -4 R19  3 R20  2 R21  4                      GLONASS SLOT / FRQ #
                                                            END OF HEADER       
> 2025 03 16 15 52 20.0000000  0 41
C02                                                                  37612978.366 6 195860646.17306  37612972.044 7 151451880.66507  37612975.965 7 159152833.53107
C03                                                                  36518520.895 7 190161537.85507  36518516.371 7 147044954.25707  36518518.762 8 154521823.58208
C05                                                                  39890065.713 6 207718092.94506  39890063.488 6 160620835.21506  39890066.139 7
C06                                                                  37566273.074 7 195617697.75107  37566269.495 7 151264129.53607  37566269.853 8 158955491.90408
C07                                                                  40678577.915 5 211823978.98705  40678592.592 6 163795662.19206  40678587.499 6
C08                                                                  36318789.937 4 189121476.42704  36318782.626 4                  36318783.309 4
C09                                                                  38912861.724 5 202629844.55205  38912863.072 7 156686445.31307  38912860.466 7 164653492.92907
C10                                                                  40561081.669 6 211212011.97906  40561095.111 5 163322493.02605  40561090.163 6 171627028.48006
C13                                                                  36715950.675 7 191189604.79407  36715952.540 6 147839937.86806  36715951.191 7 155357220.65607
C20  24415562.501 7 128304645.60107  24415562.727 7  95811912.20707  24415563.478 7 127138425.28507                                  24415558.208 6 103310708.77006
C27  25453363.299 7 133758328.86607  25453381.640 6  99884536.69306  25453364.275 7 132542119.62707                                  25453376.906 7 107701281.71507
C29                                                                  24810007.886 6 129192227.20106                                  24810007.429 7 104979260.54507
C30  23821999.631 7 125185451.92607  23822003.797 7  93482659.34607  23822000.396 7 124047382.90007                                  23822003.695 7 100798667.30207
C32                                                                  22616604.213 4 117770614.56004                                  22616604.822 5  95698281.38705
C40                                  41515116.708 5 162914235.05005  41515102.339 6 216180073.36606                                  41515111.953 6
C60                                                                  38032781.715 6 198046676.62306                                  38032768.957 7
E03  26707917.063 7 140351374.68007  26707920.811 5 104808049.10405  26707920.385 6 107542145.36506  26707920.076 6 106175105.27406
E05  22277443.550 8 117068816.91108  22277444.684 6  87421560.69206  22277442.880 6  89702114.40706  22277443.601 7  88561838.09607
E15  28340731.838 5 148931546.62105                                  28340733.926 5 114116391.19105
E34  24326833.696 7 127838415.58607  24326834.770 6  95463786.25306  24326833.610 7  97954138.76007  24326834.116 7  96708960.54507
E36  23920825.366 7 125704781.42907  23920828.295 6  93870458.73806  23920827.098 7  96319249.01907  23920827.481 7  95094853.42007
G10  25197022.458 6 132411247.83406  25197021.734 5  25197024.983 5 103177609.74805                                  25197022.670 6  98878529.61806
G15  20692294.804 3
G18  20727020.215 8 108921252.39108  20727019.965 5  20727017.785 5  84873708.21405  20727017.704 6  84873672.21306  20727020.753 6  81337282.13506
G23  21515335.079 7 113063921.69807  21515334.798 5  21515334.195 5  88101754.55005                                  21515336.170 6  84430799.96606
G24  20051780.582 4
G29  25290317.191 7 132901399.80307  25290316.673 5  25290331.662 5 103559421.24805
I03  56965723.506 7 223545766.83907
I09  39854286.313 6 156396971.96006
R05  20515206.141 8 109665588.32408  20515208.480 8  85295492.56308  20515207.996 8  85295493.55708  20515193.132 7  82256223.96207
R06  23480520.561 3
R19  22620826.051 6 121006011.30206  22620837.215 7  94115758.49707  22620837.512 7  94115761.49807
R20  20213028.059 6 108088171.91306  20213032.442 8  84068608.34208  20213033.030 8  84068615.34208
R21  22430407.634 7 120029714.98407  22430409.780 6  93356404.98006  22430410.043 6  93356420.98406  22430393.529 6  89935212.24506
S27  40223290.496 6 211374835.40306  40223269.903 6 157844852.07706
S28  38010266.122 6 199745277.18406  38010229.123 7 149160344.35007
S32  37406650.655 7 196573300.84607  37406616.294 5 146791619.53605
S34  37511138.250 7 197122380.45807  37511000.121 6 147201252.02306
S42  36759456.168 6 193172257.53206  36759314.752 6 144251435.69906
S43  36757379.654 8 193161324.14908  36757368.103 7 144243828.72207
S44  38032784.703 6 199863664.28306  38032771.399 7 149248789.15907
> 2025 03 16 15 52 21.0000000  0 41
C02                                                                  37612945.602 6 195860474.13806  37612939.053 7 151451747.61507  37612942.924 7 159152693.73807
C03                                                                  36518495.711 7 190161407.02407  36518491.294 7 147044853.09607  36518493.663 7 154521717.30107
C05                                                                  39890032.400 6 207717919.07106  39890030.192 6 160620700.76406  39890032.700 6
C06                                                                  37566030.457 7 195616433.95107  37566026.795 7 151263152.28907  37566027.127 7 158954464.98607
C07                                                                  40678729.867 5 211824769.10605  40678744.203 6 163796273.16206  40678739.284 6
C08                                                                  36318634.344 4 189120670.69404  36318627.993 4                  36318628.636 4
C09                                                                  38912618.394 5 202628577.18905  38912619.745 7 156685465.28907  38912617.010 6 164652463.09206
C10                                                                  40561283.415 6 211213062.13806  40561297.316 5 163323305.07605  40561291.855 5 171627881.82605
C13                                                                  36715782.596 7 191188730.42607  36715784.465 6 147839261.76006  36715783.274 7 155356510.18507
C20  24415229.986 7 128302898.38807  24415230.239 7  95810607.46707  24415230.923 7 127136693.95807                                  24415225.701 5 103309301.94305
C27  25453916.122 7 133761234.08807  25453934.627 6  99886706.16506  25453917.119 7 132544998.42707                                  25453929.690 7 107703620.98107
C29                                                                  24809888.929 6 129191607.58006                                  24809888.497 7 104978757.06407
C30  23822350.533 7 125187295.39707  23822354.618 7  93484035.96307  23822351.132 7 124049209.61707                                  23822354.560 7 100800151.67207
C32                                                                  22616597.197 4 117770577.11504                                  22616597.983 4  95698251.02804
C40                                  41515302.724 5 162914965.34405  41515288.404 6 216181042.41906                                  41515298.073 6 175664869.29016
C60                                                                  38032754.357 6 198046533.99606                                  38032741.528 7
E03  26707569.110 7 140349545.55807  26707572.633 5 104806683.21605  26707572.305 6 107540743.81306  26707572.022 6 106173721.54806
E05  22277396.990 8 117068572.12908  22277398.057 6  87421377.90206  22277396.218 6  89701926.84506  22277397.011 7  88561652.91907
E15  28340171.107 5 148928600.96905                                  28340173.436 5 114114134.16005
E34  24326586.304 7 127837115.69007  24326587.453 6  95462815.54406  24326586.299 7  97953142.73507  24326586.751 7  96707977.18007
E36  23921114.407 7 125706300.40707  23921117.456 6  93871593.03906  23921116.181 7  96320412.90407  23921116.536 7  95096002.51207
G10  25196459.985 6 132408291.56206  25196459.266 5  25196462.426 5 103175306.16405                                  25196460.064 6  98876322.01406
G15  20692542.219 3
G18  20727019.795 8 108921249.78008  20727019.545 5  20727017.294 5  84873706.18105  20727017.245 6  84873670.18806  20727020.265 6  81337280.21306
G23  21514884.141 7 113061551.62807  21514883.860 5  21514883.187 5  88099907.74105  21514882.257 6  88099841.75316  21514885.167 6  84429030.11206
G24  20051576.627 4
G29  25290767.063 7 132903764.91307  25290766.546 5  25290781.722 5 103561264.20305
I03  56965342.949 7 223544273.10707
I09  39854196.962 6 156396621.78606
R05  20515196.749 8 109665538.02208  20515199.014 7  85295453.45107  20515198.679 7  85295454.45507  20515183.778 7  82256186.22507
R06  23480113.796 3
R19  22621611.853 6 121010213.20006  22621622.656 6  94119026.61406  22621623.009 7  94119029.64107
R20  20213183.724 6 108089004.07306  20213188.081 7  84069255.59407  20213188.509 7  84069262.60207
R21  22429896.986 7 120026982.90407  22429899.367 5  93354280.04305  22429899.716 6  93354296.05206  22429883.129 5  89933165.14405
S27  40223259.056 6 211374670.83606  40223238.571 6 157844729.18506
S28  38010236.197 6 199745125.15206  38010200.223 7 149160230.83307
S32  37406622.430 7 196573153.48307  37406588.290 5 146791509.45605
S34  37511109.851 7 197122232.33407  37510971.962 6 147201141.39706
S42  36759427.576 6 193172107.20806  36759286.058 6 144251323.39006
S43  36757352.497 8 193161183.38808  36757341.313 7 144243723.60007
S44  38032758.464 6 199863520.32606  38032744.028 7 149248681.66007
> 2025 03 16 15 52 22.0000000  0 41
C02                                                                  37612912.628 5 195860302.08505  37612906.133 7 151451614.58907  37612909.887 7 159152553.92207
C03                                                                  36518470.594 7 190161276.22307  36518466.173 7 147044751.96307  36518468.533 8 154521610.99108
C05                                                                  39889999.122 6 207717745.22306  39889996.754 6 160620566.34806  39889999.368 7
C06                                                                  37565787.821 7 195615170.29207  37565784.134 7 151262175.14807  37565784.459 8 158953438.14408
C07                                                                  40678881.244 6 211825559.09606  40678895.964 6 163796884.05106  40678891.013 6
C08                                                                  36318479.655 4 189119865.12504  36318473.454 4                  36318474.271 4
C09                                                                  38912375.144 5 202627309.87005  38912376.299 7 156684485.34707  38912373.694 7 164651433.30207
C10                                                                  40561485.025 6 211214112.20906  40561498.702 5 163324117.07905  40561493.493 6 171628735.08206
C13                                                                  36715614.740 7 191187856.05307  36715616.521 6 147838585.64606  36715615.377 7 155355799.66507
C20  24414897.531 7 128301151.21207  24414897.645 7  95809302.75607  24414898.413 7 127134962.65907                                  24414893.313 6 103307895.09106
C27  25454468.876 7 133764139.25107  25454487.485 6  99888875.58006  25454470.034 7 132547877.17707                                  25454482.415 7 107705960.16107
C29  24809769.810 7 130376212.23817                                  24809769.959 6 129190988.46706                                  24809769.563 7 104978253.97007
C30  23822701.573 7 125189139.19307  23822705.535 7  93485412.82507  23822701.790 7 124051036.65907                                  23822705.389 7 100801636.27407
C32                                                                  22616589.965 4 117770539.80304                                  22616590.472 5  95698220.71305
C40                                  41515488.944 5 162915695.56005  41515474.121 6 216182011.31606                                  41515484.190 6 175665656.59006
C60                                                                  38032726.700 6 198046391.36906                                  38032714.153 7
E03  26707221.166 7 140347716.60807  26707224.613 5 104805317.45205  26707224.264 6 107539342.43406  26707223.983 6 106172337.97706
E05  22277350.501 8 117068327.53808  22277351.467 6  87421195.24506  22277349.745 6  89701739.43606  22277350.475 7  88561467.88607
E15  28339610.643 5 148925655.45205                                  28339613.061 5 114111877.18205
E34  24326338.988 7 127835816.22807  24326340.167 6  95461845.17006  24326339.031 7  97952147.04807  24326339.483 7  96706994.14907
E36  23921403.491 7 125707819.81507  23921406.591 6  93872727.65806  23921405.333 7  96321577.12607  23921405.680 7  95097151.93307
G10  25195897.459 6 132405335.19806  25195896.740 5  25195899.865 5 103173002.50305  25195898.952 6 103172991.51016  25195897.279 6  98874114.32306
G15  20692790.984 3
G18  20727019.455 8 108921247.88408  20727019.205 5  20727016.922 5  84873704.70305  20727016.671 6  84873668.71106  20727019.854 6  81337278.78806
G23  21514433.254 7 113059181.71407  21514432.977 5  21514432.215 5  88098061.05305  21514431.517 6  88097995.07006  21514434.217 6  84427260.37206
G24  20051372.739 4
G29  25291216.871 7 132906129.82907  25291216.353 5  25291231.750 5 103563107.00105
I03  56964962.285 7 223542779.39407
I09  39854108.179 6 156396271.64806
R05  20515187.458 8 109665487.83308  20515189.646 7  85295414.38707  20515189.318 7  85295415.39907  20515174.359 7  82256148.58207
R06  23479715.799 3
R19  22622397.222 6 121014415.26106  22622408.110 7  94122294.84607  22622408.302 7  94122297.86107
R20  20213339.412 6 108089837.14106  20213343.904 8  84069903.52008  20213344.448 8  84069910.52108
R21  22429386.658 7 120024251.54407  22429389.037 6  93352155.63706  22429388.748 6  93352171.63606  22429372.644 5  89931118.61705
S27  40223228.036 6 211374506.26906  40223207.185 6 157844606.22606
S28  38010205.531 6 199744973.11506  38010171.305 7 149160117.29707
S32  37406593.740 7 196573006.08907  37406560.184 5 146791399.40105
S34  37511081.603 7 197122084.22607  37510943.684 6 147201030.78306
S42  36759396.391 6 193171956.89306  36759257.480 6 144251211.09906
S43  36757325.891 8 193161042.65408  36757314.470 7 144243618.51007
S44  38032731.576 6 199863376.43906  38032716.546 7 149248574.18407
> 2025 03 16 15 52 23.0000000  0 40
C02                                                                  37612879.748 6 195860129.86506  37612873.029 7 151451481.41607  37612876.802 7 159152413.98207
C03                                                                  36518445.441 7 190161145.26707  36518441.056 7 147044650.68507  36518443.362 7 154521504.57407
C05                                                                  39889965.831 6 207717571.21006  39889963.476 6 160620431.78406  39889965.983 6
C06                                                                  37565545.117 7 195613906.58107  37565541.564 7 151261197.96007  37565541.786 8 158952411.26008
C07                                                                  40679033.123 5 211826348.80605  40679047.699 6 163797494.69706  40679042.579 6
C08                                                                  36318324.380 4 189119059.40404  36318319.013 4                  36318319.799 4
C09                                                                  38912131.472 5 202626042.52305  38912132.862 7 156683505.34807  38912130.285 7 164650403.48507
C10                                                                  40561686.576 6 211215161.99106  40561700.124 5 163324928.81705  40561695.255 5 171629588.10005
C13                                                                  36715446.748 7 191186981.50407  36715448.543 6 147837909.37306  36715447.435 7 155355089.00607
C20  24414565.016 7 128299403.89507  24414565.141 7  95807997.94607  24414566.010 7 127133231.22707                                  24414560.705 6 103306488.16206
C27  25455021.947 7 133767044.17607  25455039.875 6  99891044.79206  25455022.988 7 132550755.69107                                  25455035.173 7 107708299.16707
C29  24809650.838 7 130375587.79607                                  24809651.074 7 129190369.70107                                  24809650.747 7 104977751.17207
C30  23823052.438 7 125190983.15007  23823056.432 7  93486789.79707  23823052.703 7 124052863.84307                                  23823056.247 7 100803120.99807
C32                                                                  22616583.152 4 117770502.47004                                  22616583.346 4  95698190.32004
C40                                  41515674.678 5 162916425.47005  41515660.049 6 216182979.87606                                  41515670.200 6 175666443.64406
C60                                                                  38032699.222 6 198046248.59606                                  38032686.693 7
E03  26706873.188 7 140345887.66107  26706876.628 5 104803951.67905  26706876.208 6 107537941.02806  26706875.934 6 106170954.38806
E05  22277303.923 8 117068082.96208  22277304.892 6  87421012.61606  22277303.226 6  89701552.03106  22277303.947 7  88561282.86907
E15  28339050.072 5 148922709.89905                                  28339052.498 5 114109620.20605
E34  24326091.795 7 127834517.03607  24326092.992 6  95460874.99806  24326091.801 7  97951151.55707  24326092.261 7  96706011.31607
E36  23921692.682 7 125709339.46407  23921695.837 6  93873862.46806  23921694.538 7  96322741.53407  23921694.879 7  95098301.54107
G10  25195334.844 6 132402378.53606  25195334.125 5  25195337.236 5 103170698.60405  25195336.270 6 103170687.61406  25195334.691 6  98871906.43406
G15  20693037.728 3
G18  20727019.088 8 108921246.50308  20727018.838 5  20727016.635 5  84873703.62605  20727016.609 6  84873667.63806  20727019.679 6  81337277.75806
G23  21513982.389 7 113056811.76107  21513982.112 5  21513981.216 5  88096214.34305  21513980.492 6  88096148.35406  21513983.316 6  84425490.60406
G24  20051168.739 4
G29  25291666.440 7 132908494.38207  25291665.917 5  25291681.698 5 103564949.51905  25291680.670 5 103565204.54315
I03  56964581.581 7 223541285.57007
I09  39854018.965 6 156395921.38206
R05  20515178.030 8 109665437.58708  20515180.358 7  85295375.30907  20515179.989 7  85295376.31307  20515164.945 7  82256110.89307
R19  22623183.125 6 121018617.27806  22623193.787 7  94125563.06107  22623194.024 7  94125566.05707
R20  20213495.549 6 108090670.89706  20213499.829 8  84070552.00608  20213500.420 8  84070559.01008
R21  22428876.323 7 120021520.69007  22428878.741 6  93350031.63806  22428878.496 6  93350047.64106  22428862.312 6  89929072.45506
S27  40223195.800 6 211374341.46906  40223175.762 6 157844483.04806
S28  38010176.957 6 199744820.88706  38010142.355 7 149160003.59407
S32  37406565.153 7 196572858.56807  37406532.075 5 146791289.19805
S34  37511053.392 7 197121935.96807  37510915.504 6 147200920.03406
S42  36759368.806 6 193171806.38906  36759228.875 6 144251098.69806
S43  36757298.936 8 193160901.75908  36757287.649 7 144243513.30607
S44  38032704.665 6 199863232.34406  38032689.099 7 149248466.58907
> 2025 03 16 15 52 24.0000000  0 41
C02                                                                  37612846.855 6 195859957.57306  37612840.038 7 151451348.19407  37612843.676 7 159152273.97907
C03                                                                  36518420.337 7 190161014.21007  36518415.898 7 147044549.35207  36518418.191 7 154521398.08507
C05                                                                  39889932.464 6 207717397.11706  39889930.042 6 160620297.16006  39889932.598 6
C06                                                                  37565302.408 7 195612642.90907  37565298.871 7 151260220.81307  37565299.083 8 158951384.43308
C07                                                                  40679184.838 5 211827138.26605  40679199.243 6 163798105.15906  40679194.081 6
C08                                                                  36318169.259 4 189118253.58104  36318165.560 4                  36318165.286 4
C09                                                                  38911887.826 5 202624775.17705  38911889.429 7 156682525.36707  38911886.933 7 164649373.65307
C10                                                                  40561888.016 6 211216211.55006  40561901.780 5 163325740.39305  40561896.720 5 171630440.98705
C13                                                                  36715278.790 7 191186106.82507  36715280.692 6 147837233.00906  36715279.455 7 155354378.27107
C20  24414232.585 7 128297656.51407  24414232.562 7  95806693.08307  24414233.433 7 127131499.73107                                  24414228.236 6 103305081.18006
C27  25455574.636 7 133769948.93107  25455592.714 6  99893213.91506  25455575.734 7 132553634.03507                                  25455587.874 7 107710638.05007
C29  24809531.991 7 130374963.77807                                  24809532.464 7 129189751.36107                                  24809531.978 7 104977248.71107
C30  23823403.502 7 125192827.32507  23823407.253 7  93488166.93507  23823403.502 7 124054691.24907                                  23823407.241 7 100804605.92407
C32                                                                  22616575.717 4 117770465.10504                                  22616576.521 5  95698159.98805
C40                                  41515861.114 5 162917155.21505  41515845.928 6 216183948.19606                                  41515856.087 6 175667230.49606
C60                                                                  38032671.990 6 198046105.73906                                  38032659.224 7
E03  26706525.172 7 140344058.78807  26706528.768 5 104802585.96105  26706528.111 6 107536539.69506  26706527.912 6 106169570.86606
E05  22277257.423 8 117067838.48408  22277258.335 6  87420830.04406  22277256.671 6  89701364.70506  22277257.430 7  88561097.92007
E15  28338489.436 5 148919764.37905                                  28338491.858 5 114107363.24205
E34  24325844.636 7 127833218.18207  24325845.873 6  95459905.06606  24325844.603 7  97950156.33007  24325845.101 7  96705028.73707
E36  23921981.978 7 125710859.43707  23921985.139 6  93874997.51406  23921983.791 7  96323906.18307  23921984.116 7  95099451.38807
G10  25194772.015 6 132399421.66006  25194771.296 5  25194774.554 5 103168394.54505  25194773.798 6 103168383.55206  25194771.860 6  98869698.39306
G15  20693287.540 3
G18  20727018.892 8 108921245.73708  20727018.642 5  20727016.506 5  84873703.02805  20727016.372 6  84873667.03506  20727019.526 6  81337277.18006
G23  21513531.374 7 113054441.86807  21513531.097 5  21513530.240 5  88094367.67105  21513529.783 6  88094301.68106  21513532.441 6  84423720.88406
G24  20050965.160 4
G29  25292116.346 7 132910858.63807  25292115.823 5  25292131.606 5 103566791.80705  25292130.815 5 103567046.81805
I03  56964200.862 7 223539791.68407
I09  39853929.426 6 156395571.05306
R05  20515168.679 8 109665387.35108  20515170.963 8  85295336.23708  20515170.499 7  85295337.24807  20515155.487 7  82256073.22607
R06  23478910.607 3
R19  22623968.630 6 121022819.32706  22623979.393 7  94128831.29807  22623979.827 7  94128834.29907
R20  20213651.581 6 108091505.47706  20213655.840 8  84071201.11408  20213656.482 8  84071208.11108
R21  22428366.073 7 120018790.43407  22428368.480 6  93347908.10106  22428368.198 6  93347924.12806  22428352.040 5  89927026.73805
S27  40223164.114 6 211374176.53806  40223144.278 6 157844359.76506
S28  38010146.559 6 199744668.63606  38010113.384 7 149159889.88407
S32  37406537.729 7 196572710.95107  37406504.061 5 146791178.99505
S34  37511025.400 7 197121787.64107  37510887.230 6 147200809.22506
S42  36759341.247 6 193171655.82106  36759200.292 6 144250986.23706
S43  36757272.442 8 193160760.77808  36757260.766 7 144243408.01807
S44  38032676.812 6 199863088.18706  38032661.809 7 149248358.93107
> 2025 03 16 15 52 25.0000000  0 41
C02                                                                  37612813.801 6 195859785.52306  37612807.032 7 151451215.16007  37612810.702 7 159152134.19007
C03                                                                  36518395.283 7 190160883.40307  36518390.629 7 147044448.21107  36518393.101 8 154521291.79008
C05                                                                  39889899.011 6 207717223.27106  39889896.925 6 160620162.71506  39889899.231 7
C06                                                                  37565059.677 7 195611379.58207  37565056.375 7 151259243.93807  37565056.460 8 158950357.88508
C07                                                                  40679336.753 5 211827927.80605  40679350.912 6 163798715.70306  40679345.752 6
C08                                                                  36318014.945 4 189117447.90504  36318011.240 4                  36318010.126 4
C09                                                                  38911644.915 5 202623508.19205  38911646.041 7 156681545.63907  38911643.628 7 164648344.11007
C10                                                                  40562089.752 6 211217261.26006  40562103.173 5 163326552.12405  40562098.245 6 171631293.95906
C13                                                                  36715110.892 7 191185232.37107  36715112.847 6 147836556.83306  36715111.525 7 155353667.70207
C20  24413900.105 7 128295909.39507  24413900.101 7  95805388.41807  24413901.035 7 127129768.50307                                  24413895.666 6
C27  25456127.396 7 133772853.84707  25456145.503 6  99895383.15406  25456128.532 7 132556512.54107                                  25456140.667 7 107712977.04707
C29  24809413.426 7 130374340.52307                                  24809413.823 7 129189133.75807                                  24809413.369 7 104976746.86407
C30  23823754.575 7 125194672.05407  23823758.316 7  93489544.48207  23823754.491 7 124056519.21107                                  23823758.220 7 100806091.27507
C32                                                                  22616568.401 4 117770428.04604                                  22616569.602 5  95698129.91805
C40  41516031.372 5 218168222.45215  41516046.962 5 162917885.01205  41516031.549 6 216184916.59306                                  41516042.059 6 175668017.40006
C60                                                                  38032644.431 6 198045963.12306                                  38032631.768 7
E03  26706177.246 7 140342230.31807  26706180.840 5 104801220.53405  26706180.084 6 107535138.66406  26706179.935 6 106168187.64006
E05  22277210.962 8 117067594.42308  22277211.907 6  87420647.79706  22277210.206 6  89701177.69706  22277210.978 7  88560913.29307
E15  28337929.151 5 148916819.21905                                  28337931.178 5 114105106.54905
E34  24325597.591 7 127831919.99907  24325598.847 6  95458935.64506  24325597.619 7  97949161.61707  24325598.056 7  96704046.67007
E36  23922271.381 7 125712380.05407  23922274.529 6  93876133.03606  23922273.135 7  96325071.33207  23922273.483 7  95100601.72507
G10  25194209.289 6 132396464.90006  25194208.570 5  25194211.903 5 103166090.57605  25194211.197 6 103166079.58906  25194209.197 6  98867490.42206
G15  20693535.773 3
G18  20727018.825 8 108921245.89308  20727018.575 5  20727016.537 5  84873703.15005  20727016.394 6  84873667.16806  20727019.590 6  81337277.30206
G23  21513080.601 7 113052072.33807  21513080.324 5  21513079.330 5  88092521.29205  21513079.237 6  88092455.29206  21513081.498 6  84421951.42706
G24  20050761.218 4
G29  25292566.274 7 132913222.95707  25292565.751 5  25292581.523 5 103568634.13705  25292581.076 5 103568889.15505
I03  56963820.180 7 223538297.98207
I09  39853839.913 6 156395220.88506
R05  20515159.380 8 109665337.43908  20515161.667 8  85295297.42108  20515161.344 8  85295298.42708  20515146.137 7  82256035.79307
R06  23478505.983 3
R19  22624754.032 6 121027021.75406  22624765.209 7  94132099.82607  22624765.512 7  94132102.82507
R20  20213807.828 6 108092341.17906  20213812.100 8  84071851.09408  20213812.781 8  84071858.09008
R21  22427855.864 7 120016061.10607  22427858.429 6  93345785.29706  22427857.515 6  93345801.31506  22427841.940 5  89924981.71605
S27  40223132.522 6 211374011.83806  40223112.882 6 157844236.66506
S28  38010117.753 6 199744516.64606  38010084.479 7 149159776.36707
S32  37406510.769 7 196572563.53507  37406475.952 5 146791068.89305
S34  37510996.106 7 197121639.55007  37510859.041 6 147200698.61006
S42  36759311.801 6 193171505.55006  36759171.727 6 144250873.99306
S43  36757245.903 8 193160620.04508  36757234.003 7 144243302.92407
S44  38032652.222 6 199862944.23406  38032634.349 7 149248251.46307
> 2025 03 16 15 52 26.0000000  0 41
C02                                                                  37612780.796 6 195859613.77406  37612774.023 7 151451082.34707  37612777.729 7 159151994.63807
C03                                                                  36518370.304 7 190160752.88207  36518365.624 7 147044347.27807  36518367.984 7 154521185.73907
C05                                                                  39889865.702 6 207717049.68706  39889863.388 6 160620028.48606  39889865.819 6
C06                                                                  37564817.255 7 195610116.66807  37564813.794 7 151258267.36407  37564813.924 7 158949331.67407
C07                                                                  40679488.674 5 211828717.54105  40679502.639 6 163799326.36106  40679497.465 6
C08                                                                                                  36317857.376 4                  36317855.126 4
C09                                                                  38911401.529 5 202622241.51005  38911402.805 7 156680566.18907  38911400.238 6 164647314.87206
C10                                                                  40562291.507 6 211218311.09006  40562304.546 5 163327363.91605  40562299.824 5 171632147.05805
C13                                                                  36714943.047 7 191184358.17107  36714945.063 6 147835880.84506  36714943.658 7 155352957.36107
C20  24413567.729 7 128294162.57607  24413567.640 7  95804083.98107  24413568.635 7 127128037.56007                                  24413563.353 5
C27  25456680.160 7 133775758.97007  25456698.437 6  99897552.52106  25456681.336 7 132559391.26307                                  25456693.532 7 107715316.23707
C29  24809294.964 7 130373718.04607                                  24809295.381 7 129188516.93807                                  24809294.961 7 104976245.66607
C30  23824105.841 7 125196517.36007  23824109.500 7  93490922.46507  23824105.726 7 124058347.74507                                  23824109.328 7 100807577.12007
C32                                                                  22616561.811 4 117770391.38904                                  22616562.355 4  95698100.10604
C40  41516217.306 5 218169199.84005  41516233.016 5 162918614.91105  41516217.495 6 216185885.10706                                  41516228.038 6 175668804.40706
C60                                                                  38032617.172 6 198045820.79306                                  38032604.518 7
E03  26705829.367 7 140340402.27607  26705833.183 5 104799855.47505  26705832.196 6 107533737.96206  26705832.110 6 106166804.74906
E05  22277164.653 8 117067350.81308  22277165.527 6  87420465.88206  22277163.865 6  89700991.03206  22277164.603 7  88560729.00307
E15  28337368.835 5 148913874.45605                                  28337370.752 5 114102850.19705
E34  24325350.668 7 127830622.51707  24325352.020 6  95457966.75006  24325350.731 7  97948167.44807  24325351.138 7  96703065.13907
E36  23922560.914 7 125713901.36407  23922563.926 6  93877269.06506  23922562.629 7  96326237.00107  23922562.981 7  95101752.57507
G10  25193646.488 6 132393508.30806  25193645.773 5  25193649.306 5 103163786.74005  25193649.065 6 103163775.74106  25193646.732 6  98865282.57406
G15  20693786.135 3
G18  20727019.017 8 108921247.02508  20727018.767 5  20727016.761 5  84873704.03005  20727016.385 7  84873668.04107  20727019.862 6  81337278.12606
G23  21512629.882 7 113049703.23107  21512629.610 5  21512628.506 5  88090675.23105  21512628.327 6  88090609.23706  21512630.665 6  84420182.28506
G24  20050556.977 4
G29  25293016.106 6 132915587.32706  25293015.579 5  25293031.462 5 103570476.51605  25293031.359 5 103570731.53105
I03  56963439.602 7 223536804.49907
I09  39853750.518 6 156394870.94106
R05  20515149.992 8 109665287.88408  20515152.370 7  85295258.90107  20515152.229 7  85295259.91307  20515136.912 7  82255998.61807
R06  23478100.881 3
R19  22625539.644 6 121031224.59306  22625551.025 6  94135368.67006  22625551.071 7  94135371.67907
R20  20213964.196 6 108093178.03206  20213968.576 7  84072502.00107  20213969.232 7  84072509.00107
R21  22427345.848 7 120013332.79507  22427348.673 5  93343663.28405  22427348.059 6  93343679.30406  22427332.205 6  89922937.46206
S27  40223101.369 6 211373847.53806  40223081.595 6 157844113.90306
S28  38010089.170 6 199744364.98006  38010055.579 7 149159663.08707
S32  37406482.209 7 196572416.32107  37406448.081 5 146790958.92805
S34  37510968.552 7 197121491.73907  37510830.955 6 147200588.20006
S42  36759282.803 6 193171355.56806  36759143.306 6 144250761.95606
S43  36757219.221 8 193160479.59508  36757207.326 7 144243198.04307
S44  38032623.725 6 199862800.58206  38032606.996 7 149248144.19407
> 2025 03 16 15 52 27.0000000  0 41
C02                                                                  37612747.836 6 195859442.10306  37612741.018 7 151450949.57407  37612744.742 7 159151855.09607
C03                                                                  36518345.308 7 190160622.40807  36518340.511 7 147044246.38907  36518342.907 7 154521079.70907
C05                                                                  39889832.483 6 207716876.16706  39889830.029 6 160619894.32706  39889832.514 6
C06                                                                  37564574.855 7 195608853.90907  37564571.264 7 151257290.92907  37564571.428 8 158948305.57708
C07                                                                  40679640.541 5 211829507.14705  40679654.186 6 163799936.94706  40679649.128 6
C08                                                                  36317705.114 4 189115837.29604  36317703.145 4                  36317700.501 4
C09                                                                  38911158.277 5 202620975.03405  38911159.536 7 156679586.85507  38911157.008 7 164646285.73807
C10                                                                  40562493.027 6 211219360.89706  40562506.406 5 163328175.68505  40562501.307 6 171633000.07406
C13                                                                  36714775.156 7 191183484.00307  36714777.032 6 147835204.89406  36714775.789 7 155352247.01107
C20  24413235.393 7 128292415.82307  24413235.189 7  95802779.57807  24413236.353 7 127126306.68707                                  24413230.758 6
C27  25457232.911 7 133778664.06707  25457251.358 6  99899721.89206  25457234.190 7 132562269.93807                                  25457246.333 7 107717655.37307
C29  24809176.584 7 130373096.12207                                  24809177.232 7 129187900.66107                                  24809176.634 7 104975744.87407
C30  23824457.124 7 125198363.03607  23824460.732 7  93492300.73507  23824456.922 7 124060176.63607                                  23824460.541 7 100809063.23707
C32                                                                  22616555.430 4 117770354.79004                                  22616555.521 5  95698070.39405
C40  41516403.178 5 218170177.11605  41516418.833 5 162919344.71605  41516403.539 6 216186853.47906                                  41516414.063 6
C60                                                                  38032590.110 6 198045678.51606                                  38032577.147 7
E03  26705481.610 7 140338574.45907  26705485.254 5 104798490.55905  26705484.374 6 107532337.43306  26705484.258 6 106165422.03006
E05  22277118.322 8 117067107.44008  22277119.203 6  87420284.13106  22277117.561 6  89700804.55106  22277118.299 7  88560544.88807
E15  28336808.584 5 148910929.84005                                  28336810.540 5 114100593.95405
E34  24325103.823 7 127829325.50607  24325105.203 6  95456998.19806  24325103.867 7  97947173.63507  24325104.327 7  96702083.95807
E36  23922850.505 7 125715423.11107  23922853.507 6  93878405.44206  23922852.207 7  96327403.02407  23922852.563 7  95102903.77207
G10  25193083.973 6 132390551.64006  25193083.263 5  25193086.691 5 103161482.84505  25193086.333 6 103161471.86406  25193083.964 6  98863074.66906
G15  20694036.250 3
G18  20727019.361 8 108921248.89908  20727019.111 5  20727017.118 5  84873705.48905  20727016.711 6  84873669.49706  20727020.104 6  81337279.54706
G23  21512179.183 7 113047334.31107  21512178.911 5  21512177.726 5  88088829.32205  21512177.502 6  88088763.31206  21512179.864 6  84418413.28506
G24  20050352.628 4
G29  25293466.154 6 132917951.58006  25293465.622 5  25293481.365 5 103572318.80005  25293481.643 5 103572573.79605
I03  56963059.005 7 223535311.06307
I09  39853661.393 6 156394521.04706
R05  20515140.728 8 109665238.47108  20515143.078 7  85295220.44707  20515142.990 8  85295221.46008  20515127.700 7  82255961.54807
R06  23477698.203 3
R19  22626325.744 6 121035427.58106  22626336.752 7  94138637.62007  22626336.697 7  94138640.63707
R20  20214121.061 6 108094015.82506  20214125.253 8  84073153.59208  20214125.933 8  84073160.60708
R21  22426836.272 7 120010605.25907  22426838.778 6  93341541.88006  22426838.298 6  93341557.87106  22426822.510 5  89920893.78305
S27  40223069.692 6 211373683.33606  40223050.387 6 157843991.24506
S28  38010060.145 6 199744213.40006  38010026.755 7 149159549.87207
S32  37406454.543 7 196572269.20407  37406420.191 5 146790849.08105
S34  37510940.931 7 197121343.99107  37510802.793 6 147200477.83606
S42  36759256.013 6 193171205.61506  36759114.848 6 144250649.97606
S43  36757192.440 8 193160339.19808  36757180.617 7 144243093.19907
S44  38032593.644 6 199862657.04306  38032579.701 7 149248036.98007
> 2025 03 16 15 52 28.0000000  0 41
C02                                                                  37612714.701 6 195859270.44306  37612708.107 7 151450816.85407  37612711.795 7 159151715.62507
C03                                                                  36518320.262 7 190160491.98007  36518315.488 7 147044145.53007  36518317.879 8 154520973.72508
C05                                                                  39889799.303 6 207716702.69106  39889796.501 6 160619760.16806  39889799.156 7 168786865.93517
C06                                                                  37564332.424 7 195607591.32607  37564328.838 7 151256314.61907  37564328.964 8 158947279.61808
C07                                                                  40679792.256 6 211830296.66506  40679805.749 6 163800547.44906  40679800.794 6
C08                                                                  36317549.792 4 189115032.05504  36317548.597 4                  36317546.204 4
C09                                                                  38910915.157 5 202619708.64905  38910916.367 7 156678607.60407  38910913.823 7 164645256.68407
C10                                                                  40562694.722 6 211220410.60806  40562708.372 5 163328987.42505  40562702.902 6 171633853.06806
C13                                                                  36714607.139 7 191182609.88407  36714609.089 6 147834528.96906  36714607.933 7 155351536.72907
C20  24412903.021 7 128290669.13407  24412902.867 7  95801475.23607  24412904.062 7 127124575.88207                                  24412898.337 6
C27  25457785.748 7 133781569.12207  25457804.270 6  99901891.22606  25457787.008 7 132565148.59307                                  25457799.097 7 107719994.49507
C29  24809058.282 7 130372474.74307                                  24809059.026 7 129187284.94207                                  24809058.359 7 104975244.55107
C30  23824808.391 7 125200209.05707  23824812.049 7  93493679.25107  23824808.199 7 124062005.87807                                  23824811.788 7 100810549.63707
C32                                                                  22616549.032 4 117770318.42004                                  22616548.345 5  95698040.76305
C40  41516589.166 5 218171154.26705  41516604.823 5 162920074.39105  41516589.461 6 216187821.75106                                  41516600.012 6
C60                                                                  38032562.717 6 198045536.29506                                  38032549.776 7
E03  26705133.882 7 140336746.83407  26705137.625 5 104797125.75105  26705136.595 6 107530937.05006  26705136.446 6 106164039.44006
E05  22277072.093 8 117066864.28108  22277073.006 6  87420102.56606  22277071.320 6  89700618.24006  22277072.032 7  88560360.94807
E15  28336248.308 5 148907985.42405                                  28336250.186 5 114098337.81505
E34  24324857.075 7 127828028.97407  24324858.437 6  95456030.02406  24324857.163 7  97946180.18807  24324857.610 7  96701103.14407
E36  23923140.217 7 125716945.31307  23923143.110 6  93879542.15206  23923141.840 7  96328569.38907  23923142.221 7  95104055.31107
G10  25192521.540 6 132387594.90206  25192520.834 5  25192524.058 5 103159178.89105  25192523.429 6 103159167.90306  25192521.227 6  98860866.71306
G15  20694287.457 4
G18  20727019.853 8 108921251.50108  20727019.599 5  20727017.606 5  84873707.51605  20727017.361 6  84873671.52306  20727020.578 6  81337281.48806
G23  21511728.449 7 113044965.56407  21511728.172 5  21511727.009 5  88086983.54605  21511726.921 6  88086917.55306  21511729.087 6  84416644.42706
G24  20050149.308 4
G29  25293915.827 6 132920315.65706  25293915.300 5  25293931.233 5 103574160.94205  25293931.994 5 103574415.97705
I03  56962678.397 7 223533817.66107
I09  39853572.386 6 156394171.16506
R05  20515131.408 8 109665189.19808  20515133.818 8  85295182.12908  20515133.802 8  85295183.13708  20515118.548 7  82255924.60107
R06  23477294.348 3
R19  22627111.425 6 121039630.74006  22627122.362 7  94141906.73007  22627122.460 7  94141909.73407
R20  20214277.582 6 108094854.54806  20214282.131 8  84073805.94408  20214282.719 8  84073812.93608
R21  22426326.859 7 120007878.44407  22426329.134 6  93339421.00906  22426328.772 6  93339437.00806  22426313.057 5  89918850.67705
S27  40223039.361 6 211373519.15806  40223019.274 6 157843868.62606
S28  38010031.433 6 199744061.80206  38009997.864 7 149159436.63207
S32  37406426.327 7 196572122.13807  37406392.069 5 146790739.27405
S34  37510913.461 7 197121196.28207  37510774.617 6 147200367.51806
S42  36759227.574 6 193171055.73106  36759086.319 6 144250538.03306
S43  36757165.704 8 193160198.84808  36757153.930 7 144242988.39507
S44  38032566.184 6 199862513.51206  38032552.312 7 149247929.78607
> 2025 03 16 15 52 29.0000000  0 39
C02                                                                  37612681.718 6 195859098.83406  37612675.066 7 151450684.15707  37612678.807 7 159151576.17607
C03                                                                  36518295.257 7 190160361.59307  36518290.456 7 147044044.71107  36518292.829 8 154520867.76408
C05                                                                  39889765.940 6 207716529.26306  39889763.326 6 160619626.06806  39889765.883 7 168786725.00707
C06                                                                  37564089.914 7 195606328.90107  37564086.447 7 151255338.43307  37564086.563 8 158946253.80408
C07                                                                  40679944.126 6 211831086.06706  40679957.263 6 163801157.85806  40679952.377 6
C08                                                                  36317395.588 4 189114226.79904  36317393.767 4                  36317391.866 4
C09                                                                  38910672.511 5 202618442.41205  38910673.089 7 156677628.45907  38910670.702 7 164644227.76807
C10                                                                  40562896.384 6 211221460.24906  40562909.961 5 163329799.07805  40562904.490 6 171634705.99506
C13                                                                  36714439.299 7 191181735.75707  36714441.178 6 147833853.03606  36714440.042 7 155350826.42507
C20  24412570.603 7 128288922.50507  24412570.502 7  95800170.94307  24412571.729 7 127122845.12507                                  24412566.020 6
C27  25458338.611 7 133784474.14507  25458357.192 6  99904060.53506  25458339.862 7 132568027.20107                                  25458351.902 7 107722333.57807
C29  24808940.092 7 130371853.91207                                  24808940.848 7 129186669.74107                                  24808940.165 7 104974744.66507
C30  23825159.771 7 125202055.42807  23825163.448 7  93495058.03307  23825159.583 7 124063835.48207                                  23825163.176 8 100812036.33208
C32                                                                  22616541.812 4 117770282.13904                                  22616541.246 5  95698011.27005
C40  41516775.109 5 218172131.29105  41516790.595 5 162920804.01805  41516775.673 6 216188789.90506                                  41516786.033 6
C60                                                                  38032535.431 6 198045394.11606                                  38032522.526 7
E03  26704786.223 7 140334919.41607  26704789.832 5 104795761.13705  26704788.856 6 107529536.82606  26704788.674 6 106162657.02006
E05  22277025.880 8 117066621.33808  22277026.738 6  87419921.14506  22277025.039 6  89700432.08706  22277025.808 7  88560177.16207
E15  28335687.995 5 148905041.15705                                  28335690.027 5 114096081.82605
E34  24324610.393 7 127826732.89907  24324611.765 6  95455062.16806  24324610.509 7  97945187.09207  24324610.973 7  96700122.67007
E36  23923430.020 7 125718467.97207  23923432.839 6  93880679.19006  23923431.580 7  96329736.09707  23923431.969 7  95105207.18507
G10  25191959.063 6 132384638.07406  25191958.357 5  25191961.416 5 103156874.87205  25191960.764 6 103156863.86906  25191958.658 6  98858658.67906
G18  20727020.452 8 108921254.82808  20727020.198 5  20727018.259 5  84873710.10705  20727017.968 6  84873674.11806  20727021.114 6  81337283.97306
G23  21511277.700 7 113042596.99307  21511277.423 5  21511276.305 5  88085137.90505  21511276.350 6  88085071.90806  21511278.332 6  84414875.67206
G24  20049946.001 4
G29  25294365.771 6 132922679.58306  25294365.239 5  25294381.101 5 103576002.97105  25294381.308 5 103576257.97605
I03  56962297.828 7 223532324.29707
I09  39853483.283 6 156393821.32106
R05  20515122.195 8 109665140.08908  20515124.602 8  85295143.92308  20515124.525 8  85295144.93208  20515109.418 7  82255887.75207
R19  22627896.943 6 121043834.07806  22627907.991 7  94145175.96107  22627908.314 7  94145178.95607
R20  20214434.762 6 108095694.20906  20214439.187 8  84074459.00908  20214439.676 8  84074466.00708
R21  22425817.365 7 120005152.32707  22425819.588 6  93337300.69306  22425819.851 6  93337316.69906  22425803.547 6  89916808.04906
S27  40223007.152 6 211373354.98906  40222988.178 6 157843746.03106
S28  38010002.944 6 199743910.24606  38009969.040 7 149159323.40007
S32  37406397.816 7 196571975.14307  37406364.072 5 146790629.51205
S34  37510886.359 7 197121048.64807  37510746.540 6 147200257.27506
S42  36759197.104 6 193170905.88806  36759057.866 6 144250426.16706
S43  36757138.597 8 193160058.53708  36757127.199 7 144242883.61907
S44  38032539.153 6 199862370.02806  38032524.986 7 149247822.64707
> 2025 03 16 15 52 30.0000000  0 40
C02                                                                  37612648.405 6 195858927.05206  37612642.092 7 151450551.32007  37612645.780 7 159151436.60207
C03                                                                  36518270.167 7 190160231.04707  36518265.343 7 147043943.76307  36518267.766 8
C05                                                                  39889732.640 6 207716355.66606  39889729.874 6 160619491.84306  39889732.565 7 168786583.94207
C06                                                                  37563847.535 7 195605066.42707  37563844.016 7 151254362.21107  37563844.119 8 158945227.93008
C07                                                                  40680095.821 6 211831875.15306  40680108.736 6 163801768.06506  40680103.839 6
C08                                                                  36317241.241 4 189113421.46004  36317239.031 4                  36317237.384 4
C09                                                                  38910428.954 5 202617176.10105  38910429.850 7 156676649.26707  38910427.545 7 164643198.76407
C10                                                                  40563097.877 6 211222509.60406  40563111.368 5 163330610.49305  40563106.069 6 171635558.68606
C13                                                                  36714271.320 7 191180861.44807  36714273.210 6 147833176.96506  36714272.142 7 155350115.96907
C20  24412238.214 7 128287175.74407  24412238.121 7  95798866.54807  24412239.286 7 127121114.24007                                  24412233.624 6
C27  25458891.395 7 133787378.91707  25458910.082 6  99906229.64706  25458892.554 7 132570905.56607                                  25458904.696 7 107724672.46507
C29  24808822.027 7 130371233.42907                                  24808822.909 7 129186054.91707                                  24808822.102 7 104974245.04707
C30  23825511.199 7 125203901.94107  23825514.865 7  93496436.93107  23825510.965 7 124065665.21507                                  23825514.540 7 100813523.13707
C32                                                                  22616533.985 4 117770245.77104                                  22616533.945 5  95697981.75505
C40  41516961.096 5 218173107.98305  41516976.494 5 162921533.38705  41516961.357 6 216189757.70406                                  41516971.704 6
C60                                                                  38032508.163 6 198045251.77206                                  38032495.312 7
E03  26704438.417 7 140333091.98307  26704441.860 5 104794396.51505  26704440.997 6 107528136.58406  26704440.916 6 106161274.58206
E05  22276979.672 8 117066378.40508  22276980.544 6  87419739.73806  22276978.806 6  89700245.94906  22276979.572 7  88559993.39007
E15  28335127.590 5 148902096.81305                                  28335129.829 5 114093825.74005
E34  24324363.843 7 127825437.08907  24324365.125 6  95454094.52706  24324363.943 7  97944194.20407  24324364.385 7  96699142.40707
E36  23923719.943 7 125719990.85307  23923722.596 6  93881816.41906  23923721.327 7  96330902.98007  23923721.761 7  95106359.24107
G10  25191396.598 6 132381680.96006  25191395.892 5  25191398.698 5 103154570.62405  25191397.736 6 103154559.62506  25191396.010 6  98856450.44806
G18  20727021.172 8 108921258.69008  20727020.918 5  20727018.992 5  84873713.11205  20727018.527 6  84873677.12306  20727021.844 6  81337286.84306
G23  21510826.967 7 113040228.38707  21510826.690 5  21510825.570 5  88083292.24005  21510825.589 6  88083226.23506  21510827.586 6  84413106.92206
G24  20049742.618 4
G29  25294815.474 6 132925043.14906  25294814.942 5  25294830.914 5 103577844.71905  25294830.972 5 103578099.73905
I03  56961917.315 7 223530830.80807
I09  39853394.436 6 156393471.33406
R05  20515113.031 8 109665090.91508  20515115.417 8  85295105.68208  20515115.254 8  85295106.69008  20515100.216 7  82255850.88207
R06  23476483.723 3
R19  22628682.525 6 121048037.36106  22628693.722 7  94148445.15807  22628694.106 7  94148448.15507
R20  20214591.992 6 108096534.59006  20214596.383 8  84075112.63208  20214596.793 8  84075119.62508
R21  22425308.050 7 120002426.72207  22425310.167 6  93335180.77206  22425310.305 6  93335196.78706  22425294.269 6  89914765.82806
S27  40222974.853 6 211373190.65006  40222956.921 6 157843623.30406
S28  38009975.350 6 199743758.50506  38009940.216 7 149159210.03807
S32  37406369.663 7 196571827.98607  37406336.102 5 146790519.65605
S34  37510857.620 7 197120900.85507  37510718.449 6 147200146.87406
S42  36759165.678 6 193170755.92206  36759029.212 6 144250314.16506
S43  36757112.197 8 193159918.06508  36757100.454 7 144242778.71807
S44  38032512.542 6 199862226.36706  38032497.664 7 149247715.37207
> 2025 03 16 15 52 31.0000000  0 41
C02                                                                  37612615.230 6 195858755.04606  37612609.069 7 151450418.32307  37612612.802 7 159151296.82707
C03                                                                  36518245.166 7 190160100.26307  36518240.226 7 147043842.62207  36518242.622 8
C05                                                                  39889699.242 6 207716181.82406  39889696.256 6 160619357.41906  39889699.139 7 168786442.67607
C06                                                                  37563605.050 7 195603803.81707  37563601.598 7 151253385.88207  37563601.624 8 158944201.95908
C07                                                                  40680247.863 6 211832663.88906  40680260.206 6 163802377.95006  40680255.254 6
C08                                                                  36317086.885 4 189112615.82904  36317083.629 4                  36317082.680 4
C09                                                                  38910186.091 5 202615909.57905  38910186.630 7 156675669.94007  38910184.397 7 164642169.64607
C10                                                                  40563299.700 6 211223558.59906  40563312.695 5 163331421.65705  40563307.531 6 171636411.09206
C13                                                                  36714103.319 7 191179986.85207  36714105.139 6 147832500.67506  36714104.184 7 155349405.29407
C20  24411905.768 7 128285428.74007  24411905.698 7  95797561.97507  24411906.854 7 127119383.12407                                  24411901.178 6
C27  25459444.231 7 133790283.36007  25459462.838 6  99908398.54006  25459445.343 7 132573783.60007                                  25459457.374 7 107727011.09107
C29  24808704.021 7 130370613.20107                                  24808704.945 7 129185440.32507                                  24808704.071 7 104973745.64307
C30  23825862.546 7 125205748.52307  23825866.281 7  93497815.86507  23825862.428 7 124067494.99807                                  23825865.987 7 100815009.99007
C32                                                                  22616526.633 4 117770209.21404                                  22616527.281 5  95697952.04105
C40  41517146.734 5 218174084.24205  41517162.303 5 162922262.42205  41517147.392 6 216190725.10906                                  41517157.401 6
C60                                                                  38032480.582 6 198045109.18106                                  38032467.950 7
E03  26704090.716 7 140331264.47507  26704093.998 5 104793031.84505  26704093.154 6 107526736.29006  26704093.203 6 106159892.09706
E05  22276933.388 8 117066135.41608  22276934.338 6  87419558.27506  22276932.605 6  89700059.75706  22276933.340 7  88559809.56207
E15  28334567.195 5 148899152.33505                                  28334569.439 5 114091569.64005
E34  24324117.253 7 127824141.45807  24324118.575 6  95453126.99606  24324117.385 7  97943201.43807  24324117.820 7  96698162.25707
E36  23924009.823 7 125721513.89807  23924012.437 6  93882953.75806  23924011.177 7  96332069.99107  23924011.590 7  95107511.41507
G10  25190833.944 6 132378723.46506  25190833.238 5  25190835.922 5 103152266.08105  25190835.153 6 103152255.07906  25190833.235 6  98854241.91306
G15  20695040.827 3
G18  20727022.004 8 108921262.98308  20727021.750 5  20727019.815 5  84873716.45505  20727019.399 6  84873680.47106  20727022.756 6  81337290.06406
G23  21510376.233 7 113037859.66907  21510375.956 5  21510374.808 5  88081446.48205  21510374.937 6  88081380.48806  21510376.743 6  84411338.06506
G24  20049539.866 4
G29  25295265.175 6 132927406.25406  25295264.643 5  25295280.612 5 103579686.10905  25295280.832 5 103579941.11505
I03  56961536.818 7 223529337.15507
I09  39853304.857 6 156393121.18906
R05  20515103.855 8 109665041.59808  20515106.232 8  85295067.32308  20515105.783 8  85295068.32608  20515090.892 7  82255813.89007
R06  23476080.347 3
R19  22629468.597 6 121052240.51306  22629479.207 7  94151714.25307  22629479.761 7  94151717.25507
R20  20214749.547 6 108097375.58606  20214753.712 8  84075766.74108  20214754.109 8  84075773.73908
R21  22424798.953 7 119999701.55707  22424800.805 6  93333061.20506  22424800.730 6  93333077.21106  22424785.050 5  89912723.92005
S27  40222943.766 6 211373026.15806  40222925.593 6 157843500.51206
S28  38009946.454 6 199743606.50706  38009911.302 7 149159096.50207
S32  37406342.377 7 196571680.57907  37406308.065 5 146790409.60005
S34  37510829.462 7 197120752.80707  37510690.376 6 147200036.33406
S42  36759138.781 6 193170605.71106  36759000.625 6 144250202.02006
S43  36757085.703 8 193159777.34608  36757073.655 7 144242673.63707
S44  38032485.297 6 199862082.44206  38032470.222 7 149247607.91407
> 2025 03 16 15 52 32.0000000  0 41
C02                                                                  37612581.822 6 195858583.18906  37612576.096 7 151450285.43307  37612579.779 7 159151157.18907
C03                                                                  36518219.982 7 190159969.61907  36518215.176 7 147043741.60807  36518217.576 7 154520549.25907
C05                                                                  39889665.848 6 207716008.13106  39889663.130 6 160619223.09506  39889665.843 6 168786301.54706
C06                                                                  37563362.598 7 195602541.45707  37563359.176 7 151252409.74807  37563359.209 8 158943176.19308
C07                                                                  40680400.012 6 211833452.58506  40680411.714 6 163802987.83206  40680406.712 6
C08                                                                  36316932.397 4 189111810.33604  36316929.309 4                  36316928.445 4
C09                                                                  38909942.767 5 202614643.37305  38909943.388 7 156674690.81007  38909941.199 7 164641140.72807
C10                                                                  40563501.220 6 211224607.65106  40563514.247 5 163332232.84805  40563508.958 6 171637263.51606
C13                                                                  36713935.352 7 191179112.40007  36713937.303 6 147831824.48806  36713936.207 7 155348694.73607
C20  24411573.368 7 128283681.91407  24411573.283 7  95796257.51407  24411574.449 7 127117652.18007                                  24411568.886 6
C27  25459997.029 7 133793187.89207  25460015.543 6  99910567.46606  25459998.121 7 132576661.72207                                  25460010.078 7 107729349.78107
C29  24808586.272 7 130369993.62407                                  24808587.095 7 129184826.37307                                  24808586.177 7 104973246.76607
C30  23826214.063 7 125207595.55707  23826217.786 7  93499195.14407  23826213.991 7 124069325.25307                                  23826217.475 7 100816497.21207
C32                                                                  22616519.323 4 117770172.91904                                  22616520.357 5  95697922.55605
C40  41517332.491 5 218175060.52105  41517348.155 5 162922991.45905  41517333.323 6 216191692.50006                                  41517343.121 6
C60                                                                  38032452.974 6 198044966.75706                                  38032440.593 7
E03  26703742.947 7 140329437.26307  26703746.254 5 104791667.32405  26703745.520 6 107525336.23306  26703745.482 6 106158509.81706
E05  22276887.176 8 117065892.72908  22276888.178 6  87419377.05506  22276886.416 6  89699873.80806  22276887.152 7  88559625.97807
E15  28334007.031 6 148896208.15006                                  28334009.313 5 114089313.69005
E34  24323870.864 7 127822846.39207  24323872.139 6  95452159.90906  24323871.013 7  97942209.11707  24323871.371 7  96697182.55407
E36  23924299.759 7 125723037.49707  23924302.415 6  93884091.51106  23924301.143 7  96333237.41907  23924301.521 7  95108664.00507
G10  25190271.615 6 132375766.00506  25190270.905 5  25190273.155 5 103149961.56805  25190272.357 6 103149950.54506  25190270.506 6  98852033.45506
G15  20695291.082 3
G18  20727022.979 8 108921268.11608  20727022.725 5  20727020.799 5  84873720.45605  20727020.423 6  84873684.46406  20727023.807 6  81337293.87206
G23  21509925.450 7 113035491.23007  21509925.173 5  21509924.082 5  88079600.94705  21509924.358 6  88079534.95206  21509925.923 6  84409569.42306
G24  20049337.337 4
G29  25295714.927 6 132929769.31806  25295714.400 5  25295730.310 5 103581527.46405  25295730.651 6 103581782.48006
I03  56961156.101 7 223527843.59907
I09  39853215.762 6 156392771.12406
R05  20515094.817 8 109664992.53508  20515097.124 8  85295029.16408  20515096.621 8  85295030.16908  20515081.655 7  82255777.08907
R06  23475678.889 3
R19  22630254.483 6 121056443.94806  22630264.965 7  94154983.56607  22630265.458 7  94154986.56407
R20  20214906.987 6 108098217.61406  20214911.252 8  84076421.65308  20214911.336 8  84076428.65708
R21  22424289.916 7 119996977.26507  22424291.710 6  93330942.31406  22424291.862 6  93330958.31606  22424275.991 6  89910682.66806
S27  40222912.724 6 211372861.83706  40222894.408 6 157843377.85806
S28  38009916.485 6 199743454.68806  38009882.411 7 149158983.08207
S32  37406314.295 7 196571533.31307  37406279.858 5 146790299.64805
S34  37510801.662 7 197120604.91507  37510662.206 6 147199925.86806
S42  36759111.446 6 193170455.68006  36758971.944 6 144250089.96106
S43  36757058.564 8 193159636.77508  36757046.914 7 144242568.66407
S44  38032456.812 6 199861938.70906  38032442.905 7 149247500.58607
> 2025 03 16 15 52 33.0000000  0 41
C02                                                                  37612548.951 6 195858411.43606  37612543.140 7 151450152.63107  37612546.832 6
C03                                                                  36518194.851 7 190159839.09007  36518190.028 7 147043640.67907  36518192.548 7 154520443.20807
C05                                                                  39889632.494 6 207715834.55206  39889629.870 6 160619088.87706  39889632.476 6 168786160.51206
C06                                                                  37563120.250 7 195601279.35207  37563116.791 7 151251433.80507  37563116.848 7 158942150.63507
C07                                                                  40680551.933 6 211834241.29306  40680563.186 6 163803597.71206  40680558.251 6 172132590.82016
C08                                                                  36316778.773 4 189111004.90704  36316775.176 4                  36316773.199 3
C09                                                                  38909699.124 5 202613377.32905  38909700.328 7 156673711.82007  38909698.068 6 164640111.98806
C10                                                                  40563702.723 6 211225656.66406  40563715.718 5 163333044.00605  40563710.332 5 171638115.94405
C13                                                                  36713767.411 7 191178238.04707  36713769.435 6 147831148.37806  36713768.364 6 155347984.26006
C20  24411240.988 7 128281935.21407  24411240.905 7  95794953.17407  24411242.096 7 127115921.36107                                  24411236.520 5
C27  25460549.783 7 133796092.44007  25460568.342 6  99912736.44106  25460550.804 7 132579539.87007                                  25460562.764 6 107731688.50006
C29  24808468.547 7 130369374.66607                                  24808469.346 7 129184213.05607                                  24808468.378 7 104972748.39807
C30  23826565.608 7 125209443.01907  23826569.357 7  93500574.73807  23826565.778 7 124071155.92507                                  23826569.020 7 100817984.79007
C32                                                                  22616512.870 5 117770136.77805                                  22616513.419 4  95697893.18504
C40  41517518.343 5 218176036.71205  41517533.926 5 162923720.47605  41517519.179 6 216192659.81406                                  41517528.841 5 175674309.50705
C60                                                                  38032425.608 6 198044824.42106                                  38032413.217 6
E03  26703395.221 7 140327610.32207  26703398.665 5 104790303.07405  26703398.032 6 107523936.38006  26703397.812 6 106157127.76506
E05  22276841.075 8 117065650.34408  22276842.046 6  87419196.04806  22276840.257 6  89699688.08106  22276841.028 7  88559442.61107
E15  28333446.953 6 148893264.17706                                  28333449.098 5 114087057.91405
E34  24323624.549 7 127821551.87207  24323625.792 6  95451193.22206  24323624.685 7  97941217.21207  24323625.047 7  96696203.25707
E36  23924589.793 7 125724561.61907  23924592.341 6  93885229.64306  23924591.147 7  96334405.24607  23924591.546 7  95109816.98407
G10  25189708.649 6 132372808.51906  25189707.939 5  25189710.392 5 103147657.03705  25189709.694 6 103147646.03706  25189707.828 6  98849824.92806
G15  20695539.574 3
G18  20727024.168 8 108921274.05008  20727023.918 5  20727021.939 5  84873725.08005  20727021.635 6  84873689.09106  20727024.969 6  81337298.30306
G23  21509474.914 7 113033123.03407  21509474.637 5  21509473.409 5  88077755.59805  21509473.720 6  88077689.59706  21509475.303 6  84407800.98106
G24  20049135.537 4
G29  25296164.574 6 132932132.29006  25296164.047 5  25296179.985 5 103583368.74505  25296180.457 6 103583623.76806
I03  56960775.437 7 223526350.14107
I09  39853126.813 6 156392421.16606
R05  20515085.763 8 109664943.68108  20515087.876 7  85294991.18007  20515087.499 7  85294992.19507  20515072.554 7  82255740.43707
R06  23475276.533 3
R19  22631040.502 6 121060647.60406  22631050.942 6  94158253.06206  22631051.567 6  94158256.06906
R20  20215064.795 6 108099060.64806  20215068.931 7  84077077.35807  20215069.068 7  84077084.36307
R21  22423781.276 7 119994253.78307  22423782.961 5  93328824.07205  22423782.739 5  93328840.07005  22423767.056 6  89908642.06006
S27  40222880.900 6 211372697.53806  40222863.022 6 157843255.17206
S28  38009888.274 6 199743302.96706  38009853.547 7 149158869.77807
S32  37406285.838 7 196571386.15207  37406251.821 5 146790189.76305
S34  37510773.146 7 197120457.13707  37510634.038 6 147199815.50906
S42  36759083.248 6 193170305.73106  36758943.518 6 144249978.03306
S43  36757031.824 8 193159496.32008  36757020.211 7 144242463.78107
S44  38032429.781 6 199861795.12206  38032415.565 7 149247393.32907
> 2025 03 16 15 52 34.0000000  0 41
C02                                                                  37612516.147 6 195858239.72606  37612510.068 7 151450019.84007  37612513.854 6
C03                                                                  36518169.828 7 190159708.58007  36518165.063 7 147043539.75907  36518167.454 7 154520337.16307
C05                                                                  39889599.270 6 207715660.98406  39889596.731 6 160618954.66606  39889599.180 6 168786019.46906
C06                                                                  37562877.846 7 195600017.37907  37562874.438 7 151250457.96707  37562874.489 7 158941125.17207
C07                                                                  40680703.512 6 211835029.86106  40680714.605 6 163804207.49606  40680709.789 6 172133231.59406
C08                                                                  36316625.401 4 189110199.63404  36316620.467 4                  36316618.185 4
C09                                                                  38909455.755 5 202612111.35705  38909457.258 7 156672732.92507  38909454.956 6 164639083.29306
C10                                                                  40563904.143 6 211226705.55906  40563917.345 5 163333855.11505  40563911.770 5 171638968.28005
C13                                                                  36713599.522 7 191177363.67807  36713601.486 6 147830472.26606  36713600.495 6 155347273.75406
C20  24410908.652 7 128280188.55607  24410908.575 7  95793648.85607  24410909.673 7 127114190.58007                                  24410904.226 5
C27  25461102.442 7 133798996.92007  25461121.080 6  99914905.32406  25461103.531 7 132582417.95107                                  25461115.420 6 107734027.15206
C29  24808351.002 7 130368756.24007                                  24808351.626 7 129183600.24607                                  24808350.676 7 104972250.44407
C30  23826917.191 7 125211290.80707  23826921.050 7  93501954.57207  23826917.370 7 124072986.90207                                  23826920.662 7 100819472.60907
C32                                                                  22616506.551 4 117770100.73604                                  22616506.957 4  95697863.99104
C40  41517704.231 5 218177012.76005  41517719.571 5 162924449.38005  41517704.510 6 216193627.00006                                  41517714.514 5 175675095.41605
C60                                                                  38032398.528 6 198044682.12406                                  38032385.878 6
E03  26703047.557 7 140325783.57307  26703051.007 5 104788938.95705  26703050.433 6 107522536.66206  26703050.224 6 106155745.84406
E05  22276795.031 8 117065408.15208  22276795.945 6  87419015.19406  22276794.155 6  89699502.50706  22276794.939 7  88559259.39707
E15  28332886.726 6 148890320.34606                                  28332888.991 5 114084802.25705
E34  24323378.383 7 127820257.79807  24323379.563 6  95450226.86306  24323378.436 7  97940225.64007  24323378.791 7  96695224.29207
E36  23924880.001 7 125726086.15007  23924882.444 6  93886368.09506  23924881.257 7  96335573.39707  23924881.647 7  95110970.28807
G10  25189145.874 6 132369850.92206  25189145.164 5  25189147.580 5 103145352.41805  25189146.917 6 103145341.41506  25189144.987 6  98847616.34606
G15  20695785.522 3
G18  20727025.425 8 108921280.68908  20727025.175 5  20727023.227 5  84873730.25505  20727022.945 6  84873694.26606  20727026.414 6  81337303.26206
G23  21509024.275 7 113030754.98807  21509023.998 5  21509022.772 5  88075910.37105  21509023.144 6  88075844.37206  21509024.669 6  84406032.65506
G24  20048933.129 4
G29  25296614.124 6 132934495.07206  25296613.597 5  25296629.629 5 103585209.88405  25296629.911 6 103585464.90506
I03  56960394.856 7 223524856.70907
I09  39853037.603 6 156392071.21006
R05  20515076.673 8 109664894.92108  20515078.736 7  85294953.25307  20515078.337 7  85294954.25907  20515063.461 6  82255703.86406
R06  23474873.121 3
R19  22631826.441 6 121064851.39906  22631837.098 6  94161522.65906  22631837.625 6  94161525.66106
R20  20215222.500 6 108099904.57506  20215226.739 7  84077733.74107  20215226.865 7  84077740.74107
R21  22423272.472 7 119991530.99407  22423274.094 5  93326706.34305  22423274.040 5  93326722.33905  22423258.260 5  89906601.92505
S27  40222849.947 7 211372533.17107  40222831.734 6 157843132.38506
S28  38009860.022 6 199743151.27106  38009824.696 7 149158756.48407
S32  37406257.859 7 196571238.99607  37406223.945 5 146790079.91105
S34  37510744.586 7 197120309.38907  37510606.068 6 147199705.15806
S42  36759057.357 6 193170155.83506  36758914.958 6 144249866.13906
S43  36757005.102 8 193159355.88508  36756993.515 7 144242358.91207
S44  38032402.254 6 199861651.51006  38032388.265 7 149247286.08507
> 2025 03 16 15 52 35.0000000  0 40
C02                                                                  37612483.294 6 195858067.68606  37612477.058 7 151449886.79807  37612480.822 7
C03                                                                  36518144.554 7 190159577.75207  36518139.932 7 147043438.58807  36518142.350 7 154520230.84107
C05                                                                  39889565.791 6 207715487.09606  39889563.203 6 160618820.22006  39889565.786 6 168785878.17306
C06                                                                  37562635.539 7 195598755.18707  37562632.032 7 151249481.96807  37562632.083 8 158940099.55208
C07                                                                  40680854.931 6 211835817.96006  40680866.180 6 163804816.90806  40680861.198 6 172133871.98906
C08                                                                  36316470.622 4 189109393.95304  36316465.691 4                  36316463.311 4
C09                                                                  38909213.136 5 202610845.19105  38909214.130 7 156671753.84507  38909211.763 7 164638054.43307
C10                                                                  40564105.641 6 211227754.04906  40564118.684 5 163334665.89005  40564113.151 5 171639820.26405
C13                                                                  36713431.548 7 191176488.94207  36713433.432 6 147829795.86106  36713432.528 7 155346562.96507
C20  24410576.223 7 128278441.59307  24410576.095 7  95792344.30407  24410577.127 7 127112459.49307                                  24410571.859 6
C27  25461655.080 7 133801901.01107  25461673.772 6  99917073.92606  25461656.183 7 132585295.63207                                  25461668.103 7 107736365.49607
C29  24808233.471 7 130368137.98807                                  24808233.879 7 129182987.61607                                  24808232.971 7 104971752.62807
C30  23827268.686 7 125213138.56707  23827272.601 7  93503334.40007  23827269.047 7 124074817.87507                                  23827272.330 7 100820960.41907
C32                                                                  22616498.893 4 117770064.53304                                  22616499.928 4  95697834.53604
C40  41517890.109 5 218177988.31705  41517905.220 5 162925177.88805  41517889.926 6 216194593.68506                                  41517900.244 6 175675880.94706
C60                                                                  38032371.148 6 198044539.50006                                  38032358.494 7
E03  26702699.778 7 140323956.64407  26702703.244 5 104787574.68205  26702702.776 6 107521136.80806  26702702.546 6 106154363.78206
E05  22276748.925 8 117065165.80108  22276749.802 6  87418834.22306  22276748.060 6  89699316.81006  22276748.823 7  88559076.06207
E15  28332326.238 6 148887376.30306                                  28332328.761 5 114082546.42805
E34  24323132.233 7 127818963.81907  24323133.348 6  95449260.57706  24323132.228 7  97939234.15607  24323132.552 7  96694245.40707
E36  23925170.158 7 125727610.76507  23925172.506 6  93887506.61206  23925171.393 7  96336741.60007  23925171.788 7  95112123.64607
G10  25188583.116 6 132366892.89206  25188582.401 5  25188584.679 5 103143047.46205  25188583.922 6 103143036.45506  25188582.205 6  98845407.42606
G18  20727026.762 8 108921287.68808  20727026.508 5  20727024.591 5  84873735.70705  20727024.036 6  84873699.71906  20727027.652 6  81337308.50006
G23  21508573.585 7 113028386.75207  21508573.304 5  21508572.109 5  88074064.99305  21508572.476 6  88073999.01706  21508574.056 6  84404264.14506
G24  20048730.887 4
G29  25297063.494 6 132936857.32006  25297062.971 5  25297079.166 5 103587050.61205  25297079.240 6 103587305.64506
I03  56960014.206 7 223523363.02907
I09  39852948.565 6 156391721.01606
R05  20515067.499 8 109664845.90208  20515069.556 7  85294915.12207  20515069.052 7  85294916.12307  20515054.246 7  82255667.11107
R06  23474468.385 3
R19  22632612.285 6 121069054.97706  22632623.236 7  94164792.06007  22632623.845 7  94164795.06507
R20  20215380.066 6 108100749.04706  20215384.694 8  84078390.52708  20215384.794 8  84078397.53308
R21  22422763.906 7 119988808.55807  22422765.470 6  93324588.88106  22422765.116 6  93324604.87406  22422749.483 5  89904562.07205
S27  40222818.351 6 211372368.38606  40222800.428 6 157843009.26306
S28  38009831.364 6 199742999.18606  38009795.760 7 149158642.90307
S32  37406229.714 7 196571091.53307  37406196.033 5 146789969.80805
S34  37510717.613 7 197120161.33307  37510577.848 6 147199594.60306
S42  36759029.374 6 193170005.61706  36758886.201 6 144249753.98506
S43  36756978.594 8 193159215.12608  36756966.743 7 144242253.80407
S44  38032375.617 6 199861507.57706  38032360.945 7 149247178.61407
> 2025 03 16 15 52 36.0000000  0 40
C02                                                                  37612450.531 6 195857895.82406  37612444.067 7 151449753.92107  37612447.839 7 159150598.64107
C03                                                                  36518119.334 7 190159447.13207  36518114.860 7 147043337.59007  36518117.278 7 154520124.69307
C05                                                                  39889532.325 6 207715313.42406  39889529.536 6 160618685.92106  39889532.482 6 168785737.04506
C06                                                                  37562393.119 7 195597493.33907  37562389.690 7 151248506.21907  37562389.749 8 158939074.17508
C07                                                                  40681006.105 6 211836606.14706  40681017.741 6 163805426.38506  40681012.484 6
C08                                                                  36316315.832 4 189108588.41404  36316310.857 4                  36316308.414 4
C09                                                                  38908969.598 5 202609579.31905  38908970.896 7 156670775.00507  38908968.613 7 164637025.81307
C10                                                                  40564307.264 6 211228802.63306  40564320.327 5 163335476.71605  40564314.391 6 171640672.32606
C13                                                                  36713263.737 7 191175614.41207  36713265.591 6 147829119.63306  36713264.575 7 155345852.32407
C20  24410243.810 7 128276694.85707  24410243.706 7  95791039.91907  24410244.682 7 127110728.64107                                  24410239.413 6
C27  25462207.706 7 133804805.22207  25462226.393 6  99919242.66106  25462208.777 7 132588173.44407                                  25462220.806 7 107738703.92807
C29  24808116.146 7 130367520.44607                                  24808116.311 7 129182375.70407                                  24808115.470 7 104971255.38607
C30  23827620.287 7 125214986.85807  23827624.239 7  93504714.59807  23827620.697 7 124076649.35607                                  23827624.045 7 100822448.64107
C32                                                                  22616491.942 5 117770028.59305                                  22616492.891 5  95697805.29505
C40  41518075.799 5 218178963.92305  41518090.739 5 162925906.44105  41518075.919 6 216195560.42506                                  41518085.864 6 175676666.51306
C60                                                                  38032343.835 6 198044397.08506                                  38032331.132 7
E03  26702352.192 7 140322130.08807  26702355.570 5 104786210.70405  26702355.182 6 107519737.24106  26702354.922 6 106152982.01106
E05  22276702.886 8 117064923.85408  22276703.860 6  87418653.54906  22276702.107 6  89699131.42406  22276702.784 7  88558893.03307
E15  28331766.187 6 148884432.58106                                  28331768.563 5 114080290.84605
E34  24322886.064 7 127817670.47007  24322887.227 6  95448294.77506  24322886.102 7  97938243.16307  24322886.426 7  96693267.01007
E36  23925460.486 7 125729136.00307  23925462.728 6  93888645.57306  23925461.672 7  96337910.28607  23925462.014 7  95113277.47107
G10  25188020.143 6 132363934.94806  25188019.424 5  25188021.805 5 103140742.57505  25188021.544 6 103140731.58806  25188019.247 6  98843198.57606
G18  20727028.197 8 108921295.59108  20727027.943 5  20727026.097 5  84873741.86605  20727025.257 6  84873705.87906  20727029.204 6  81337314.39606
G23  21508122.845 7 113026018.86207  21508122.564 5  21508121.512 5  88072219.88405  21508121.509 6  88072153.87906  21508123.480 6  84402495.92506
G24  20048528.774 5
G29  25297513.149 6 132939219.58206  25297512.631 5  25297528.702 5 103588891.35105  25297528.887 6 103589146.40306
I03  56959633.598 7 223521869.51707
I09  39852859.364 6 156391370.98406
R05  20515058.370 8 109664797.20308  20515060.416 8  85294877.23908  20515059.889 8  85294878.24608  20515045.150 7  82255630.57307
R06  23474067.634 3
R19  22633398.287 6 121073258.89406  22633409.285 7  94168061.74207  22633409.896 7  94168064.72807
R20  20215537.987 6 108101594.58506  20215542.771 8  84079048.17908  20215543.040 8  84079055.18708
R21  22422255.561 7 119986087.04407  22422256.975 6  93322472.16306  22422256.500 6  93322488.14306  22422240.871 5  89902522.90705
S27  40222787.519 6 211372203.92006  40222769.234 6 157842886.40006
S28  38009801.354 6 199742847.32606  38009766.846 7 149158529.53707
S32  37406201.418 7 196570944.15707  37406168.032 5 146789859.73505
S34  37510688.816 7 197120013.49507  37510549.806 6 147199484.20406
S42  36758998.627 6 193169855.62906  36758857.708 6 144249642.02406
S43  36756951.862 8 193159074.57908  36756939.994 7 144242148.84907
S44  38032348.000 6 199861363.85606  38032333.574 7 149247071.30207
> 2025 03 16 15 52 37.0000000  0 40
C02                                                                  37612417.405 5 195857723.83105  37612411.079 7 151449620.91507  37612414.758 7 159150458.88707
C03                                                                  36518094.190 7 190159316.35507  36518089.769 7 147043236.46007  36518092.143 7 154520018.43507
C05                                                                  39889498.855 6 207715139.58606  39889496.325 6 160618551.50206  39889499.025 6 168785595.78306
C06                                                                  37562150.932 7 195596231.42907  37562147.277 7 151247530.44207  37562147.393 8 158938048.77808
C07                                                                  40681156.946 6 211837394.03106  40681169.213 6 163806035.64006  40681163.797 6
C08                                                                                                  36316156.657 4                  36316153.691 4
C09                                                                  38908725.856 5 202608313.38405  38908727.700 7 156669796.09007  38908725.556 7 164635997.12707
C10                                                                  40564508.534 6 211229850.92706  40564521.521 5 163336287.34005  40564515.722 6 171641524.14706
C13                                                                  36713095.921 7 191174739.71907  36713097.483 7 147828443.24707  36713096.576 7 155345141.57207
C20  24409911.415 7 128274947.97107  24409911.268 7  95789735.43807  24409912.197 7 127108997.64007                                  24409906.928 6
C27  25462760.304 7 133807709.19007  25462779.007 6  99921411.17306  25462761.508 7 132591051.01107                                  25462773.448 7 107741042.17307
C29  24807998.890 7 130366903.26107                                  24807998.707 6 129181764.13106                                  24807997.992 7 104970758.44107
C30  23827971.914 7 125216835.28707  23827976.006 7  93506094.92807  23827972.683 7 124078480.98507                                  23827975.849 7 100823936.99007
C32                                                                  22616485.352 5 117769992.55205                                  22616485.884 5  95697776.02005
C40  41518261.368 5 218179939.18605  41518276.357 5 162926634.74005  41518261.304 6 216196526.82106                                  41518271.586 6 175677451.80906
C60                                                                  38032316.375 6 198044254.52206                                  38032303.658 7
E03  26702004.611 7 140320303.52507  26702007.974 5 104784846.70605  26702007.578 6 107518337.68406  26702007.330 6 106151600.24106
E05  22276656.874 8 117064681.90908  22276657.977 6  87418472.85506  22276656.164 6  89698946.02906  22276656.743 7  88558709.98807
E15  28331206.146 6 148881488.83506                                  28331208.370 5 114078035.25405
E34  24322640.040 7 127816377.38707  24322641.178 6  95447329.15606  24322640.040 7  97937252.34607  24322640.334 7  96692288.79107
E36  23925750.815 7 125730661.46207  23925753.020 6  93889784.71106  23925751.981 7  96339079.15007  23925752.294 7  95114431.47307
G10  25187457.075 6 132360976.70706  25187456.356 5  25187458.854 5 103138437.44905  25187458.710 6 103138426.44506  25187456.218 6  98840989.49706
G18  20727029.744 8 108921304.01808  20727029.494 5  20727027.707 5  84873748.42905  20727026.876 6  84873712.43406  20727030.720 6  81337320.68706
G23  21507672.167 7 113023650.94407  21507671.886 5  21507670.920 5  88070374.75505  21507670.851 6  88070308.76006  21507672.888 6  84400727.66006
G24  20048327.023 5
G29  25297962.782 6 132941581.47706  25297962.268 5  25297978.172 5 103590731.80005  25297978.330 6 103590986.83606
I03  56959252.900 7 223520375.87907
I09  39852769.937 6 156391020.80906
R05  20515049.186 8 109664748.45408  20515051.361 7  85294839.33407  20515050.895 8  85294840.33608  20515035.960 7  82255594.00907
R06  23473665.058 3
R19  22634184.132 6 121077462.74006  22634195.244 7  94171331.37507  22634195.833 7  94171334.37607
R20  20215696.479 6 108102440.86106  20215701.053 8  84079706.39508  20215701.359 8  84079713.39608
R21  22421747.328 7 119983366.07307  22421748.381 6  93320355.84606  22421748.067 6  93320371.85706  22421732.409 5  89900484.14105
S27  40222756.853 7 211372039.38207  40222737.968 6 157842763.54406
S28  38009772.244 6 199742695.37106  38009737.870 7 149158416.09707
S32  37406173.788 7 196570796.66407  37406140.080 5 146789749.60705
S34  37510659.965 7 197119865.49407  37510521.702 6 147199373.70606
S42  36758969.119 6 193169705.49006  36758829.129 6 144249529.92306
S43  36756924.885 8 193158933.87108  36756913.240 7 144242043.77207
S44  38032322.887 6 199861219.96406  38032306.207 7 149246963.85607
> 2025 03 16 15 52 38.0000000  0 40
C02                                                                  37612384.109 6 195857551.75206  37612377.886 7 151449487.85207  37612381.740 7 159150319.04807
C03                                                                  36518069.172 7 190159185.46607  36518064.684 7 147043135.25307  36518067.026 7 154519912.07007
C05                                                                  39889465.398 6 207714965.64206  39889463.097 6 160618416.98906  39889465.533 6 168785454.42906
C06                                                                  37561908.624 7 195594969.53707  37561904.980 7 151246554.66307  37561905.089 8 158937023.38808
C07                                                                  40681307.981 6 211838181.64206  40681320.281 6 163806644.68706  40681314.957 6
C08                                                                  36316006.433 4 189106977.09704  36316002.073 4                  36315998.763 4
C09                                                                  38908482.577 5 202607047.41605  38908484.610 7 156668817.16907  38908482.423 7 164634968.43307
C10                                                                  40564709.795 6 211230898.99606  40564722.574 5 163337097.80605  40564717.012 6 171642375.81006
C13                                                                  36712927.963 7 191173864.86107  36712929.459 6 147827766.76706  36712928.565 7 155344430.68007
C20  24409578.939 7 128273201.00507  24409578.870 7  95788430.88507  24409579.761 7 127107266.55507                                  24409574.415 6
C27  25463312.888 7 133810612.97007  25463331.653 6  99923579.56006  25463314.087 7 132593928.38907                                  25463325.982 7 107743380.25807
C29  24807881.528 7 130366286.47507                                  24807881.156 6 129181152.93606                                  24807880.613 7 104970261.79307
C30  23828323.634 7 125218683.91507  23828327.746 7  93507475.39107  23828324.559 7 124080312.81507                                  23828327.655 7 100825425.49207
C32                                                                  22616478.137 4 117769956.51204                                  22616479.023 5  95697746.67705
C40  41518446.909 5 218180914.18805  41518461.848 5 162927362.82805  41518446.626 6 216197492.95106                                  41518457.041 6 175678236.88406
C60                                                                  38032289.062 6 198044111.86506                                  38032276.292 7
E03  26701656.974 7 140318477.01607  26701660.390 5 104783482.80205  26701660.057 6 107516938.16306  26701659.741 6 106150218.52306
E05  22276610.858 8 117064440.03408  22276611.908 6  87418292.25206  22276610.154 6  89698760.70206  22276610.735 7  88558527.02307
E15  28330645.887 6 148878545.09006                                  28330648.000 5 114075779.66705
E34  24322394.027 7 127815084.62207  24322395.194 6  95446363.78206  24322393.989 7  97936261.78907  24322394.341 7  96691310.82607
E36  23926041.042 7 125732187.23107  23926043.430 6  93890924.09206  23926042.296 7  96340248.23907  23926042.636 7  95115585.70507
G10  25186893.763 6 132358018.24306  25186893.044 5  25186895.868 5 103136132.15005  25186896.054 6 103136121.15206  25186893.133 6  98838780.26806
G18  20727031.466 8 108921313.02708  20727031.216 5  20727029.402 5  84873755.44805  20727028.897 6  84873719.44906  20727032.321 6  81337327.42006
G23  21507221.535 7 113021283.05207  21507221.249 5  21507220.351 5  88068529.64605  21507219.997 6  88068463.63606  21507222.427 6  84398959.42906
G24  20048125.205 5
G29  25298412.299 6 132943943.07406  25298411.794 5  25298427.588 5 103592572.01505  25298427.944 6 103592827.03606
I03  56958872.323 7 223518882.16907
I09  39852680.794 6 156390670.54606
R05  20515039.970 8 109664699.70208  20515042.270 7  85294801.40807  20515041.930 8  85294802.41408  20515026.818 7  82255557.44407
R06  23473261.629 3
R19  22634970.414 6 121081666.60806  22634981.217 7  94174601.02207  22634981.712 7  94174604.02007
R20  20215855.220 6 108103287.88006  20215859.473 8  84080365.18308  20215859.739 8  84080372.19108
R21  22421239.102 7 119980645.72507  22421239.904 6  93318240.01006  22421239.610 6  93318256.02006  22421223.986 5  89898445.85605
S27  40222724.939 7 211371874.90807  40222706.613 6 157842640.76306
S28  38009743.045 6 199742543.34506  38009708.890 7 149158302.62207
S32  37406146.166 7 196570649.14407  37406111.900 5 146789639.42305
S34  37510633.225 7 197119717.37407  37510493.338 6 147199263.09806
S42  36758937.388 6 193169555.23406  36758800.547 6 144249417.75006
S43  36756898.261 8 193158793.05808  36756886.393 7 144241938.62207
S44  38032295.905 6 199861075.98306  38032278.756 7 149246856.34807
> 2025 03 16 15 52 39.0000000  0 40
C02                                                                  37612350.760 6 195857379.74606  37612344.881 7 151449354.84707  37612348.668 7 159150179.28807
C03                                                                  36518044.041 7 190159054.67707  36518039.616 7 147043034.11807  36518041.886 7 154519805.80607
C05                                                                  39889431.946 6 207714791.79506  39889429.859 6 160618282.55106  39889432.192 6 168785313.17806
C06                                                                  37561666.340 7 195593707.84707  37561662.712 7 151245579.04707  37561662.775 8 158935998.16908
C07                                                                  40681458.896 6 211838969.19706  40681471.490 6 163807253.69506  40681466.187 6
C08                                                                  36315852.497 4 189106171.32704  36315847.288 4                  36315844.313 4
C09                                                                  38908239.217 5 202605781.56705  38908241.522 7 156667838.38907  38908239.439 7 164633939.87507
C10                                                                  40564910.737 6 211231947.07106  40564923.403 5 163337908.21305  40564918.278 6 171643227.44606
C13                                                                  36712759.984 7 191172990.09207  36712761.371 6 147827090.34106  36712760.594 7 155343719.86007
C20  24409246.463 7 128271454.15707  24409246.457 7  95787126.42407  24409247.385 7 127105535.58607                                  24409241.895 5 103283983.23505
C27  25463865.587 7 133813516.77407  25463884.176 6  99925747.94306  25463866.764 7 132596805.78907                                  25463878.573 7 107745718.36907
C29  24807764.355 7 130365670.28507                                  24807763.724 7 129180542.34907                                  24807763.380 7 104969765.63907
C30  23828675.261 7 125220532.95407  23828679.617 7  93508856.16707  23828676.359 7 124082145.04307                                  23828679.536 7 100826914.32307
C32                                                                  22616470.816 4 117769920.64104                                  22616472.122 4  95697717.55004
C40  41518632.217 5 218181889.11305  41518647.695 5 162928090.86005  41518632.284 6 216198459.00806                                  41518642.529 6 175679021.90306
C60                                                                  38032261.611 6 198043969.30406                                  38032248.890 7
E03  26701309.395 7 140316650.75607  26701312.657 5 104782119.01805  26701312.546 6 107515538.81106  26701312.189 6 106148836.95206
E05  22276564.845 8 117064198.42508  22276565.947 6  87418111.82906  22276564.154 6  89698575.57706  22276564.762 7  88558344.25007
E15  28330085.693 6 148875601.56406                                  28330087.873 5 114073524.22405
E34  24322148.049 7 127813792.37807  24322149.241 6  95445398.78806  24322148.025 7  97935271.62107  24322148.446 7  96690333.24607
E36  23926331.470 7 125733713.49507  23926333.871 6  93892063.82506  23926332.771 7  96341417.72307  23926333.068 7  95116740.31707
G10  25186330.554 6 132355059.76006  25186329.835 5  25186332.868 5 103133826.83305  25186332.667 6 103133815.82206  25186330.266 6  98836570.99706
G18  20727033.415 8 108921322.82008  20727033.165 5  20727031.244 5  84873763.07905  20727030.896 6  84873727.07706  20727034.252 6  81337334.72506
G23  21506771.042 7 113018915.38907  21506770.756 5  21506769.817 5  88066684.71205  21506769.335 6  88066618.71206  21506771.975 6  84397191.37306
G24  20047923.459 4
G29  25298861.610 6 132946304.55106  25298861.110 5  25298876.959 5 103594412.13305  25298877.638 6 103594667.16606
I03  56958491.763 7 223517388.53607
I09  39852591.811 6 156390320.38306
R05  20515030.714 8 109664651.15608  20515033.117 7  85294763.64507  20515032.767 7  85294764.64907  20515017.806 7  82255521.02607
R06  23472858.610 3
R19  22635756.466 6 121085870.70506  22635767.064 7  94177870.83507  22635767.204 7  94177873.83107
R20  20216013.562 6 108104135.88506  20216018.068 8  84081024.75608  20216018.298 8  84081031.74308
R21  22420731.026 7 119977926.13507  22420731.538 6  93316124.75906  22420731.584 6  93316140.77706  22420715.801 5  89896408.14505
S27  40222694.509 6 211371710.50906  40222675.298 6 157842518.06706
S28  38009715.204 6 199742391.39606  38009679.936 7 149158189.21107
S32  37406118.416 7 196570501.79907  37406083.676 5 146789529.42605
S34  37510604.101 7 197119569.36307  37510465.181 6 147199152.57206
S42  36758910.290 6 193169405.05406  36758772.098 6 144249305.65306
S43  36756871.342 8 193158652.33508  36756859.612 7 144241833.53507
S44  38032268.119 6 199860932.15006  38032251.390 7 149246748.90907
> 2025 03 16 15 52 40.0000000  0 40
C02                                                                  37612317.902 5 195857207.90005  37612311.948 7 151449221.96507  37612315.622 7 159150039.64107
C03                                                                  36518018.982 7 190158924.03807  36518014.494 7 147042933.09607  36518016.760 7 154519699.64707
C05                                                                  39889398.650 6 207714618.09506  39889396.514 6 160618148.22906  39889398.727 6 168785172.02106
C06                                                                  37561424.186 7 195592446.44407  37561420.470 7 151244603.64607  37561420.558 8 158934973.17008
C07                                                                  40681610.119 6 211839756.80206  40681622.618 6 163807862.70106  40681617.395 6
C08                                                                  36315697.031 4 189105365.81804  36315693.178 4                  36315689.658 4
C09                                                                  38907995.903 5 202604516.06805  38907998.429 7 156666859.77907  38907996.414 7 164632911.51607
C10                                                                  40565111.895 6 211232995.16406  40565124.733 5 163338718.67605  40565119.648 6 171644079.14106
C13                                                                  36712592.032 7 191172115.46007  36712593.432 6 147826414.01606  36712592.567 7 155343009.15207
C20  24408914.043 7 128269707.47007  24408914.085 7  95785822.07807  24408914.895 7 127103804.78307                                  24408909.593 5 103282576.79205
C27  25464418.245 7 133816420.63907  25464436.639 6  99927916.40006  25464419.466 7 132599683.25307                                  25464431.252 7 107748056.52507
C29  24807647.218 7 130365054.75107                                  24807646.424 6 129179932.39906                                  24807646.253 7 104969270.01007
C30  23829027.181 7 125222382.44607  23829031.625 7  93510237.27807  23829028.287 7 124083977.71507                                  23829031.452 7 100828403.52007
C32                                                                  22616463.831 4 117769884.98704                                  22616465.420 4  95697688.56904
C40  41518817.725 5 218182864.00505  41518833.079 5 162928818.89105  41518817.678 6 216199425.04506                                  41518828.062 6 175679806.89406
C60                                                                  38032234.290 6 198043826.88506                                  38032221.591 7
E03  26700961.908 7 140314824.81107  26700965.050 5 104780755.47805  26700964.986 6 107514139.72606  26700964.695 6 106147455.64806
E05  22276518.966 8 117063957.15408  22276519.978 6  87417931.65706  22276518.205 6  89698390.70306  22276518.852 7  88558161.72607
E15  28329525.574 6 148872658.27606                                  28329527.837 5 114071268.98905
E34  24321902.338 7 127812500.70407  24321903.368 6  95444434.23006  24321902.240 7  97934281.90607  24321902.641 7  96689356.10907
E36  23926621.866 7 125735240.30807  23926624.427 6  93893203.98806  23926623.338 7  96342587.62507  23926623.621 7  95117895.34807
G10  25185767.548 6 132352101.28206  25185766.833 5  25185769.887 5 103131521.52505  25185769.293 6 103131510.53706  25185767.237 6  98834361.73606
G18  20727035.516 8 108921333.44708  20727035.266 5  20727033.248 5  84873771.35905  20727032.979 6  84873735.36606  20727036.216 6  81337342.67206
G23  21506320.405 7 113016548.00307  21506320.119 5  21506319.323 5  88064839.99305  21506318.941 6  88064774.00006  21506321.412 6  84395423.52406
G24  20047721.105 5
G29  25299311.045 6 132948665.97506  25299310.554 5  25299326.330 5 103596252.21505  25299327.108 6 103596507.25006
I03  56958111.115 7 223515895.01707
I09  39852502.290 6 156389970.29706
R05  20515021.712 8 109664602.86208  20515024.174 7  85294726.07607  20515023.959 7  85294727.08907  20515008.756 7  82255484.80007
R06  23472457.519 3
R19  22636542.492 6 121090075.06306  22636553.019 7  94181140.86807  22636553.011 7  94181143.86307
R20  20216171.953 6 108104984.93206  20216176.856 8  84081685.11608  20216177.166 8  84081692.11408
R21  22420222.881 7 119975207.34107  22420223.375 6  93314010.14106  22420223.972 6  93314026.16606  22420207.810 5  89894371.02405
S27  40222664.048 6 211371546.15506  40222643.899 6 157842395.38606
S28  38009686.022 6 199742239.52806  38009651.054 7 149158075.86807
S32  37406090.338 7 196570354.66207  37406055.638 5 146789419.57905
S34  37510575.791 7 197119421.49207  37510437.045 6 147199042.18206
S42  36758882.476 6 193169255.06506  36758743.453 6 144249193.69106
S43  36756844.526 8 193158511.76608  36756832.832 7 144241728.56507
S44  38032241.226 6 199860788.41606  38032224.064 7 149246641.57707
> 2025 03 16 15 52 41.0000000  0 40
C02                                                                  37612284.871 6 195857035.95206  37612278.983 7 151449089.00607  37612282.590 7 159149899.91807
C03                                                                  36517993.950 7 190158793.31607  36517989.279 7 147042832.01707  36517991.647 7 154519593.42507
C05                                                                  39889365.350 6 207714444.30806  39889363.085 6 160618013.87606  39889365.417 6 168785030.83306
C06                                                                  37561181.963 7 195591185.07307  37561178.292 7 151243628.27707  37561178.313 8 158933948.20408
C07                                                                  40681761.020 6 211840544.15806  40681773.754 6 163808471.55106  40681768.619 6
C08                                                                  36315541.984 4 189104560.16304  36315536.662 4                  36315535.056 4
C09                                                                  38907752.763 5 202603250.47505  38907755.437 7 156665881.18107  38907753.377 7 164631883.14507
C10                                                                  40565313.125 6 211234043.05906  40565325.772 5 163339528.97505  40565320.853 6 171644930.60406
C13                                                                  36712423.979 7 191171240.69907  36712425.476 6 147825737.60306  36712424.532 7 155342298.33107
C20  24408581.605 7 128267960.71707  24408581.675 7  95784517.68207  24408582.378 7 127102073.90407                                  24408577.275 6 103281170.30906
C27  25464970.771 7 133819324.33907  25464989.207 6  99930084.71806  25464972.060 7 132602560.56307                                  25464983.794 7 107750394.55807
C29  24807530.226 7 130364439.63407                                  24807529.482 6 129179322.88406                                  24807529.196 7 104968774.71907
C30  23829379.100 7 125224232.15707  23829383.586 7  93511618.55307  23829380.269 7 124085810.61907                                  23829383.431 7 100829892.89007
C32                                                                  22616456.703 4 117769849.34404                                  22616458.147 5  95697659.63605
C40  41519003.196 5 218183838.66505  41519018.434 5 162929546.70105  41519002.721 6 216200390.82306                                  41519013.726 6 175680591.67106
C60                                                                  38032207.022 6 198043684.37506                                  38032194.273 7
E03  26700614.508 7 140312998.93707  26700617.444 5 104779392.04205  26700617.568 6 107512740.67706  26700617.245 6 106146074.39706
E05  22276473.078 8 117063715.96008  22276474.050 6  87417751.54606  22276472.338 6  89698205.89106  22276472.946 7  88557979.26407
E15  28328965.402 6 148869715.02806                                  28328967.582 5 114069013.76905
E34  24321656.593 7 127811209.37207  24321657.627 6  95443469.92706  24321656.459 7  97933292.44107  24321656.912 7  96688379.22607
E36  23926912.596 7 125736767.44707  23926914.993 6  93894344.37106  23926913.952 7  96343757.75907  23926914.236 7  95119050.60707
G10  25185204.452 6 132349142.61506  25185203.737 5  25185206.869 5 103129216.07305  25185206.276 6 103129205.07706  25185204.236 6  98832152.35506
G18  20727037.689 8 108921344.67108  20727037.439 5  20727035.381 5  84873780.10605  20727035.135 6  84873744.12106  20727038.143 6  81337351.04906
G23  21505869.908 7 113014180.67207  21505869.622 5  21505868.843 5  88062995.31705  21505868.270 6  88062929.31606  21505870.904 6  84393655.70206
G24  20047518.124 4
G29  25299760.582 6 132951027.10306  25299760.100 5  25299775.666 5 103598092.06305  25299776.887 6 103598347.06406
I03  56957730.620 7 223514401.44107
I09  39852413.165 6 156389620.17206
R05  20515012.681 8 109664554.57708  20515015.199 8  85294688.54008  20515014.792 7  85294689.52607  20514999.763 7  82255448.58607
R06  23472055.095 3
R19  22637327.742 6 121094279.46406  22637338.763 7  94184410.90807  22637339.004 7  94184413.92607
R20  20216330.860 6 108105834.75606  20216335.728 8  84082346.08308  20216336.112 8  84082353.08708
R21  22419714.908 7 119972489.11907  22419715.376 6  93311895.97606  22419715.700 6  93311911.99706  22419699.931 5  89892334.31505
S27  40222630.891 6 211371381.68806  40222612.566 6 157842272.59906
S28  38009657.087 6 199742087.57306  38009622.154 7 149157962.42707
S32  37406062.458 7 196570207.40207  37406027.654 5 146789309.62505
S34  37510547.750 7 197119273.54007  37510408.838 6 147198931.69806
S42  36758854.958 6 193169104.96706  36758714.799 6 144249081.65506
S43  36756817.911 8 193158371.11108  36756806.069 7 144241623.52807
S44  38032211.700 6 199860644.61106  38032196.800 7 149246534.19207
> 2025 03 16 15 52 42.0000000  0 40
C02                                                                  37612252.103 5 195856864.04205  37612245.929 7 151448956.06007  37612249.585 7 159149760.22107
C03                                                                  36517968.815 7 190158662.59007  36517964.162 7 147042730.92507  36517966.571 7 154519487.19307
C05                                                                  39889332.086 6 207714270.52406  39889329.816 6 160617879.46806  39889332.086 6 168784889.60506
C06                                                                  37560939.652 7 195589923.80407  37560936.129 7 151242652.99207  37560936.095 8 158932923.31008
C07                                                                  40681912.304 6 211841331.37306  40681925.088 6 163809080.27206  40681919.851 6
C08                                                                  36315387.324 4 189103754.59504  36315381.179 4                  36315380.749 4
C09                                                                  38907509.566 5 202601985.03705  38907512.422 7 156664902.64907  38907510.319 7 164630854.85907
C10                                                                  40565514.227 6 211235090.84106  40565527.346 5 163340339.20005  40565522.094 6 171645781.98706
C13                                                                  36712256.018 7 191170365.92607  36712257.564 7 147825061.16307  36712256.512 7 155341587.50407
C20  24408249.241 7 128266213.98207  24408249.256 7  95783213.31007  24408250.105 7 127100343.04607                                  24408244.975 5 103279763.87005
C27  25465523.334 7 133822227.95507  25465541.718 6  99932252.97406  25465524.641 7 132605437.77507                                  25465536.435 7 107752732.51607
C29  24807413.155 7 130363825.01007                                  24807412.571 6 129178713.85206                                  24807412.223 7 104968279.83307
C30  23829731.085 7 125226082.16907  23829735.681 7  93513000.04707  23829732.366 7 124087643.81207                                  23829735.524 7 100831382.51307
C32                                                                  22616449.774 4 117769813.82104                                  22616451.365 4  95697630.78104
C40  41519188.562 5 218184813.13705  41519203.681 5 162930274.46805  41519188.394 6 216201356.44206                                  41519199.088 6 175681376.32206
C60                                                                  38032179.450 6 198043541.88306                                  38032166.920 7
E03  26700267.109 7 140311173.20807  26700270.043 5 104778028.68305  26700270.121 6 107511341.74806  26700269.814 6 106144693.25206
E05  22276427.216 8 117063474.94208  22276428.182 6  87417571.55506  22276426.425 6  89698021.20906  22276427.072 7  88557796.92707
E15  28328405.476 6 148866771.91606                                  28328407.695 5 114066758.64905
E34  24321410.963 7 127809918.45907  24321411.965 6  95442505.92906  24321410.806 7  97932303.30107  24321411.259 7  96687402.65607
E36  23927203.260 7 125738294.97307  23927205.642 6  93895485.06906  23927204.636 7  96344928.20807  23927204.927 7  95120206.18007
G10  25184641.273 6 132346183.79406  25184640.558 5  25184643.820 5 103126910.49605  25184643.075 6 103126899.49806  25184641.110 6  98829942.85506
G18  20727039.951 8 108921356.58208  20727039.701 5  20727037.648 5  84873789.38705  20727037.509 6  84873753.39506  20727040.535 6  81337359.93206
G23  21505419.319 7 113011813.46207  21505419.033 5  21505418.394 5  88061150.74005  21505417.797 6  88061084.74206  21505420.420 6  84391887.99906
G24  20047316.387 5
G29  25300210.081 6 132953388.02906  25300209.603 5  25300224.943 5 103599931.75305  25300226.175 6 103600186.75906
I03  56957349.933 7 223512907.86507
I09  39852323.784 6 156389270.03006
R05  20515003.611 8 109664506.36408  20515006.166 8  85294651.00908  20515005.848 8  85294652.03308  20514990.754 7  82255412.42307
R06  23471651.871 4
R19  22638113.670 6 121098483.96206  22638124.754 7  94187681.03407  22638124.988 7  94187684.05507
R20  20216490.208 6 108106685.45306  20216494.860 8  84083007.74208  20216495.293 8  84083014.74108
R21  22419206.978 7 119969771.61807  22419207.614 6  93309782.36906  22419207.048 6  93309798.36606  22419192.145 6  89890298.16106
S27  40222600.753 6 211371217.14506  40222581.113 6 157842149.74706
S28  38009628.316 6 199741935.52306  38009593.236 7 149157848.93807
S32  37406034.309 7 196570060.01907  37405999.675 5 146789199.59205
S34  37510518.689 7 197119125.57607  37510380.779 6 147198821.20806
S42  36758825.978 6 193168954.87806  36758686.203 6 144248969.63106
S43  36756790.660 8 193158230.45508  36756779.297 7 144241518.49307
S44  38032184.142 6 199860500.78506  38032169.380 7 149246426.79807
> 2025 03 16 15 52 43.0000000  0 41
C02                                                                  37612219.196 5 195856691.95305  37612212.830 7 151448823.00307  37612216.558 7 159149620.39607
C03                                                                  36517943.796 7 190158531.71207  36517938.968 7 147042629.72807  36517941.471 7 154519380.85107
C05                                                                  39889298.633 6 207714096.58206  39889296.395 6 160617744.97406  39889298.634 6 168784748.26206
C06                                                                  37560697.400 7 195588662.49907  37560694.018 7 151241677.67707  37560693.852 8 158931898.41908
C07                                                                  40682063.635 6 211842118.27606  40682076.310 6 163809688.76906  40682070.910 6
C08                                                                  36315231.852 4 189102948.82104  36315225.808 4                  36315226.093 4
C09                                                                  38907266.413 5 202600719.56705  38907269.343 7 156663924.08407  38907267.380 7 164629826.51907
C10                                                                  40565715.526 6 211236138.33406  40565728.916 5 163341149.18405  40565723.289 6 171646633.23806
C13                                                                  36712088.028 7 191169490.98807  36712089.639 6 147824384.60406  36712088.523 7 155340876.54207
C20  24407916.931 7 128264467.12207  24407916.796 7  95781908.83607  24407917.750 7 127098612.06807                                  24407912.627 5
C27  25466075.743 7 133825131.34307  25466094.388 6  99934421.07006  25466077.090 7 132608314.76607                                  25466089.008 7 107755070.28407
C29  24807296.225 7 130363210.76107                                  24807295.680 6 129178105.18106                                  24807295.347 7 104967785.23807
C30  23830083.152 7 125227932.35407  23830087.754 7  93514381.66707  23830084.361 7 124089477.16907                                  23830087.618 7 100832872.26707
C32                                                                  22616442.766 4 117769778.15504                                  22616444.445 4  95697601.83504
C40  41519374.135 5 218185787.27005  41519388.965 5 162931001.89705  41519373.687 6 216202321.73206                                  41519384.317 6 175682160.73206
C60                                                                  38032151.904 6 198043399.22806                                  38032139.590 7
E03  26699919.671 7 140309347.50907  26699922.662 5 104776665.33105  26699922.771 6 107509942.82706  26699922.386 6 106143312.11406
E05  22276381.309 8 117063233.95408  22276382.313 6  87417391.60906  22276380.493 6  89697836.55306  22276381.223 7  88557614.62507
E15  28327845.331 6 148863828.72106                                  28327847.549 5 114064503.48905
E34  24321165.400 7 127808627.82607  24321166.353 6  95441542.15206  24321165.226 7  97931314.37407  24321165.659 7  96686426.30307
E36  23927494.044 7 125739822.76707  23927496.372 6  93896625.93806  23927495.323 7  96346098.84707  23927495.677 7  95121361.93407
G10  25184078.090 6 132343224.71006  25184077.375 5  25184080.700 5 103124604.71905  25184080.119 6 103124593.70606  25184077.880 6  98827733.14306
G15  20698011.738 3
G18  20727042.290 8 108921369.03708  20727042.036 5  20727039.995 5  84873799.09205  20727040.134 6  84873763.09806  20727042.901 6  81337369.23906
G23  21504968.896 7 113009446.24107  21504968.615 5  21504967.936 5  88059306.15405  21504967.588 6  88059240.14806  21504969.895 6  84390120.26006
G24  20047115.839 5
G29  25300659.391 6 132955748.59106  25300658.918 5  25300674.145 5 103601771.16105  25300675.625 6 103602026.18006
I03  56956969.187 7 223511414.18507
I09  39852234.401 6 156388919.79106
R05  20514994.485 8 109664458.08308  20514997.156 8  85294613.47008  20514996.751 8  85294614.48408  20514981.760 7  82255376.21407
R06  23471248.030 3
R19  22638899.489 6 121102688.43406  22638910.740 7  94190951.16807  22638911.193 7  94190954.18207
R20  20216649.244 6 108107536.88506  20216654.063 8  84083669.95608  20216654.604 8  84083676.95808
R21  22418699.029 7 119967054.71507  22418699.763 6  93307669.21706  22418699.377 6  93307685.20706  22418684.349 5  89888262.46705
S27  40222569.362 6 211371052.42606  40222549.816 6 157842026.72606
S28  38009599.331 6 199741783.36906  38009564.282 7 149157735.36607
S32  37406005.896 7 196569912.41107  37405971.755 5 146789089.34005
S34  37510490.620 7 197118977.47807  37510352.603 6 147198710.62106
S42  36758797.091 6 193168804.65206  36758657.593 6 144248857.49506
S43  36756763.589 8 193158089.65108  36756752.508 7 144241413.34407
S44  38032158.256 6 199860356.81206  38032141.965 7 149246319.30107
> 2025 03 16 15 52 44.0000000  0 41
C02                                                                  37612186.052 6 195856519.62606  37612179.704 7 151448689.74907  37612183.477 7 159149480.37507
C03                                                                  36517918.567 7 190158400.61007  36517913.713 7 147042528.35007  36517916.287 7 154519274.32407
C05                                                                  39889265.154 6 207713922.40906  39889262.621 6 160617610.30106  39889265.235 6 168784606.73306
C06                                                                  37560455.080 7 195587401.07107  37560451.765 7 151240702.26607  37560451.630 8 158930873.41208
C07                                                                  40682214.769 6 211842904.81406  40682227.428 6 163810296.98206  40682221.969 6
C08                                                                  36315077.123 4 189102142.83104  36315071.090 4                  36315071.232 4
C09                                                                  38907023.429 5 202599453.88205  38907026.266 7 156662945.38507  38907024.440 7 164628798.08907
C10                                                                  40565916.723 6 211237185.46106  40565929.673 5 163341958.87005  40565924.370 6 171647484.11206
C13                                                                  36711919.924 7 191168615.76807  36711921.586 6 147823707.83506  36711920.482 7 155340165.36907
C20  24407584.472 7 128262720.03307  24407584.279 7  95780604.19607  24407585.314 7 127096880.85907                                  24407580.249 5
C27  25466628.236 7 133828034.40707  25466646.757 6  99936588.90406  25466629.513 7 132611191.43907                                  25466641.493 7 107757407.80907
C29  24807179.306 7 130362596.77207                                  24807178.870 7 129177496.76807                                  24807178.471 7 104967290.86007
C30  23830435.208 7 125229782.59407  23830439.875 7  93515763.33907  23830436.374 7 124091310.57907                                  23830439.648 7 100834362.07307
C32                                                                  22616436.067 4 117769742.43104                                  22616437.420 4  95697572.68404
C40  41519559.418 5 218186761.03705  41519574.337 5 162931729.05905  41519558.960 6 216203286.62906                                  41519569.679 6 175682944.79606
C60                                                                  38032124.753 6 198043256.35206                                  38032112.067 7
E03  26699572.210 7 140307521.71007  26699575.272 5 104775301.91205  26699575.285 6 107508543.84606  26699574.964 6 106141930.91406
E05  22276335.505 8 117062992.89608  22276336.364 6  87417211.60606  22276334.655 6  89697651.85906  22276335.336 7  88557432.27807
E15  28327285.270 6 148860885.43706                                  28327287.294 5 114062248.25305
E34  24320919.861 7 127807337.37207  24320920.740 6  95440578.49106  24320919.624 7  97930325.58807  24320920.100 7  96685450.08107
E36  23927784.857 7 125741350.71107  23927787.178 6  93897766.95306  23927786.140 7  96347269.60807  23927786.435 7  95122517.81907
G10  25183514.911 6 132340265.27006  25183514.196 5  25183517.517 5 103122298.66405  25183516.772 6 103122287.67806  25183514.638 6  98825523.14306
G15  20698262.059 3
G18  20727044.724 8 108921381.93208  20727044.473 5  20727042.428 5  84873809.14105  20727042.649 6  84873773.14706  20727045.610 6  81337378.86206
G23  21504518.496 7 113007078.91407  21504518.215 5  21504517.470 5  88057461.48305  21504517.160 6  88057395.48406  21504519.354 6  84388352.45406
G24  20046914.786 4
G29  25301108.667 6 132958108.71206  25301108.198 5  25301123.256 5 103603610.22105  25301124.761 6 103603865.23106
I03  56956588.475 7 223509920.33407
I09  39852145.258 6 156388569.35506
R05  20514985.388 8 109664409.63108  20514988.025 7  85294575.79607  20514987.460 7  85294576.79907  20514972.699 7  82255339.86707
R06  23470843.009 3
R19  22639685.475 6 121106892.74606  22639696.811 7  94194221.18507  22639696.855 7  94194224.19007
R20  20216808.650 6 108108388.95006  20216813.400 8  84084332.67308  20216813.964 8  84084339.67908
R21  22418191.352 7 119964338.26907  22418192.100 6  93305556.43506  22418192.627 6  93305572.43306  22418176.788 5  89886227.09005
S27  40222537.466 6 211370887.40406  40222518.438 6 157841903.46506
S28  38009569.707 6 199741630.93606  38009535.243 7 149157621.59007
S32  37405977.998 7 196569764.54707  37405943.534 5 146788978.88505
S34  37510462.436 7 197118829.13807  37510324.257 6 147198599.87906
S42  36758768.687 6 193168654.17006  36758628.984 6 144248745.18306
S43  36756737.153 8 193157948.60608  36756725.696 7 144241308.02007
S44  38032130.768 6 199860212.61306  38032114.545 7 149246211.63307
> 2025 03 16 15 52 45.0000000  0 41
C02                                                                  37612152.676 6 195856347.64306  37612146.659 7 151448556.76007  37612150.427 7 159149340.62507
C03                                                                  36517893.419 7 190158269.81807  36517888.636 7 147042427.20807  36517891.143 7 154519168.04807
C05                                                                  39889231.774 6 207713748.57306  39889229.258 6 160617475.87006  39889231.931 6
C06                                                                  37560212.960 7 195586140.09407  37560209.574 7 151239727.19907  37560209.474 7 158929848.76707
C07                                                                  40682366.039 6 211843691.54906  40682378.440 6 163810905.32106  40682373.052 6 172140269.97406
C08                                                                  36314922.503 4 189101337.15504  36314916.077 4                  36314916.120 4
C09                                                                  38906780.421 5 202598188.61005  38906783.184 7 156661967.02207  38906781.428 6 164627769.96306
C10                                                                  40566117.895 6 211238232.83106  40566130.780 5 163342768.79905  40566125.474 6 171648335.18206
C13                                                                  36711751.818 7 191167740.83807  36711753.527 6 147823031.28406  36711752.491 7 155339454.42007
C20  24407252.158 7 128260973.29307  24407251.853 7  95779299.81007  24407252.906 7 127095149.99807                                  24407247.957 5
C27  25467180.832 7 133830937.71107  25467199.323 6  99938756.93506  25467182.073 7 132614068.35507                                  25467194.136 7 107759745.52007
C29  24807062.469 7 130361983.60407                                  24807062.364 7 129176889.17707                                  24807061.826 7 104966797.14607
C30  23830787.505 7 125231633.46907  23830792.024 7  93517145.47907  23830788.467 7 124093144.63207                                  23830791.855 7 100835852.38507
C32                                                                  22616429.041 4 117769707.04704                                  22616430.512 4  95697544.01404
C40  41519744.618 5 218187734.94005  41519759.717 5 162932456.36005  41519744.520 6 216204251.69306                                  41519754.818 6 175683729.00006
C60                                                                  38032097.306 6 198043113.80006                                  38032084.745 7
E03  26699224.849 7 140305696.40707  26699228.316 5 104773938.88105  26699227.909 6 107507145.25106  26699227.629 6 106140550.10106
E05  22276289.722 8 117062752.34708  22276290.550 6  87417031.95706  22276288.956 6  89697467.54506  22276289.556 7  88557250.29607
E15  28326725.278 6 148857942.62106                                  28326727.385 5 114059993.35305
E34  24320674.475 7 127806047.67507  24320675.349 6  95439615.41406  24320674.218 7  97929337.37607  24320674.684 7  96684474.43507
E36  23928075.647 7 125742879.39907  23928078.135 6  93898908.48906  23928077.000 7  96348440.94107  23928077.332 7  95123674.25607
G10  25182951.971 6 132337306.02206  25182951.256 5  25182954.397 5 103119992.76405  25182954.094 6 103119981.76106  25182951.638 6  98823313.33706
G15  20698511.951 3
G18  20727047.302 8 108921395.84608  20727047.048 5  20727045.066 5  84873819.98205  20727045.432 6  84873783.98706  20727048.374 6  81337389.26506
G23  21504068.039 7 113004712.04607  21504067.758 5  21504067.101 5  88055617.17405  21504066.730 6  88055551.16906  21504068.850 6  84386585.00306
G24  20046713.545 4
G29  25301558.103 6 132960468.95806  25301557.634 5  25301572.383 5 103605449.38405  25301573.568 6 103605704.38906
I03  56956207.928 7 223508426.71907
I09  39852055.835 6 156388219.16006
R05  20514976.393 8 109664361.59908  20514979.041 7  85294538.44007  20514978.313 7  85294539.44907  20514963.731 7  82255303.84507
R06  23470439.114 3
R19  22640471.436 6 121111097.54306  22640482.873 7  94197491.54607  22640482.886 7  94197494.54607
R20  20216968.451 6 108109242.21806  20216972.964 8  84084996.32808  20216973.319 7  84085003.32907
R21  22417683.733 7 119961622.80907  22417684.638 6  93303444.40606  22417685.312 6  93303460.41206  22417669.322 5  89884192.46105
S27  40222507.054 6 211370722.64906  40222487.083 6 157841780.35306
S28  38009540.860 6 199741478.79506  38009506.294 7 149157508.00607
S32  37405949.142 7 196569617.12207  37405915.484 5 146788868.79805
S34  37510433.764 7 197118681.12807  37510296.216 6 147198489.36306
S42  36758741.938 6 193168504.08706  36758600.428 6 144248633.14606
S43  36756710.542 8 193157807.88708  36756698.956 7 144241202.94207
S44  38032103.809 6 199860068.79906  38032087.178 7 149246104.20207
> 2025 03 16 15 52 46.0000000  0 41
C02                                                                  37612119.689 6 195856175.77906  37612113.667 7 151448423.86407  37612117.359 7 159149200.97907
C03                                                                  36517868.351 7 190158139.15207  36517863.595 7 147042326.18407  36517866.044 7 154519061.87807
C05                                                                  39889198.474 6 207713574.84006  39889195.967 6 160617341.52406  39889198.505 6
C06                                                                  37559970.703 7 195584879.36907  37559967.423 7 151238752.31407  37559967.353 7 158928824.31707
C07                                                                  40682516.986 6 211844478.25606  40682529.523 6 163811513.68106  40682524.148 6 172140909.26506
C08                                                                  36314768.272 4 189100531.58904  36314760.536 4                  36314761.094 4
C09                                                                  38906537.732 5 202596923.52705  38906540.291 7 156660988.80807  38906538.400 6 164626742.01506
C10                                                                  40566319.008 6 211239280.18406  40566331.998 5 163343578.69005  40566326.748 5 171649186.25105
C13                                                                  36711583.895 7 191166866.04507  36711585.526 6 147822354.82206  36711584.465 6 155338743.57106
C20  24406919.840 7 128259226.69207  24406919.468 7  95777995.53607  24406920.555 7 127093419.28207                                  24406915.572 5
C27  25467733.364 7 133833841.07107  25467751.893 6  99940924.99506  25467734.516 7 132616945.29907                                  25467746.727 7 107762083.26907
C29  24806945.856 7 130361371.07607                                  24806945.799 7 129176282.21607                                  24806945.318 7 104966303.94807
C30  23831139.892 7 125233484.77707  23831144.329 7  93518527.94007  23831140.730 7 124094979.10107                                  23831144.148 7 100837343.04907
C32                                                                  22616422.647 4 117769671.83004                                  22616423.764 4  95697515.42804
C40  41519930.093 5 218188708.79305  41519944.849 5 162933183.59205  41519930.050 6 216205216.70906                                  41519940.054 5 175684513.15505
C60                                                                  38032069.966 6 198042971.37706                                  38032057.410 7
E03  26698877.622 7 140303871.37007  26698881.043 5 104772576.02605  26698880.557 6 107505746.84806  26698880.333 6 106139169.47306
E05  22276243.921 8 117062512.09308  22276244.802 6  87416852.55306  22276243.220 6  89697283.44606  22276243.833 7  88557068.54407
E15  28326165.276 6 148855000.01006                                  28326167.349 5 114057738.64205
E34  24320429.169 7 127804758.52107  24320430.038 6  95438652.73306  24320428.927 7  97928349.58407  24320429.358 7  96683499.19907
E36  23928366.682 7 125744408.60407  23928369.165 6  93900050.43006  23928368.007 7  96349612.66607  23928368.323 7  95124831.08807
G10  25182389.185 6 132334346.79806  25182388.470 5  25182391.285 5 103117686.87605  25182390.656 6 103117675.86806  25182388.517 6  98821103.54006
G15  20698761.593 3
G18  20727050.143 8 108921410.57008  20727049.889 5  20727047.861 5  84873831.45605  20727048.130 6  84873795.46206  20727051.246 6  81337400.25406
G23  21503617.752 7 113002345.43707  21503617.466 5  21503616.773 5  88053773.06205  21503616.328 6  88053707.06206  21503618.465 6  84384817.72006
G24  20046512.358 4
G29  25302007.121 6 132962829.11806  25302006.652 5  25302021.498 5 103607288.47005  25302022.261 6 103607543.49406
I03  56955827.420 7 223506933.20907
I09  39851966.587 6 156387869.05506
R05  20514967.465 8 109664313.81208  20514970.030 7  85294501.27707  20514969.448 7  85294502.28007  20514954.862 6  82255267.99806
R06  23470033.421 3
R19  22641257.640 6 121115302.57606  22641269.047 7  94200762.11407  22641268.827 7  94200765.11707
R20  20217128.099 6 108110096.49906  20217132.620 7  84085660.77707  20217133.014 7  84085667.77807
R21  22417176.119 7 119958908.14007  22417177.444 6  93301332.99506  22417178.158 6  93301349.02906  22417161.974 5  89882158.41305
S27  40222476.182 6 211370558.00006  40222455.831 6 157841657.33706
S28  38009512.130 6 199741326.84106  38009477.434 7 149157394.57207
S32  37405921.561 7 196569469.89607  37405887.490 5 146788758.89605
S34  37510405.883 7 197118533.26007  37510268.098 6 147198378.97006
S42  36758710.833 6 193168354.11706  36758571.895 6 144248521.20606
S43  36756683.757 8 193157667.30008  36756672.184 7 144241097.95707
S44  38032076.063 6 199859925.05506  38032059.848 7 149245996.86107
> 2025 03 16 15 52 47.0000000  0 41
C02                                                                  37612086.840 6 195856003.94106  37612080.546 7 151448290.98707  37612084.422 6 159149061.34606
C03                                                                  36517843.283 7 190158008.53107  36517838.487 7 147042225.17107  36517840.963 7 154518955.73307
C05                                                                  39889165.079 6 207713401.14206  39889162.608 6 160617207.23706  39889165.066 6
C06                                                                  37559728.511 7 195583618.77407  37559725.380 7 151237777.55207  37559725.208 7 158927799.99207
C07                                                                  40682668.268 6 211845264.84806  40682680.398 6 163812121.91106  40682675.311 6 172141548.43806
C08                                                                  36314613.578 4 189099726.04204  36314605.702 4                  36314606.894 3
C09                                                                  38906294.574 5 202595658.61305  38906297.339 7 156660010.68107  38906295.456 6 164625714.16006
C10                                                                  40566519.990 6 211240327.42906  40566533.119 5 163344388.48505  40566527.808 5 171650037.23905
C13                                                                  36711415.807 7 191165991.26107  36711417.561 6 147821678.39406  36711416.428 6 155338032.74506
C20  24406587.539 7 128257480.13907  24406587.131 7  95776691.28807  24406588.202 7 127091688.60807                                  24406583.090 5
C27  25468285.843 7 133836744.35407  25468304.248 6  99943093.01506  25468287.014 7 132619822.20307                                  25468299.311 6 107764420.96706
C29  24806829.293 7 130360759.07507                                  24806829.619 7 129175675.78407                                  24806828.821 7 104965811.16507
C30  23831492.154 7 125235336.41507  23831496.727 7  93519910.65807  23831493.119 7 124096813.90507                                  23831496.514 7 100838833.97907
C32                                                                  22616416.654 4 117769636.81004                                  22616417.425 4  95697486.91504
C40  41520115.423 5 218189682.52805  41520129.944 5 162933910.75605  41520115.528 6 216206181.58506                                  41520125.344 5 175685297.19705
C60                                                                  38032042.712 6 198042828.96006                                  38032030.075 6
E03  26698530.399 7 140302046.52507  26698534.114 5 104771213.29705  26698533.324 6 107504348.59706  26698533.049 6 106137788.98806
E05  22276198.240 8 117062272.03908  22276199.089 6  87416673.29206  22276197.575 6  89697099.51606  22276198.151 7  88556886.95107
E15  28325605.288 6 148852057.55406                                  28325607.421 5 114055484.03405
E34  24320183.854 7 127803469.82407  24320184.778 6  95437690.39906  24320183.712 7  97927362.13707  24320184.134 7  96682524.30807
E36  23928657.829 7 125745938.24007  23928660.253 6  93901192.67906  23928659.064 7  96350784.71607  23928659.412 7  95125988.23907
G10  25181826.393 6 132331387.47106  25181825.678 5  25181828.125 5 103115380.90905  25181827.857 6 103115369.88006  25181825.330 6  98818893.63406
G15  20699011.373 3
G18  20727053.089 8 108921426.01108  20727052.835 5  20727050.799 5  84873843.48705  20727051.096 6  84873807.50006  20727054.163 6  81337411.80106
G23  21503167.327 7 112999978.98607  21503167.046 5  21503166.467 5  88051929.07205  21503166.174 6  88051863.07206  21503168.107 6  84383050.56606
G24  20046311.748 4
G29  25302456.073 6 132965189.10006  25302455.608 5  25302470.606 5 103609127.42705  25302471.001 6 103609382.41506
I03  56955446.769 7 223505439.72107
I09  39851877.038 6 156387518.97306
R05  20514958.759 8 109664266.16608  20514961.128 7  85294464.21807  20514960.831 7  85294465.22007  20514945.882 6  82255232.25906
R06  23469629.517 4
R19  22642043.630 6 121119507.75606  22642055.248 6  94204032.78606  22642054.916 7  94204035.79407
R20  20217287.863 6 108110951.69206  20217292.508 7  84086325.92407  20217292.960 7  84086332.92507
R21  22416668.619 7 119956194.18907  22416670.286 5  93299222.15505  22416670.566 5  93299238.16005  22416654.682 5  89880124.92305
S27  40222441.737 6 211370393.44606  40222424.490 6 157841534.39506
S28  38009481.866 6 199741174.97506  38009448.579 7 149157281.20907
S32  37405893.319 7 196569322.69507  37405859.530 5 146788649.00505
S34  37510377.417 7 197118385.42707  37510239.954 6 147198268.60106
S42  36758684.397 6 193168204.16206  36758543.272 6 144248409.30206
S43  36756656.892 8 193157526.73108  36756645.422 7 144240992.98407
S44  38032048.553 6 199859781.35306  38032032.482 7 149245889.55207
> 2025 03 16 15 52 48.0000000  0 41
C02                                                                  37612054.072 6 195855832.08006  37612047.527 7 151448158.09307  37612051.484 7 159148921.67707
C03                                                                  36517818.260 7 190157877.85107  36517813.468 7 147042124.12507  36517815.863 7 154518849.53407
C05                                                                  39889131.565 6 207713227.38806  39889129.487 6 160617072.86406  39889131.681 6
C06                                                                  37559486.352 7 195582358.25207  37559483.295 7 151236802.83807  37559483.096 7 158926775.69807
C07                                                                  40682819.746 6 211846051.23606  40682831.390 6 163812730.02506  40682826.258 6 172142187.44006
C08                                                                  36314458.438 4 189098920.41204  36314452.951 4                  36314452.382 4
C09                                                                  38906051.749 5 202594393.72005  38906054.320 7 156659032.58607  38906052.496 6 164624686.31506
C10                                                                  40566720.793 6 211241374.54106  40566734.293 5 163345198.17105  40566728.974 5 171650888.06805
C13                                                                  36711247.790 7 191165116.41407  36711249.570 6 147821001.90106  36711248.413 7 155337321.84507
C20  24406255.130 7 128255733.56907  24406254.748 7  95775387.03307  24406255.851 7 127089957.91507                                  24406250.555 5
C27  25468838.365 7 133839647.52907  25468856.584 6  99945260.95406  25468839.443 7 132622698.99407                                  25468851.860 7 107766758.56507
C29  24806712.880 7 130360147.54607                                  24806713.348 7 129175069.79907                                  24806712.427 7 104965318.74407
C30  23831844.465 7 125237188.32507  23831849.120 7  93521293.57107  23831845.373 7 124098648.97007                                  23831848.897 7 100840325.10207
C32                                                                  22616410.217 4 117769601.80604                                  22616410.658 4  95697458.47204
C40  41520300.724 5 218190656.01205  41520315.148 5 162934637.75005  41520301.101 6 216207146.24506                                  41520310.579 6 175686081.07806
C60                                                                  38032015.341 6 198042686.53506                                  38032002.736 7
E03  26698183.190 7 140300221.81407  26698186.817 5 104769850.71705  26698186.124 6 107502950.42706  26698185.814 6 106136408.60806
E05  22276152.576 8 117062032.11908  22276153.401 6  87416494.13806  22276151.930 6  89696915.67706  22276152.514 7  88556705.45107
E15  28325045.401 6 148849115.15706                                  28325047.531 5 114053229.46905
E34  24319938.691 7 127802181.51207  24319939.659 6  95436728.34606  24319938.646 7  97926374.98707  24319938.973 7  96681549.70707
E36  23928948.962 7 125747468.22807  23928951.461 6  93902335.21206  23928950.259 7  96351957.05407  23928950.559 7  95127145.67407
G10  25181263.265 6 132328427.96806  25181262.546 5  25181264.942 5 103113074.80205  25181264.618 6 103113063.78206  25181262.140 6  98816683.62606
G15  20699261.458 3
G18  20727056.140 8 108921442.09708  20727055.886 5  20727053.844 5  84873856.02105  20727054.176 6  84873820.04206  20727057.081 6  81337423.79706
G23  21502716.943 7 112997612.62807  21502716.657 5  21502716.197 5  88050085.15905  21502715.779 6  88050019.16006  21502717.920 6  84381283.47906
G24  20046111.312 4
G29  25302904.905 6 132967548.85106  25302904.440 5  25302919.659 5 103610966.20005  25302919.486 6 103611221.21806
I03  56955066.249 7 223503946.21007
I09  39851787.806 6 156387168.85106
R05  20514949.875 8 109664218.59008  20514952.247 7  85294427.20107  20514951.942 7  85294428.20507  20514936.951 6  82255196.57306
R06  23469225.681 4
R19  22642829.858 6 121123713.02806  22642841.422 7  94207303.50707  22642841.421 7  94207306.50107
R20  20217447.876 6 108111807.72406  20217452.565 8  84086991.70908  20217452.713 7  84086998.70307
R21  22416161.363 7 119953480.91607  22416163.173 6  93297111.83206  22416163.307 6  93297127.82606  22416147.694 5  89878091.95305
S27  40222411.286 6 211370229.01306  40222393.228 6 157841411.59706
S28  38009454.813 6 199741023.08606  38009419.665 7 149157167.81107
S32  37405865.532 7 196569175.37607  37405831.547 5 146788539.02305
S34  37510349.398 7 197118237.55407  37510211.640 6 147198158.19606
S42  36758657.612 6 193168054.17006  36758514.631 6 144248297.36406
S43  36756630.442 8 193157386.13108  36756618.597 7 144240887.98907
S44  38032021.871 6 199859637.62906  38032005.115 7 149245782.21307
> 2025 03 16 15 52 49.0000000  0 41
C02                                                                  37612021.040 6 195855660.01706  37612014.523 7 151448025.04907  37612018.438 7 159148781.86607
C03                                                                  36517793.071 7 190157746.98907  36517788.311 7 147042022.92407  36517790.724 7 154518743.19807
C05                                                                  39889098.197 6 207713053.45906  39889095.927 6 160616938.36806  39889098.363 6
C06                                                                  37559244.254 7 195581097.65807  37559241.166 8 151235828.06708  37559241.017 7 158925751.36407
C07                                                                  40682971.106 6 211846837.31406  40682982.414 6 163813337.87906  40682977.070 6 172142826.18506
C08                                                                  36314304.634 4 189098114.66704  36314298.322 4                  36314297.673 4
C09                                                                  38905808.949 5 202593128.73005  38905811.269 7 156658054.41707  38905809.488 7 164623658.42207
C10                                                                  40566921.600 6 211242421.31306  40566935.113 5 163346007.61505  40566930.155 6 171651738.69506
C13                                                                  36711079.836 7 191164241.34207  36711081.433 6 147820325.25206  36711080.418 7 155336610.79307
C20  24405922.733 7 128253986.82507  24405922.401 7  95774082.64607  24405923.430 7 127088227.05407                                  24405918.173 5
C27  25469390.806 7 133842550.43607  25469409.139 6  99947428.68606  25469391.809 7 132625575.50607                                  25469404.334 7 107769095.95007
C29  24806596.327 7 130359536.31707                                  24806597.162 7 129174464.12707                                  24806596.048 7 104964826.58707
C30  23832196.878 7 125239040.34407  23832201.585 7  93522676.57007  23832197.739 7 124100484.15507                                  23832201.323 7 100841816.33807
C32                                                                  22616403.387 4 117769566.69704                                  22616403.934 4  95697429.90904
C40  41520485.936 5 218191629.15905  41520500.213 5 162935364.46705  41520486.199 6 216208110.52606                                  41520495.733 6 175686864.64406
C60                                                                  38031987.832 6 198042543.91806                                  38031975.286 7
E03  26697836.074 7 140298397.05307  26697839.641 5 104768488.06005  26697838.945 6 107501552.25306  26697838.583 6 106135028.19506
E05  22276106.909 8 117061792.18308  22276107.686 6  87416314.96606  22276106.287 6  89696731.84306  22276106.845 7  88556523.95007
E15  28324485.534 6 148846172.72106                                  28324487.664 5 114050974.87505
E34  24319693.578 7 127800893.42907  24319694.510 6  95435766.46806  24319693.486 7  97925388.01307  24319693.851 7  96680575.27907
E36  23929240.060 7 125748998.44607  23929242.607 6  93903477.88906  23929241.431 7  96353129.55007  23929241.742 7  95128303.26107
G10  25180700.266 6 132325468.13706  25180699.547 5  25180701.696 5 103110768.44505  25180701.251 6 103110757.43006  25180698.982 6  98814473.37706
G15  20699511.949 3
G18  20727059.263 8 108921458.68108  20727059.009 5  20727057.001 5  84873868.94405  20727056.986 6  84873832.96006  20727060.210 6  81337436.18506
G23  21502266.672 7 112995246.20707  21502266.391 5  21502265.918 5  88048241.19805  21502265.508 6  88048175.20206  21502267.702 6  84379516.36406
G24  20045910.845 4
G29  25303354.102 6 132969908.20406  25303353.642 5  25303368.601 5 103612804.66305  25303368.234 6 103613059.67706
I03  56954685.630 7 223502452.55407
I09  39851698.546 6 156386818.59306
R05  20514941.013 8 109664170.90308  20514943.295 7  85294390.11607  20514942.871 7  85294391.11507  20514927.985 7  82255160.80507
R06  23468825.716 3
R19  22643616.308 6 121127918.19606  22643627.501 7  94210574.16907  22643627.454 7  94210577.17807
R20  20217608.272 6 108112664.41806  20217612.720 7  84087658.03907  20217612.858 7  84087665.03207
R21  22415654.052 7 119950768.16207  22415656.274 6  93295001.91806  22415656.734 6  93295017.91906  22415640.855 5  89876059.34605
S27  40222380.686 6 211370064.42006  40222361.941 6 157841288.70706
S28  38009424.781 6 199740870.95406  38009390.752 7 149157054.22307
S32  37405837.043 7 196569027.93507  37405803.434 5 146788428.96705
S34  37510320.945 7 197118089.46907  37510183.585 6 147198047.65906
S42  36758627.809 6 193167903.95806  36758486.084 6 144248185.26306
S43  36756603.621 8 193157245.33808  36756591.856 7 144240782.85207
S44  38031992.931 6 199859493.69106  38031977.704 7 149245674.73607
> 2025 03 16 15 52 50.0000000  0 41
C02                                                                  37611988.093 6 195855488.00006  37611981.526 7 151447892.03507  37611985.348 7 159148642.09207
C03                                                                  36517767.990 7 190157616.16107  36517763.238 7 147041921.76607  36517765.625 7 154518636.88107
C05                                                                  39889064.745 6 207712879.56306  39889062.278 6 160616803.92206  39889065.014 6
C06                                                                  37559002.029 7 195579837.20907  37558999.086 8 151234853.41108  37558998.981 8 158924727.14908
C07                                                                  40683122.153 6 211847623.28606  40683133.216 6 163813945.62406  40683127.886 6 172143464.85406
C08                                                                  36314150.387 4 189097308.86704  36314142.866 4                  36314142.744 4
C09                                                                  38905566.350 5 202591863.88805  38905568.454 7 156657076.36007  38905566.556 7 164622630.62307
C10                                                                  40567122.606 6 211243468.02306  40567136.034 5 163346817.00105  40567131.237 6 171652589.23006
C13                                                                  36710911.817 7 191163366.27607  36710913.331 7 147819648.58807  36710912.361 7 155335899.70907
C20  24405590.254 7 128252240.12707  24405590.069 7  95772778.30307  24405590.994 7 127086496.23807                                  24405585.808 6
C27  25469943.147 7 133845453.29607  25469961.542 6  99949596.37306  25469944.146 7 132628451.96307                                  25469956.750 7 107771433.29407
C29  24806480.058 7 130358925.64607                                  24806481.080 7 129173858.99707                                  24806479.890 7 104964334.87007
C30  23832549.346 7 125240892.70607  23832554.101 7  93524059.81707  23832550.237 7 124102319.68207                                  23832553.761 7 100843307.84707
C32                                                                  22616397.099 4 117769531.70704                                  22616397.192 5  95697401.48005
C40  41520671.006 5 218192602.18605  41520685.348 5 162936091.07605  41520671.181 6 216209074.70906                                  41520680.811 6 175687648.12106
C60                                                                  38031960.492 6 198042401.32606                                  38031947.833 7 160925619.12017
E03  26697488.970 7 140296572.48807  26697492.362 5 104767125.55005  26697491.853 6 107500154.23006  26697491.407 6 106133647.93906
E05  22276061.272 8 117061552.45908  22276062.116 6  87416135.95206  22276060.654 6  89696548.16006  22276061.221 7  88556342.60207
E15  28323925.596 6 148843230.41806                                  28323927.659 5 114048720.37305
E34  24319448.564 7 127799605.80607  24319449.500 6  95434804.92006  24319448.482 7  97924401.39707  24319448.825 7  96679601.19907
E36  23929531.278 7 125750529.09307  23929533.876 6  93904620.91906  23929532.686 7  96354302.38807  23929533.024 7  95129461.19307
G10  25180136.807 6 132322508.23106  25180136.079 5  25180138.455 5 103108462.03305  25180137.870 6 103108451.02406  25180135.779 6  98812263.04606
G15  20699760.003 3
G18  20727062.508 8 108921475.98408  20727062.254 5  20727060.288 5  84873882.42605  20727060.111 6  84873846.42506  20727063.324 6  81337449.09706
G23  21501816.411 7 112992879.96507  21501816.130 5  21501815.675 5  88046397.37605  21501815.278 6  88046331.36706  21501817.406 6  84377749.35206
G24  20045710.619 4
G29  25303803.003 6 132972267.36906  25303802.538 5  25303817.530 5 103614642.98005  25303817.230 6 103614897.99806
I03  56954305.070 7 223500958.92607
I09  39851609.402 6 156386468.36806
R05  20514932.140 8 109664123.33008  20514934.441 7  85294353.10807  20514934.022 8  85294354.10808  20514919.056 7  82255125.12507
R06  23468422.971 4
R19  22644402.764 6 121132123.53706  22644413.487 7  94213844.96707  22644413.373 7  94213847.96807
R20  20217769.192 6 108113522.02706  20217773.131 8  84088325.05608  20217773.170 8  84088332.06108
R21  22415147.159 7 119948056.13107  22415149.241 6  93292892.54306  22415149.805 6  93292908.55506  22415133.935 5  89874027.28605
S27  40222349.819 6 211369899.83206  40222330.764 6 157841165.81206
S28  38009394.960 6 199740718.89506  38009361.793 7 149156940.66707
S32  37405808.671 7 196568880.52207  37405775.361 5 146788318.92405
S34  37510292.957 7 197117941.40107  37510155.351 6 147197937.09006
S42  36758600.822 6 193167753.81506  36758457.448 6 144248073.22306
S43  36756576.872 8 193157104.57908  36756565.102 7 144240677.74207
S44  38031965.766 6 199859349.75306  38031950.280 7 149245567.28007
> 2025 03 16 15 52 51.0000000  0 41
C02                                                                  37611955.312 6 195855315.93606  37611948.490 7 151447758.97807  37611952.330 7 159148502.27207
C03                                                                  36517742.953 7 190157485.27907  36517738.085 7 147041820.55507  36517740.494 7 154518530.52707
C05                                                                  39889031.186 6 207712705.61806  39889029.086 6 160616669.40106  39889031.633 6
C06                                                                  37558760.013 7 195578576.83807  37558757.066 7 151233878.80407  37558756.959 8 158923702.99008
C07                                                                  40683272.920 6 211848409.04306  40683284.100 6 163814553.21106  40683278.722 6 172144103.34606
C08                                                                  36313995.056 4 189096503.09504  36313987.808 4                  36313987.655 4
C09                                                                  38905323.359 5 202590599.04905  38905325.540 7 156656098.31707  38905323.603 7 164621602.82707
C10                                                                  40567323.608 6 211244514.57006  40567336.935 5 163347626.24105  40567332.359 6 171653439.61306
C13                                                                  36710743.769 7 191162491.12407  36710745.164 7 147818971.86807  36710744.292 7 155335188.57907
C20  24405257.844 7 128250493.40107  24405257.650 7  95771473.93007  24405258.676 7 127084765.38607                                  24405253.225 5 103267105.73705
C27  25470495.492 7 133848355.99807  25470513.832 6  99951763.94106  25470496.537 7 132631328.29007                                  25470509.128 7 107773770.51107
C29  24806363.789 7 130358315.40007                                  24806364.968 7 129173254.31207                                  24806363.750 7 104963843.52007
C30  23832901.886 7 125242745.31107  23832906.697 7  93525443.24807  23832902.843 7 124104155.43907                                  23832906.252 7 100844799.54807
C32                                                                  22616390.566 4 117769496.72604                                  22616390.381 5  95697373.08705
C40  41520856.199 5 218193574.95905  41520870.335 5 162936817.49205  41520856.264 6 216210038.63006                                  41520866.054 6 175688431.42306
C60                                                                  38031933.090 6 198042258.68906                                  38031920.503 7 160925503.21807
E03  26697141.835 7 140294748.02207  26697145.171 5 104765763.11605  26697144.546 6 107498756.24606  26697144.224 6 106132267.72106
E05  22276015.655 8 117061312.85408  22276016.609 6  87415957.01406  22276015.027 6  89696364.55406  22276015.633 7  88556161.33207
E15  28323365.625 6 148840288.18106                                  28323367.650 5 114046465.92705
E34  24319203.600 7 127798318.54907  24319204.516 6  95433843.65706  24319203.482 7  97923415.05907  24319203.860 7  96678627.39907
E36  23929822.464 7 125752060.08807  23929825.150 6  93905764.19106  23929824.012 7  96355475.48207  23929824.355 7  95130619.37707
G10  25179573.277 6 132319548.12506  25179572.549 5  25179575.169 5 103106155.45205  25179574.554 6 103106144.45306  25179572.453 6  98810052.60006
G15  20700008.925 3
G18  20727065.885 8 108921493.91808  20727065.635 5  20727063.718 5  84873896.40005  20727063.957 6  84873860.41006  20727066.765 6  81337462.49706
G23  21501366.140 7 112990513.79307  21501365.854 5  21501365.432 5  88044553.60505  21501365.226 6  88044487.61706  21501367.122 6  84375982.41106
G24  20045509.490 4
G29  25304251.966 6 132974626.29706  25304251.501 5  25304266.423 5 103616481.11205  25304265.735 6 103616736.13406
I03  56953924.366 7 223499465.27907
I09  39851519.966 6 156386118.07506
R05  20514923.319 8 109664075.78808  20514925.592 7  85294316.13107  20514925.177 8  85294317.12708  20514910.129 7  82255089.45407
R06  23468018.177 4
R19  22645188.582 6 121136328.93006  22645199.540 7  94217115.79607  22645199.431 7  94217118.79607
R20  20217929.695 6 108114380.46406  20217933.716 7  84088992.73107  20217933.719 8  84088999.74108
R21  22414640.346 7 119945344.72507  22414642.436 6  93290783.69506  22414643.329 6  93290799.68406  22414627.208 5  89871995.70705
S27  40222319.291 6 211369735.24206  40222299.490 6 157841042.94406
S28  38009367.777 6 199740566.78606  38009332.799 7 149156827.05507
S32  37405781.452 7 196568732.95207  37405747.328 5 146788208.72605
S34  37510265.251 7 197117793.28307  37510127.090 6 147197826.50006
S42  36758569.526 6 193167603.63206  36758428.874 6 144247961.13206
S43  36756550.262 8 193156963.76008  36756538.299 7 144240572.58407
S44  38031938.234 6 199859205.81406  38031922.910 7 149245459.78607
> 2025 03 16 15 52 52.0000000  0 41
C02                                                                  37611921.994 6 195855143.60506  37611915.275 7 151447625.72907  37611919.231 7 159148362.26007
C03                                                                  36517717.689 7 190157354.15007  36517712.883 7 147041719.16207  36517715.328 7 154518424.00107
C05                                                                  39888997.778 6 207712531.41606  39888995.490 6 160616534.69906  39888998.181 6
C06                                                                  37558517.895 7 195577316.31707  37558514.905 7 151232904.10507  37558514.885 7 158922678.75207
C07                                                                  40683423.580 6 211849194.43006  40683434.881 6 163815160.53306  40683429.508 6 172144741.54806
C08                                                                  36313839.128 4 189095697.05304  36313833.050 4                  36313832.606 4
C09                                                                  38905080.375 5 202589334.00905  38905082.608 7 156655120.13907  38905080.692 7 164620574.94407
C10                                                                  40567524.299 6 211245560.76306  40567537.823 5 163348435.24705  40567533.213 6 171654289.76406
C13                                                                  36710575.589 7 191161615.70707  36710577.136 7 147818294.94507  36710576.151 7 155334477.26307
C20  24404925.374 7 128248746.44207  24404925.202 7  95770169.37807  24404926.236 7 127083034.30507                                  24404920.650 5 103265699.12305
C27  25471047.917 7 133851258.38307  25471066.209 6  99953931.31406  25471048.836 7 132634204.29407                                  25471061.512 7 107776107.50707
C29  24806247.557 7 130357705.42007                                  24806248.837 7 129172649.87307                                  24806247.699 7 104963352.39007
C30  23833254.505 7 125244597.97707  23833259.227 7  93526826.73407  23833255.493 7 124105991.26107                                  23833258.826 7 100846291.32807
C32                                                                  22616383.927 4 117769461.56404                                  22616383.570 4  95697344.56204
C40  41521041.204 5 218194547.32305  41521055.608 5 162937543.67405  41521041.217 6 216211002.19306                                  41521051.084 6 175689214.39806
C60                                                                  38031905.424 6 198042115.80506                                  38031893.065 7 160925387.14607
E03  26696794.618 7 140292923.46607  26696797.776 5 104764400.65105  26696797.327 6 107497358.22406  26696797.031 6 106130887.47606
E05  22275970.049 8 117061073.17708  22275970.974 6  87415778.03806  22275969.453 6  89696180.91106  22275970.032 7  88555980.02007
E15  28322805.842 6 148837345.80606                                  28322807.924 5 114044211.40505
E34  24318958.733 7 127797031.47807  24318959.604 6  95432882.54306  24318958.564 7  97922428.86207  24318958.950 7  96677653.74107
E36  23930113.842 7 125753591.22807  23930116.542 6  93906907.57606  23930115.387 7  96356648.69007  23930115.713 7  95131777.67307
G10  25179009.817 6 132316587.68606  25179009.084 5  25179011.785 5 103103848.61505  25179011.165 6 103103837.61006  25179009.013 6  98807841.86406
G15  20700259.452 3
G18  20727069.347 8 108921512.29608  20727069.093 5  20727067.227 5  84873910.72005  20727067.463 6  84873874.72406  20727070.282 6  81337476.21306
G23  21500915.810 7 112988147.50707  21500915.529 5  21500915.175 5  88042709.74705  21500914.896 6  88042643.74806  21500916.866 6  84374215.37206
G24  20045308.772 4
G29  25304700.799 7 132976984.76107  25304700.339 5  25304715.217 5 103618318.88005  25304714.154 6 103618573.89506
I03  56953543.774 7 223497971.44507
I09  39851430.614 6 156385767.59806
R05  20514914.373 8 109664028.08908  20514916.658 7  85294279.04907  20514916.301 7  85294280.05307  20514901.200 7  82255053.68507
R06  23467616.737 4
R19  22645974.816 6 121140534.18106  22645985.576 6  94220386.53906  22645985.565 7  94220389.54507
R20  20218090.195 6 108115239.53806  20218094.386 7  84089660.91807  20218094.521 7  84089667.92607
R21  22414133.815 7 119942633.75607  22414135.922 6  93288675.17706  22414136.747 6  93288691.18106  22414120.630 5  89869964.44105
S27  40222288.696 6 211369570.35206  40222268.099 6 157840919.84906
S28  38009339.592 6 199740414.40806  38009303.792 7 149156713.26207
S32  37405753.214 7 196568585.13307  37405719.251 5 146788098.38405
S34  37510236.641 7 197117644.89707  37510098.928 6 147197715.69706
S42  36758541.779 6 193167453.17706  36758400.274 6 144247848.88206
S43  36756523.347 8 193156822.70208  36756511.479 7 144240467.25107
S44  38031910.344 6 199859061.63306  38031895.449 7 149245352.10507
> 2025 03 16 15 52 53.0000000  0 41
C02                                                                  37611888.864 6 195854971.21506  37611882.220 7 151447492.43007  37611886.051 7 159148222.16607
C03                                                                  36517692.428 7 190157222.93707  36517687.721 7 147041617.69707  36517690.139 7 154518317.36107
C05                                                                  39888964.299 6 207712357.12406  39888962.092 6 160616399.93306  39888964.666 6
C06                                                                  37558275.880 7 195576055.84307  37558272.892 7 151231929.43207  37558272.803 8 158921654.48808
C07                                                                  40683574.236 6 211849979.56506  40683585.357 6 163815767.67506  40683580.323 6 172145379.55206
C08                                                                  36313684.376 4 189094890.92004  36313678.609 4                  36313677.821 4
C09                                                                  38904837.713 5 202588069.07405  38904839.620 7 156654141.97407  38904837.715 7 164619547.02807
C10                                                                  40567725.084 6 211246606.73106  40567738.916 5 163349244.06005  40567733.962 6 171655139.68806
C13                                                                  36710407.467 7 191160740.20107  36710408.987 7 147817617.94507  36710407.975 7 155333765.81807
C20  24404592.838 7 128246999.41607  24404592.730 7  95768864.79307  24404593.797 7 127081303.16407                                  24404588.195 5 103264292.41905
C27  25471600.216 7 133854160.60707  25471618.640 6  99956098.52006  25471601.244 7 132637080.12607                                  25471613.795 7 107778444.31907
C29  24806131.551 6 130357095.86706                                  24806132.843 7 129172045.86107                                  24806131.679 7 104962861.55107
C30  23833607.244 7 125246450.88307  23833611.831 7  93528210.38407  23833608.067 7 124107827.31807                                  23833611.397 7 100847783.24607
C32                                                                  22616377.515 4 117769426.42604                                  22616376.648 4  95697315.96904
C40  41521226.308 5 218195519.47005  41521240.593 5 162938269.60105  41521226.230 6 216211965.45906                                  41521236.171 6 175689997.13906
C60                                                                  38031878.317 6 198041972.83306                                  38031865.520 7 160925270.95607
E03  26696447.375 7 140291098.98907  26696450.652 5 104763038.25505  26696450.222 6 107495960.24706  26696449.832 6 106129507.28206
E05  22275924.452 8 117060833.59008  22275925.389 6  87415599.13606  22275923.814 6  89695997.32706  22275924.434 7  88555798.77807
E15  28322245.997 6 148834403.49206                                  28322247.918 5 114041956.88905
E34  24318713.826 7 127795744.74207  24318714.854 6  95431921.65606  24318713.684 7  97921442.91807  24318714.097 7  96676680.32707
E36  23930405.247 7 125755122.70407  23930407.971 6  93908051.20506  23930406.783 7  96357822.15207  23930407.150 7  95132936.21807
G10  25178446.225 6 132313627.01806  25178445.492 5  25178448.378 5 103101541.60205  25178447.667 6 103101530.62006  25178445.502 6  98805630.97806
G15  20700508.159 3
G18  20727072.977 8 108921531.27608  20727072.723 5  20727070.836 5  84873925.50905  20727071.296 6  84873889.51806  20727073.750 6  81337490.38906
G23  21500465.549 7 112985781.27807  21500465.268 5  21500464.928 5  88040865.93005  21500464.658 6  88040799.94306  21500466.558 6  84372448.36906
G24  20045108.054 4
G29  25305149.542 7 132979342.95007  25305149.077 5  25305163.949 5 103620156.43505  25305162.783 6 103620411.46606
I03  56953163.124 7 223496477.54407
I09  39851341.292 6 156385417.06206
R05  20514905.499 8 109663980.39108  20514907.706 7  85294241.93207  20514907.472 7  85294242.93507  20514892.238 7  82255017.90807
R06  23467213.956 4
R19  22646761.223 6 121144739.48206  22646771.597 7  94223657.26307  22646771.651 7  94223660.27507
R20  20218251.233 6 108116099.40806  20218255.114 8  84090329.67608  20218255.327 8  84090336.68208
R21  22413627.264 7 119939923.38007  22413629.444 6  93286567.09106  22413630.073 6  93286583.10606  22413614.097 6  89867933.62306
S27  40222256.223 6 211369405.31606  40222236.623 6 157840796.61306
S28  38009311.068 6 199740261.93806  38009274.776 7 149156599.37107
S32  37405725.038 7 196568437.29207  37405691.151 5 146787987.96005
S34  37510209.020 7 197117496.42007  37510070.538 6 147197604.82906
S42  36758510.585 6 193167302.65206  36758371.396 6 144247736.54506
S43  36756496.651 8 193156681.55808  36756484.640 7 144240361.85607
S44  38031881.471 6 199858917.37206  38031867.993 7 149245244.37407
> 2025 03 16 15 52 54.0000000  0 41
C02                                                                  37611855.778 6 195854798.94006  37611849.162 7 151447359.19407  37611852.988 7 159148082.16307
C03                                                                  36517667.200 7 190157091.81907  36517662.488 7 147041516.30707  36517664.937 7 154518210.81807
C05                                                                  39888930.762 6 207712182.94006  39888928.487 6 160616265.22306  39888931.151 6
C06                                                                  37558033.864 7 195574795.58307  37558030.870 7 151230954.91007  37558030.748 8 158920630.41708
C07                                                                  40683724.959 6 211850764.68506  40683736.010 6 163816374.75506  40683731.148 6 172146017.50206
C08                                                                  36313529.986 4 189094084.85604  36313522.321 4                  36313523.407 4
C09                                                                  38904595.004 5 202586804.22905  38904596.775 7 156653163.94807  38904594.803 7 164618519.27007
C10                                                                  40567925.628 6 211247652.69006  40567940.118 5 163350052.85805  40567934.839 6 171655989.61606
C13                                                                  36710239.405 7 191159864.75707  36710240.935 7 147816940.99107  36710239.824 7 155333054.43907
C20  24404260.298 7 128245252.49907  24404260.284 7  95767560.27807  24404261.285 7 127079572.13107                                  24404255.850 5 103262885.82105
C27  25472152.489 7 133857062.83707  25472170.836 6  99958265.74306  25472153.382 7 132639955.97707                                  25472166.117 7 107780781.16007
C29  24806015.629 6 130356486.90706                                  24806016.820 7 129171442.44807                                  24806015.808 7 104962371.22407
C30  23833960.012 7 125248304.15907  23833964.502 7  93529594.32507  23833960.677 7 124109663.76307                                  23833964.064 7 100849275.50007
C32                                                                  22616370.865 4 117769391.50104                                  22616370.022 5  95697287.61905
C40  41521411.253 5 218196491.50305  41521425.711 5 162938995.46905  41521411.355 6 216212928.67306                                  41521421.054 6 175690779.83506
C60                                                                  38031851.152 6 198041829.97906                                  38031838.055 7 160925154.85807
E03  26696100.203 7 140289274.75407  26696103.561 5 104761676.00805  26696103.115 6 107494562.47206  26696102.682 6 106128127.27406
E05  22275878.933 8 117060594.27108  22275879.789 6  87415420.41806  22275878.245 6  89695813.95506  22275878.886 7  88555617.73207
E15  28321686.180 6 148831461.35106                                  28321688.073 5 114039702.52905
E34  24318468.978 7 127794458.52407  24318470.092 6  95430961.18106  24318468.958 7  97920457.37407  24318469.330 7  96675707.31707
E36  23930696.761 7 125756654.66607  23930699.498 6  93909195.18706  23930698.326 7  96358995.99507  23930698.673 7  95134095.13207
G10  25177882.458 6 132310666.31006  25177881.721 5  25177884.945 5 103099234.55905  25177884.530 6 103099223.56506  25177881.967 6  98803420.06506
G15  20700755.659 3
G18  20727076.658 8 108921551.03608  20727076.408 5  20727074.592 5  84873940.90305  20727074.901 6  84873904.92106  20727077.442 6  81337505.14206
G23  21500015.350 7 112983415.26507  21500015.069 5  21500014.707 5  88039022.28505  21500014.544 6  88038956.30006  21500016.236 6  84370681.54906
G24  20044908.056 4
G29  25305598.390 7 132981701.00707  25305597.922 5  25305612.658 5 103621993.89405  25305611.593 6 103622248.92106
I03  56952782.409 7 223494983.71307
I09  39851251.561 6 156385066.61306
R05  20514896.652 8 109663932.87608  20514898.803 7  85294204.98207  20514898.572 8  85294205.98308  20514883.357 7  82254982.27107
R06  23466811.707 4
R19  22647547.518 6 121148944.96106  22647557.660 7  94226928.16907  22647557.765 7  94226931.18107
R20  20218412.148 6 108116960.21906  20218416.110 8  84090999.19608  20218416.386 8  84091006.21708
R21  22413120.971 7 119937213.81107  22413123.261 6  93284459.61806  22413124.266 6  93284475.64006  22413107.732 6  89865903.41606
S27  40222224.009 6 211369240.29806  40222205.268 6 157840673.37106
S28  38009281.877 6 199740109.58806  38009245.750 7 149156485.56107
S32  37405697.381 7 196568289.49407  37405663.025 5 146787877.61205
S34  37510180.813 7 197117348.01307  37510042.165 6 147197494.00606
S42  36758480.996 6 193167152.18806  36758342.711 6 144247624.24006
S43  36756469.477 8 193156540.50608  36756457.824 7 144240256.52107
S44  38031855.017 6 199858773.22506  38031840.524 7 149245136.70107
> 2025 03 16 15 52 55.0000000  0 41
C02                                                                  37611822.518 6 195854626.66206  37611816.157 7 151447225.98507  37611819.988 7 159147942.17007
C03                                                                  36517641.957 7 190156960.73207  36517637.349 7 147041414.94807  36517639.735 7 154518104.29607
C05                                                                  39888897.623 6 207712008.77506  39888895.107 6 160616130.55906  39888897.699 6
C06                                                                  37557791.887 7 195573535.46107  37557788.809 7 151229980.51207  37557788.767 7 158919606.47307
C07                                                                  40683876.075 6 211851549.64806  40683886.741 6 163816981.74406  40683881.940 6 172146655.36606
C08                                                                  36313375.120 4 189093278.74604  36313367.912 4                  36313368.760 4
C09                                                                  38904352.036 5 202585539.55105  38904353.975 7 156652186.00407  38904351.968 7 164617491.59107
C10                                                                  40568126.413 6 211248698.55806  40568140.995 5 163350861.59605  40568135.582 6 171656839.48806
C13                                                                  36710071.187 7 191158989.30407  36710072.792 7 147816264.04007  36710071.654 7 155332343.06607
C20  24403927.921 7 128243505.62807  24403927.825 7  95766255.79107  24403928.771 7 127077841.13507                                  24403923.563 5 103261479.25305
C27  25472704.781 7 133859965.00707  25472722.936 6  99960432.91506  25472705.641 7 132642831.76107                                  25472718.441 7 107783117.96107
C29  24805899.892 6 130355878.49106                                  24805900.920 7 129170839.55807                                  24805899.967 7 104961881.33607
C30  23834312.817 7 125250157.78407  23834317.236 7  93530978.52807  23834313.490 7 124111500.53207                                  23834316.815 7 100850768.02807
C32                                                                  22616363.982 4 117769356.65004                                  22616363.386 4  95697259.27404
C40  41521596.188 5 218197463.40905  41521610.580 5 162939721.28205  41521595.996 6 216213891.73406                                  41521605.835 6 175691562.40206
C60                                                                  38031823.535 6 198041687.12806                                  38031810.684 7 160925038.80607
E03  26695753.027 7 140287450.70507  26695756.536 5 104760313.88305  26695755.822 6 107493164.83706  26695755.559 6 106126747.40006
E05  22275833.407 8 117060355.15008  22275834.264 6  87415241.84706  22275832.776 6  89695630.73106  22275833.392 7  88555436.83507
E15  28321126.369 6 148828519.37506                                  28321128.263 5 114037448.26105
E34  24318224.259 7 127793172.76407  24318225.416 6  95430001.02506  24318224.247 7  97919472.17907  24318224.647 7  96674734.64307
E36  23930988.347 7 125758187.05407  23930991.066 6  93910339.51006  23930989.892 7  96360170.15707  23930990.285 7  95135254.37407
G10  25177318.850 6 132307705.51306  25177318.113 5  25177321.529 5 103096927.44305  25177321.243 6 103096916.44706  25177318.677 6  98801209.07706
G15  20701006.526 3
G18  20727080.599 8 108921571.50908  20727080.345 5  20727078.483 5  84873956.85705  20727078.783 6  84873920.86306  20727081.247 6  81337520.40306
G23  21499565.241 7 112981049.42207  21499564.960 5  21499564.526 5  88037178.77205  21499564.527 6  88037112.78106  21499565.896 6  84368914.85606
G24  20044709.096 4
G29  25306046.976 7 132984058.89907  25306046.506 5  25306061.336 5 103623831.22305  25306060.403 6 103624086.23206
I03  56952401.981 7 223493489.90907
I09  39851162.640 6 156384716.15106
R05  20514887.790 8 109663885.46808  20514889.900 7  85294168.10907  20514889.577 7  85294169.13007  20514874.495 7  82254946.70807
R06  23466409.757 4
R19  22648333.520 6 121153150.59606  22648344.044 7  94230199.21507  22648343.921 7  94230202.22607
R20  20218573.537 6 108117821.94606  20218577.245 7  84091669.43507  20218577.707 7  84091676.43507
R21  22412614.948 7 119934504.97907  22412616.935 6  93282352.75406  22412617.927 6  93282368.76506  22412601.579 6  89863873.75606
S27  40222191.881 6 211369075.29406  40222173.752 6 157840550.12606
S28  38009250.835 6 199739957.27106  38009216.788 7 149156371.79407
S32  37405668.861 7 196568141.68507  37405634.661 5 146787767.22505
S34  37510152.995 7 197117199.63007  37510013.958 6 147197383.19606
S42  36758452.628 6 193167001.77806  36758313.998 6 144247511.97006
S43  36756442.652 8 193156399.48208  36756430.963 7 144240151.21307
S44  38031828.178 6 199858629.09006  38031813.108 7 149245029.07107
> 2025 03 16 15 52 56.0000000  0 41
C02                                                                  37611789.276 6 195854454.54906  37611783.120 7 151447092.93007  37611786.911 7 159147802.34107
C03                                                                  36517616.688 7 190156829.84107  36517612.236 7 147041313.73807  36517614.605 7 154517997.93607
C05                                                                  39888864.501 6 207711834.81206  39888861.570 6 160615996.03406  39888864.314 6
C06                                                                  37557550.006 7 195572275.64707  37557546.864 7 151229006.34607  37557546.867 8 158918582.77108
C07                                                                  40684026.798 6 211852334.66606  40684037.323 6 163817588.79206  40684032.612 6 172147293.26106
C08                                                                  36313220.314 4 189092472.96304  36313211.338 4                  36313214.006 4
C09                                                                  38904109.242 5 202584275.15105  38904111.276 7 156651208.30707  38904109.228 7 164616464.15707
C10                                                                  40568327.151 6 211249744.49306  40568341.649 5 163351670.40105  40568336.361 6 171657689.38606
C13                                                                  36709903.128 7 191158114.01207  36709904.726 7 147815587.21107  36709903.630 7 155331631.81507
C20  24403595.521 7 128241758.98007  24403595.451 7  95764951.48107  24403596.230 7 127076110.36507                                  24403591.404 5 103260072.82005
C27  25473257.013 7 133862867.30307  25473275.152 6  99962600.18406  25473257.929 7 132645707.67307                                  25473270.819 7 107785454.85507
C29  24805784.234 6 130355270.76606                                  24805785.358 7 129170237.35907                                  24805784.297 7 104961391.99107
C30  23834665.777 7 125252011.90607  23834669.992 7  93532363.09707  23834666.262 7 124113337.79607                                  23834669.585 7 100852260.94507
C32                                                                  22616357.147 4 117769322.06904
C40  41521781.204 5 218198435.34305  41521795.602 5 162940447.07505  41521780.911 6 216214854.81606                                  41521790.762 6 175692344.97206
C60                                                                  38031795.758 6 198041544.49706                                  38031783.278 7 160924922.89707
E03  26695406.009 7 140285627.02507  26695409.508 5 104758952.05605  26695408.747 6 107491767.45006  26695408.489 6 106125367.78406
E05  22275787.983 8 117060116.40608  22275788.785 6  87415063.58506  22275787.325 6  89695447.80106  22275787.965 7  88555256.23907
E15  28320566.692 6 148825577.70706                                  28320568.325 5 114035194.25105
E34  24317979.648 7 127791887.61507  24317980.870 6  95429041.35706  24317979.690 7  97918487.46107  24317980.098 7  96673762.45007
E36  23931279.989 7 125759720.05207  23931282.828 6  93911484.27806  23931281.500 7  96361344.79407  23931281.987 7  95136414.07707
G10  25176755.502 6 132304744.78606  25176754.764 5  25176758.114 5 103094620.38305  25176757.880 6 103094609.40906  25176755.144 6  98798998.15106
G15  20701255.466 3
G18  20727084.709 8 108921592.86608  20727084.459 5  20727082.529 5  84873973.49605  20727082.995 6  84873937.50906  20727085.437 6  81337536.38106
G23  21499114.945 7 112978683.90307  21499114.664 5  21499114.413 5  88035335.51105  21499114.218 6  88035269.52806  21499115.832 6  84367148.40206
G24  20044508.910 4
G29  25306495.697 7 132986416.77507  25306495.219 5  25306510.037 5 103625668.53905  25306508.983 6 103625923.55706
I03  56952021.396 7 223491996.26007
I09  39851073.703 6 156384365.85306
R05  20514879.025 8 109663838.36008  20514881.108 7  85294131.46907  20514880.989 7  85294132.47807  20514865.628 7  82254911.37407
R06  23466006.676 4
R19  22649119.380 6 121157356.55206  22649130.521 7  94233470.51807  22649130.743 7  94233473.46707
R20  20218734.706 6 108118684.75206  20218738.576 7  84092340.51607  20218739.180 8  84092347.49708
R21  22412109.120 7 119931797.02807  22412110.957 6  93280246.60706  22412111.815 6  93280262.63106  22412095.530 6  89861844.74506
S27  40222161.662 6 211368910.50006  40222142.330 6 157840427.03706
S28  38009221.510 6 199739805.18206  38009187.834 7 149156258.20807
S32  37405640.980 7 196567994.13207  37405606.633 5 146787657.04405
S34  37510124.761 7 197117051.44807  37509985.824 6 147197272.55806
S42  36758425.727 6 193166851.55806  36758285.456 6 144247399.85806
S43  36756415.617 8 193156258.65608  36756404.115 7 144240046.05007
S44  38031800.790 6 199858485.12906  38031785.737 7 149244921.57807
> 2025 03 16 15 52 57.0000000  0 41
C02                                                                  37611756.106 6 195854282.71406  37611750.218 7 151446960.02107  37611753.955 7 159147662.68607
C03                                                                  36517591.683 7 190156699.15607  36517587.137 7 147041212.68707  36517589.483 8 154517891.74508
C05                                                                  39888831.201 6 207711661.05106  39888828.306 6 160615861.68706  39888831.009 6
C06                                                                  37557308.228 7 195571016.15307  37557304.992 7 151228032.42507  37557305.029 8 158917559.32808
C07                                                                  40684177.695 6 211853119.76206  40684188.292 6 163818195.88206  40684183.477 6 172147931.21506
C08                                                                  36313066.058 4 189091667.28804  36313056.821 4                  36313059.288 4
C09                                                                  38903867.424 5 202583011.02705  38903868.631 7 156650230.80707  38903866.480 7 164615436.97107
C10                                                                  40568527.795 6 211250790.50106  40568542.541 5 163352479.26405  40568537.183 6 171658539.36506
C13                                                                  36709735.183 7 191157238.89707  36709736.634 7 147814910.51707  36709735.627 7 155330920.72807
C20  24403263.177 7 128240012.54707  24403263.073 7  95763647.32607  24403263.843 7 127074379.81107                                  24403259.003 6 103258666.63806
C27  25473809.360 7 133865769.70807  25473827.449 6  99964767.55806  25473810.255 7 132648583.70007                                  25473823.236 7 107787791.84207
C29  24805668.833 6 130354663.75606                                  24805669.762 7 129169635.85607                                  24805668.824 7 104960903.22407
C30  23835018.892 7 125253866.54007  23835022.895 7  93533748.04107  23835019.158 7 124115175.56607                                  23835022.576 7 100853754.29107
C32                                                                  22616350.262 4 117769287.81604                                  22616350.034 5  95697203.30905
C40  41521966.114 5 218199407.30805  41521980.530 5 162941172.93005  41521966.061 6 216215817.95106                                  41521975.757 6
C60                                                                  38031768.633 6 198041402.07006                                  38031755.959 7 160924807.15207
E03  26695059.072 7 140283803.69707  26695062.684 5 104757590.50005  26695061.742 6 107490370.37006  26695061.491 6 106123988.46406
E05  22275742.681 8 117059878.03908  22275743.413 6  87414885.58206  22275742.044 6  89695265.16806  22275742.596 7  88555075.92107
E15  28320006.930 6 148822636.33706                                  28320008.612 5 114032940.50605
E34  24317735.179 7 127790603.10607  24317736.385 6  95428082.13606  24317735.258 7  97917503.22407  24317735.652 7  96672790.72007
E36  23931571.795 7 125761253.64907  23931574.704 6  93912629.48406  23931573.344 7  96362519.88307  23931573.828 7  95137574.22407
G10  25176192.182 6 132301784.14906  25176191.449 5  25176194.743 5 103092313.39505  25176194.171 6 103092302.41306  25176191.830 6  98796787.28806
G15  20701507.075 3
G18  20727089.009 8 108921615.11508  20727088.759 5  20727086.755 5  84873990.83305  20727087.062 6  84873954.84706  20727089.698 6  81337553.00506
G23  21498664.833 7 112976318.73207  21498664.556 5  21498664.326 5  88033492.52205  21498664.331 6  88033426.52406  21498665.721 6  84365382.18206
G24  20044310.254 5
G29  25306944.283 7 132988774.65307  25306943.801 5  25306958.746 5 103627505.85205  25306957.495 6 103627760.84906
I03  56951640.772 7 223490502.77507
I09  39850984.284 6 156384015.70606
R05  20514870.153 8 109663791.56108  20514872.416 8  85294095.06308  20514872.169 8  85294096.07208  20514856.921 7  82254876.26507
R06  23465602.303 4
R19  22649905.295 6 121161562.83706  22649917.049 7  94236741.99607  22649917.161 7  94236744.98807
R20  20218896.485 6 108119548.63106  20218900.145 8  84093012.40908  20218900.851 8  84093019.40808
R21  22411603.448 7 119929089.98307  22411605.167 6  93278141.10506  22411606.479 6  93278157.11706  22411589.695 6  89859816.43706
S27  40222130.195 6 211368745.93306  40222111.181 6 157840304.12706
S28  38009193.697 6 199739653.31006  38009159.014 7 149156144.77807
S32  37405612.617 7 196567846.85407  37405578.502 5 146787547.06205
S34  37510097.064 7 197116903.46807  37509957.638 6 147197162.05106
S42  36758396.916 6 193166701.51306  36758256.820 6 144247287.87606
S43  36756388.653 8 193156118.04008  36756377.351 7 144239941.04007
S44  38031772.864 6 199858341.34706  38031758.398 7 149244814.23807
> 2025 03 16 15 52 58.0000000  0 41
C02                                                                  37611722.975 6 195854110.88606  37611717.244 7 151446827.17107  37611721.004 7 159147523.08107
C03                                                                  36517566.624 7 190156568.53307  36517561.984 7 147041111.66907  36517564.424 8 154517785.59708
C05                                                                  39888797.932 6 207711487.34006  39888795.144 6 160615727.34806  39888797.620 7
C06                                                                  37557066.351 7 195569756.83107  37557063.176 7 151227058.63707  37557063.205 8 158916536.03308
C07                                                                  40684328.657 6 211853904.77806  40684339.045 6 163818802.90306  40684334.262 6 172148569.11906
C08                                                                  36312910.723 4 189090861.67404  36312901.727 4                  36312904.212 4
C09                                                                  38903624.862 5 202581747.04505  38903625.931 7 156649253.43407  38903623.777 7 164614409.89607
C10                                                                  40568728.721 6 211251836.45806  40568743.346 5 163353288.05105  40568737.980 6 171659389.25606
C13                                                                  36709567.097 7 191156363.84207  36709568.577 7 147814233.87007  36709567.566 7 155330209.67507
C20  24402930.820 7 128238266.19907  24402930.828 7  95762343.24007  24402931.506 7 127072649.34007                                  24402926.689 6 103257260.48706
C27  25474361.681 7 133868672.10807  25474379.718 6  99966934.91406  25474362.516 7 132651459.71007                                  25474375.642 7 107790128.81007
C29  24805553.486 7 130354057.30407                                  24805554.479 7 129169034.92707                                  24805553.430 7 104960414.91107
C30  23835371.937 7 125255721.53407  23835375.929 7  93535133.26507  23835372.199 7 124117013.70107                                  23835375.584 7 100855247.91507
C32                                                                  22616343.823 4 117769253.67504                                  22616343.733 5  95697175.53905
C40  41522150.875 5 218200379.14505  41522165.544 5 162941898.65105  41522150.877 5 216216780.99005                                  41522160.776 6
C60                                                                  38031741.436 6 198041259.69206                                  38031728.612 7 160924691.46507
E03  26694712.167 7 140281980.59007  26694715.756 5 104756229.04605  26694714.841 6 107488973.43306  26694714.583 6 106122609.27806
E05  22275697.418 8 117059639.91208  22275698.090 6  87414707.75506  22275696.718 6  89695082.69806  22275697.271 7  88554895.77207
E15  28319447.231 6 148819695.18206                                  28319448.888 5 114030686.88905
E34  24317490.785 7 127789319.07807  24317492.067 6  95427123.28306  24317490.979 7  97916519.36307  24317491.309 7  96671819.36407
E36  23931863.603 7 125762787.70907  23931866.593 6  93913775.05306  23931865.307 7  96363695.33107  23931865.771 7  95138734.73207
G10  25175628.895 6 132298823.44706  25175628.167 5  25175631.355 5 103090006.35005  25175630.508 6 103089995.34506  25175628.507 6  98794576.36106
G15  20701757.334 3
G18  20727093.424 8 108921638.11608  20727093.170 5  20727091.133 5  84874008.75605  20727091.565 6  84873972.76406  20727094.027 6  81337570.17906
G23  21498214.826 7 112973953.74207  21498214.549 5  21498214.266 5  88031649.67105  21498214.324 7  88031583.67507  21498215.680 6  84363616.13406
G24  20044110.457 5
G29  25307392.725 7 132991132.37807  25307392.234 5  25307407.420 5 103629343.04605  25307406.207 6 103629598.05906
I03  56951260.229 7 223489009.33507
I09  39850894.948 6 156383665.59906
R05  20514861.329 8 109663744.92508  20514863.633 7  85294058.79207  20514863.475 8  85294059.80108  20514848.209 7  82254841.29607
R06  23465200.076 4
R19  22650691.408 6 121165769.26706  22650703.634 7  94240013.63907  22650703.757 7  94240016.64607
R20  20219058.188 6 108120413.44106  20219061.906 8  84093685.04108  20219062.657 8  84093692.04608
R21  22411097.845 7 119926383.66407  22411099.373 6  93276036.18506  22411100.644 6  93276052.20506  22411083.763 6  89857788.66006
S27  40222099.761 7 211368581.47607  40222079.929 6 157840181.32806
S28  38009165.923 6 199739501.48906  38009130.119 7 149156031.39207
S32  37405584.709 7 196567699.62307  37405550.434 5 146787437.13105
S34  37510068.767 7 197116755.53007  37509929.512 6 147197051.58406
S42  36758367.475 6 193166551.51406  36758228.197 6 144247175.93906
S43  36756361.948 8 193155977.47908  36756350.634 7 144239836.07707
S44  38031745.346 6 199858197.68706  38031731.085 7 149244706.95007
> 2025 03 16 15 52 59.0000000  0 41
C02                                                                  37611689.921 5 195853938.96205  37611684.289 7 151446694.23407  37611687.994 7 159147383.38007
C03                                                                  36517541.574 7 190156437.77407  36517536.849 7 147041010.56107  36517539.311 7 154517679.36107
C05                                                                  39888764.547 6 207711313.50406  39888761.589 6 160615592.93206  39888764.212 6 168782486.79706
C06                                                                  37556824.588 7 195568497.51007  37556821.420 7 151226084.85707  37556821.362 8 158915512.73808
C07                                                                  40684479.737 6 211854689.54406  40684489.889 6 163819409.75806  40684485.067 6 172149206.81406
C08                                                                  36312756.255 4 189090056.07904  36312747.094 4                  36312748.850 4
C09                                                                  38903382.308 5 202580483.05105  38903383.297 7 156648276.03507  38903381.004 7 164613382.80307
C10                                                                  40568929.372 6 211252882.16406  40568944.190 5 163354096.64205  40568938.726 6 171660239.00006
C13                                                                  36709399.019 7 191155488.63807  36709400.717 7 147813557.11707  36709399.500 7 155329498.50107
C20  24402598.560 7 128236519.74707  24402598.417 7  95761039.07507  24402599.119 7 127070918.76207                                  24402594.403 5 103255854.24805
C27  25474913.898 7 133871574.28907  25474931.901 6  99969102.09806  25474914.817 7 132654335.50807                                  25474927.913 7 107792465.62307
C29  24805438.190 6 130353451.23506                                  24805439.129 7 129168434.37107                                  24805438.131 7 104959926.92107
C30  23835724.981 7 125257576.71707  23835729.001 7  93536518.62807  23835725.214 7 124118852.01707                                  23835728.616 7 100856741.70907
C32                                                                  22616337.728 5 117769219.49005                                  22616337.151 4  95697147.81804
C40  41522335.817 5 218201350.70505  41522350.271 5 162942624.20705  41522335.759 6 216217743.71106                                  41522345.740 5
C60                                                                  38031713.985 6 198041117.21006                                  38031701.290 7 160924575.68507
E03  26694365.086 7 140280157.51007  26694368.794 5 104754867.66905  26694367.879 6 107487576.55206  26694367.665 6 106121230.15006
E05  22275652.184 8 117059401.82408  22275652.774 6  87414529.96806  22275651.456 6  89694900.27506  22275651.969 7  88554715.66607
E15  28318887.624 6 148816754.00406                                  28318889.073 5 114028433.26005
E34  24317246.513 7 127788035.35107  24317247.734 6  95426164.65406  24317246.668 7  97915535.72307  24317247.016 7  96670848.22807
E36  23932155.531 7 125764322.04507  23932158.516 6  93914920.81706  23932157.326 7  96364870.98807  23932157.737 7  95139895.44407
G10  25175065.477 6 132295862.49406  25175064.749 5  25175067.903 5 103087699.11805  25175066.751 6 103087688.11906  25175065.071 6  98792365.26606
G15  20702007.580 3
G18  20727097.912 8 108921661.68008  20727097.658 5  20727095.618 5  84874027.11705  20727095.929 6  84873991.13006  20727098.637 6  81337587.76406
G23  21497764.805 7 112971588.76807  21497764.524 5  21497764.220 5  88029806.83905  21497764.179 6  88029740.84806  21497765.765 6  84361850.09906
G24  20043911.712 5
G29  25307841.100 7 132993489.78007  25307840.605 5  25307856.018 5 103631179.99305  25307855.031 6 103631435.01406
I03  56950879.620 7 223487515.80307
I09  39850805.905 6 156383315.39706
R05  20514852.485 8 109663698.26808  20514854.847 7  85294022.50707  20514854.603 7  85294023.52407  20514839.489 7  82254806.30007
R06  23464796.243 4
R19  22651477.785 6 121169975.69806  22651490.040 7  94243285.30207  22651489.985 7  94243288.30307
R20  20219220.370 6 108121279.00606  20219223.837 7  84094358.26307  20219224.296 7  84094365.26407
R21  22410592.346 7 119923677.94307  22410593.744 6  93273931.75506  22410595.089 6  93273947.75506  22410578.212 6  89855761.31506
S27  40222068.147 7 211368416.91507  40222048.592 6 157840058.47006
S28  38009137.046 6 199739349.53106  38009101.165 7 149155917.92407
S32  37405557.281 7 196567552.19107  37405522.477 5 146787327.01305
S34  37510039.630 7 197116607.46707  37509901.412 6 147196941.01606
S42  36758339.009 6 193166401.40506  36758199.659 6 144247063.90306
S43  36756335.154 8 193155836.79908  36756323.849 7 144239731.02007
S44  38031718.619 6 199858053.89106  38031703.638 7 149244599.56207
> 2025 03 16 15 53  0.0000000  0 41
C02                                                                  37611656.983 6 195853766.99306  37611651.176 7 151446561.25107  37611654.989 7 159147243.64007
C03                                                                  36517516.497 7 190156306.96607  36517511.799 7 147040909.42507  36517514.185 8 154517573.06208
C05                                                                  39888730.952 6 207711139.61306  39888727.998 6 160615458.48506  39888730.894 7 168782345.49507
C06                                                                  37556582.913 7 195567238.25707  37556579.612 7 151225111.12007  37556579.532 8 158914489.48308
C07                                                                  40684630.435 6 211855474.11606  40684640.498 6 163820016.42706  40684635.788 6 172149844.34306
C08                                                                  36312601.673 4 189089250.25904  36312593.928 4                  36312594.052 4
C09                                                                  38903139.668 5 202579219.08305  38903140.629 7 156647298.64807  38903138.243 7 164612355.70807
C10                                                                  40569130.396 6 211253927.69806  40569144.490 5 163354905.13505  40569139.451 6
C13                                                                  36709230.987 7 191154613.34507  36709232.615 7 147812880.27507  36709231.478 7 155328787.23607
C20  24402266.237 7 128234773.25507  24402266.091 7  95759734.87107  24402266.732 7 127069188.14807                                  24402262.138 6 103254447.98206
C27  25475466.147 7 133874476.31507  25475484.179 6  99971269.18706  25475467.208 7 132657211.16207                                  25475480.193 7 107794802.30607
C29  24805322.981 7 130352845.61607                                  24805323.940 7 129167834.26307                                  24805322.887 7 104959439.26907
C30  23836078.077 7 125259432.14707  23836082.073 7  93537904.16007  23836078.206 7 124120690.57707                                  23836081.689 7 100858235.67707
C32                                                                  22616331.390 5 117769185.33205                                  22616330.588 5  95697120.06405
C40  41522520.546 5 218202322.06205  41522534.872 5 162943349.55005  41522520.479 5 216218706.21405                                  41522530.398 6
C60                                                                  38031686.833 6 198040974.66806                                  38031673.861 7 160924459.84507
E03  26694018.072 7 140278334.52607  26694022.017 5 104753506.33805  26694020.899 6 107486179.73506  26694020.748 6 106119851.07806
E05  22275606.925 8 117059163.86408  22275607.570 6  87414352.27306  22275606.144 6  89694717.93206  22275606.685 7  88554535.64807
E15  28318327.867 6 148813812.87706                                  28318329.407 5 114026179.67305
E34  24317002.291 7 127786751.99407  24317003.508 6  95425206.29706  24317002.460 7  97914552.37507  24317002.807 7  96669877.37707
E36  23932447.512 7 125765856.72707  23932450.594 6  93916066.84906  23932449.403 7  96366046.91107  23932449.787 7  95141056.42007
G10  25174502.287 6 132292901.34906  25174501.563 5  25174504.398 5 103085391.73805  25174503.518 6 103085380.73106  25174501.675 6  98790154.01406
G15  20702254.261 3
G18  20727102.586 8 108921685.86908  20727102.332 5  20727100.229 5  84874045.96505  20727100.228 6  84874009.97206  20727103.152 6  81337605.83606
G23  21497314.888 7 112969223.87107  21497314.611 5  21497314.195 5  88027964.06405  21497314.269 6  88027898.07106  21497315.748 6  84360084.09206
G24  20043712.376 5
G29  25308289.364 6 132995846.92006  25308288.868 5  25308304.575 5 103633016.73305  25308303.686 6 103633271.72306
I03  56950498.961 7 223486022.23207
I09  39850716.571 6 156382965.13506
R05  20514843.766 8 109663651.66708  20514846.136 8  85293986.25308  20514845.953 8  85293987.26808  20514830.793 7  82254771.34007
R06  23464392.009 4
R19  22652264.448 6 121174182.20306  22652276.429 7  94246556.96807  22652276.284 7  94246559.97307
R20  20219382.075 6 108122145.38406  20219385.907 8  84095032.09308  20219386.268 8  84095039.09708
R21  22410086.883 7 119920972.87107  22410088.326 6  93271827.80906  22410089.580 6  93271843.81006  22410072.854 5  89853734.48205
S27  40222036.098 6 211368252.28406  40222017.344 6 157839935.55706
S28  38009108.754 6 199739197.51306  38009072.211 7 149155804.41807
S32  37405528.676 7 196567404.65107  37405494.476 5 146787216.83005
S34  37510010.940 7 197116459.33107  37509873.312 6 147196830.37306
S42  36758311.584 6 193166251.22406  36758171.068 6 144246951.81506
S43  36756308.248 8 193155696.06308  36756297.073 7 144239625.92907
S44  38031692.666 6 199857910.01006  38031676.321 7 149244492.13207
> 2025 03 16 15 53  1.0000000  0 41
C02                                                                  37611624.009 5 195853594.90105  37611618.037 7 151446428.18007  37611621.980 7 159147103.80107
C03                                                                  36517491.380 7 190156176.03907  36517486.628 7 147040808.18107  36517489.064 7 154517466.68607
C05                                                                  39888697.544 6 207710965.62306  39888694.537 6 160615323.92506  39888697.545 6 168782204.10706
C06                                                                  37556341.262 7 195565978.99307  37556337.749 7 151224137.38107  37556337.681 7 158913466.23707
C07                                                                  40684780.786 6 211856258.39406  40684791.114 6 163820622.89406  40684786.477 6 172150481.65006
C08                                                                  36312446.382 4 189088444.38204  36312438.758 4                  36312439.248 4
C09                                                                  38902896.324 5 202577955.07805  38902897.876 7 156646321.23207  38902895.414 6 164611328.61306
C10                                                                  40569331.344 6 211254973.00406  40569344.974 5 163355713.42705  40569340.154 5
C13                                                                  36709063.064 7 191153737.92107  36709064.550 7 147812203.33307  36709063.350 7 155328075.89507
C20  24401933.903 7 128233026.65507  24401933.702 7  95758430.59507  24401934.399 7 127067457.42407                                  24401929.740 5 103253041.62705
C27  25476018.329 7 133877378.16307  25476036.442 6  99973436.09906  25476019.361 7 132660086.60507                                  25476032.411 7 107797138.83407
C29  24805208.004 6 130352240.38006                                  24805208.697 7 129167234.53307                                  24805207.644 7 104958951.94907
C30  23836431.200 7 125261287.74907  23836435.157 7  93539289.84607  23836431.327 7 124122529.31907                                  23836434.809 7 100859729.80907
C32                                                                  22616324.882 5 117769151.12505                                  22616323.796 4  95697092.27504
C40  41522705.285 5 218203293.07905  41522719.600 5 162944074.70405  41522704.898 5 216219668.42205                                  41522715.291 5
C60                                                                  38031659.409 6 198040831.99406                                  38031646.415 7 160924343.93207
E03  26693671.160 7 140276511.58807  26693675.287 5 104752145.07905  26693674.043 6 107484782.92406  26693673.893 6 106118472.03806
E05  22275561.662 8 117058925.95208  22275562.371 6  87414174.60606  22275560.948 6  89694535.65406  22275561.401 7  88554355.67507
E15  28317768.096 6 148810871.75606                                  28317769.741 5 114023926.09505
E34  24316758.098 7 127785468.93607  24316759.235 6  95424248.17506  24316758.294 7  97913569.25307  24316758.656 7  96668906.75707
E36  23932739.574 7 125767391.69307  23932742.666 6  93917213.09006  23932741.516 7  96367223.04307  23932741.883 7  95142217.60607
G10  25173938.917 6 132289939.96006  25173938.190 5  25173940.867 5 103083084.16305  25173940.007 6 103083073.16306  25173938.059 6  98787942.60706
G15  20702503.536 3
G18  20727107.281 8 108921710.62608  20727107.027 5  20727104.959 5  84874065.25505  20727104.993 6  84874029.25906  20727107.825 6  81337624.32806
G23  21496864.897 7 112966858.98607  21496864.616 5  21496864.176 5  88026121.29405  21496864.142 6  88026055.30406  21496865.743 6  84358318.09906
G24  20043513.550 5
G29  25308737.675 6 132998203.72106  25308737.180 5  25308753.044 5 103634853.20705  25308752.003 6 103635108.22606
I03  56950118.244 7 223484528.58207
I09  39850627.101 6 156382614.77806
R05  20514834.917 8 109663605.06808  20514837.403 7  85293950.03907  20514837.218 7  85293951.04707  20514822.148 7  82254736.39507
R06  23463988.042 4
R19  22653051.103 6 121178388.67306  22653062.585 6  94249828.67606  22653062.407 7  94249831.67507
R20  20219544.311 6 108123012.51906  20219548.088 7  84095706.53707  20219548.373 7  84095713.55107
R21  22409581.504 7 119918268.38807  22409582.952 5  93269724.31805  22409584.173 6  93269740.32606  22409567.269 6  89851708.06106
S27  40222004.721 6 211368087.60506  40221985.993 6 157839812.59306
S28  38009078.865 6 199739045.27606  38009043.266 7 149155690.75407
S32  37405500.249 7 196567257.02107  37405466.282 5 146787106.58005
S34  37509982.380 7 197116311.07307  37509845.092 6 147196719.66606
S42  36758283.284 6 193166100.92806  36758142.409 6 144246839.64506
S43  36756281.437 8 193155555.19708  36756270.288 7 144239520.73507
S44  38031665.143 6 199857766.04806  38031648.910 7 149244384.62807
> 2025 03 16 15 53  2.0000000  0 41
C02                                                                  37611591.273 6 195853422.74206  37611584.965 7 151446295.05907  37611588.872 7 159146963.90407
C03                                                                  36517466.222 7 190156045.06407  36517461.422 7 147040706.90107  36517463.938 7 154517360.24407
C05                                                                  39888664.110 6 207710791.56006  39888661.102 6 160615189.34506  39888664.039 6 168782062.67206
C06                                                                  37556099.528 7 195564719.79307  37556095.895 7 151223163.69307  37556095.846 7 158912443.03007
C07                                                                  40684931.283 6 211857042.49406  40684941.737 6 163821229.20106  40684937.014 6 172151118.78806
C08                                                                  36312291.991 4 189087638.39904  36312284.308 3                  36312285.107 4
C09                                                                  38902653.342 5 202576691.09005  38902655.187 7 156645343.85507  38902652.703 7 164610301.52707
C10                                                                  40569532.004 6 211256018.14506  40569546.061 5 163356521.61805  40569540.818 6
C13                                                                  36708894.875 7 191152862.41607  36708896.475 7 147811526.35307  36708895.236 7 155327364.47107
C20  24401601.637 7 128231280.02707  24401601.338 7  95757126.30307  24401602.058 7 127065726.67707                                  24401597.349 5 103251635.24805
C27  25476570.477 7 133880279.87107  25476588.712 6  99975602.92806  25476571.600 7 132662961.94007                                  25476584.491 7 107799475.24107
C29  24805093.047 7 130351635.59907                                  24805093.599 7 129166635.24007                                  24805092.544 7 104958464.97207
C30  23836784.358 7 125263143.62407  23836788.379 7  93540675.71707  23836784.626 7 124124368.32107                                  23836788.002 7 100861224.13507
C32                                                                  22616318.772 5 117769116.97605                                  22616317.674 4  95697064.55204
C40  41522890.106 5 218204263.92505  41522904.507 5 162944799.69605  41522889.668 5 216220630.43405                                  41522899.963 5
C60                                                                  38031631.975 6 198040689.29306                                  38031619.017 7 160924227.95507
E03  26693324.237 7 140274688.75307  26693328.092 5 104750783.89505  26693327.233 6 107483386.21706  26693327.025 6 106117093.08906
E05  22275516.445 8 117058688.16408  22275517.087 6  87413997.04106  22275515.686 6  89694353.44306  22275516.148 7  88554175.78707
E15  28317208.501 6 148807930.71306                                  28317210.144 5 114021672.56905
E34  24316513.955 7 127784186.26107  24316515.223 6  95423290.33506  24316514.239 7  97912586.42207  24316514.568 7  96667936.41907
E36  23933031.840 7 125768926.99307  23933034.852 6  93918359.57706  23933033.671 7  96368399.46407  23933034.041 7  95143379.06307
G10  25173375.482 6 132286978.40006  25173374.758 5  25173377.303 5 103080776.45605  25173376.316 6 103080765.44706  25173374.382 6  98785731.06506
G15  20702753.916 3
G18  20727112.101 8 108921736.01908  20727111.847 5  20727109.788 5  84874085.04005  20727109.769 6  84874049.05406  20727112.594 6  81337643.28006
G23  21496414.900 7 112964494.18607  21496414.623 5  21496414.183 5  88024278.59405  21496414.132 6  88024212.60706  21496415.686 6  84356552.16406
G24  20043315.032 4
G29  25309185.785 6 133000560.27106  25309185.285 5  25309201.475 5 103636689.48905  25309200.557 5 103636944.48405
I03  56949737.501 7 223483034.90307
I09  39850537.512 6 156382264.41306
R05  20514826.299 8 109663558.53208  20514828.755 7  85293913.81807  20514828.657 7  85293914.82907  20514813.468 6  82254701.48706
R06  23463584.885 4
R19  22653838.003 6 121182595.20806  22653848.736 7  94253100.38007  22653848.599 7  94253103.37307
R20  20219706.691 6 108123880.47206  20219710.327 8  84096381.59508  20219710.830 7  84096388.59407
R21  22409076.189 7 119915564.51607  22409077.520 6  93267621.32606  22409078.750 6  93267637.32506  22409061.987 6  89849682.15706
S27  40221972.874 6 211367922.82506  40221954.683 6 157839689.58506
S28  38009049.375 6 199738893.00206  38009014.236 7 149155577.06107
S32  37405472.575 7 196567109.34607  37405438.129 5 146786996.30305
S34  37509955.023 7 197116162.76207  37509816.795 6 147196608.89206
S42  36758254.500 6 193165950.59406  36758113.844 6 144246727.43706
S43  36756254.540 8 193155414.29108  36756243.490 7 144239415.51707
S44  38031636.609 6 199857622.06106  38031621.535 7 149244277.09007
> 2025 03 16 15 53  3.0000000  0 41
C02                                                                  37611558.058 5 195853250.30905  37611551.803 7 151446161.70907  37611555.728 7 159146823.79007
C03                                                                  36517441.034 7 190155913.78107  36517436.175 7 147040605.37807  36517438.740 8 154517253.57108
C05                                                                  39888630.801 6 207710617.20006  39888627.637 6 160615054.51106  39888630.529 6 168781920.98006
C06                                                                  37555857.651 7 195563460.41107  37555854.004 7 151222189.85407  37555854.024 8 158911419.67708
C07                                                                  40685081.852 6 211857826.14906  40685092.199 6 163821835.18206  40685087.364 6 172151755.57406
C08                                                                                                  36312128.691 4                  36312130.425 4
C09                                                                  38902410.461 5 202575426.92105  38902412.374 7 156644366.30207  38902409.921 7 164609274.28707
C10                                                                  40569732.720 6 211257062.83706  40569746.597 5 163357329.41305  40569741.495 6
C13                                                                  36708726.796 7 191151986.57507  36708728.268 7 147810849.08907  36708727.021 7 155326652.77607
C20  24401269.258 7 128229533.10607  24401268.956 7  95755821.77707  24401269.634 7 127063995.63507                                  24401264.877 6 103250228.63506
C27  25477122.628 7 133883181.19407  25477140.929 6  99977769.48206  25477123.794 7 132665836.87607                                  25477136.559 7 107801811.35507
C29  24804978.144 7 130351031.01307                                  24804978.455 7 129166036.16407                                  24804977.433 7 104957978.16107
C30  23837137.590 7 125264999.48907  23837141.559 7  93542061.58707  23837138.038 7 124126207.31507                                  23837141.217 7 100862718.47307
C32                                                                  22616312.291 5 117769082.61505                                  22616310.759 5  95697036.59405
C40  41523074.646 5 218205234.24605  41523089.516 5 162945524.32105  41523074.554 5 216221591.96705                                  41523084.518 6
C60                                                                  38031604.542 6 198040546.26206                                  38031591.579 7 160924111.75107
E03  26692977.336 7 140272865.76807  26692981.091 5 104749422.55005  26692980.398 6 107481989.38606  26692980.107 6 106115714.00606
E05  22275471.118 8 117058450.23908  22275471.773 6  87413819.36106  22275470.383 6  89694171.13006  22275470.869 7  88553995.79007
E15  28316648.787 6 148804989.45106                                  28316650.581 5 114019418.88005
E34  24316269.841 7 127782903.69607  24316271.168 6  95422332.57806  24316270.204 7  97911603.67707  24316270.516 7  96666966.16807
E36  23933324.064 7 125770462.40407  23933327.141 6  93919506.16006  23933325.841 7  96369575.93307  23933326.230 7  95144540.58607
G10  25172811.839 6 132284016.40106  25172811.116 5  25172813.665 5 103078468.40505  25172812.525 6 103078457.40306  25172810.712 6  98783519.16806
G15  20703003.106 3
G18  20727117.025 8 108921761.79108  20727116.775 5  20727114.694 5  84874105.12005  20727114.595 6  84874069.13106  20727117.500 6  81337662.51706
G23  21495964.951 7 112962129.20807  21495964.670 5  21495964.168 5  88022435.75705  21495964.210 6  88022369.75206  21495965.624 6  84354786.12606
G24  20043116.563 4
G29  25309633.859 6 133002916.31106  25309633.360 5  25309649.845 5 103638525.36405  25309649.047 5 103638780.38705
I03  56949356.786 7 223481540.98307
I09  39850447.903 6 156381913.79806
R05  20514817.572 8 109663511.76808  20514819.967 7  85293877.44507  20514819.878 8  85293878.45708  20514804.698 7  82254666.40007
R06  23463181.004 4
R19  22654624.438 6 121186801.54606  22654634.982 7  94256371.93907  22654635.023 7  94256374.93707
R20  20219868.965 6 108124748.97306  20219872.808 8  84097057.11408  20219873.287 8  84097064.10708
R21  22408571.187 7 119912861.01707  22408572.348 6  93265518.57706  22408573.083 6  93265534.59906  22408556.898 5  89847656.46005
S27  40221942.892 6 211367757.73506  40221923.319 6 157839566.30106
S28  38009020.542 6 199738740.44606  38008985.242 7 149155463.15907
S32  37405444.104 7 196566961.30907  37405409.863 5 146786885.73005
S34  37509926.686 7 197116014.14107  37509788.409 6 147196497.91106
S42  36758227.178 6 193165799.92106  36758085.123 6 144246614.97206
S43  36756228.019 8 193155273.07008  36756216.575 7 144239310.06507
S44  38031608.729 6 199857477.75006  38031594.124 7 149244169.30507
> 2025 03 16 15 53  4.0000000  0 41
C02                                                                  37611524.963 6 195853077.99206  37611518.740 7 151446028.46607  37611522.593 7 159146683.76507
C03                                                                  36517415.845 7 190155782.63407  36517411.098 7 147040503.97007  36517413.547 7 154517147.00207
C05                                                                  39888597.215 6 207710442.96706  39888594.117 6 160614919.77606  39888597.009 6 168781779.41706
C06                                                                  37555615.967 7 195562201.25907  37555612.184 7 151221216.20807  37555612.188 8 158910396.52408
C07                                                                  40685232.465 6 211858609.78906  40685242.803 6 163822441.14006  40685237.864 6 172152392.34006
C08                                                                  36311983.207 4 189086026.02704  36311973.445 4                  36311976.360 4
C09                                                                  38902167.636 5 202574162.92805  38902169.509 7 156643388.92307  38902167.262 7 164608247.19807
C10                                                                  40569933.514 6 211258107.55906  40569947.058 5 163358137.29005  40569942.195 6
C13                                                                  36708558.605 7 191151110.85807  36708559.954 7 147810171.93307  36708558.842 7 155325941.19207
C20  24400936.892 7 128227786.33307  24400936.570 7  95754517.37307  24400937.184 7 127062264.75307                                  24400932.472 6 103248822.16706
C27  25477674.726 7 133886082.54907  25477693.069 6  99979936.06106  25477675.930 7 132668711.87107                                  25477688.691 7 107804147.49807
C29  24804863.260 7 130350427.06907                                  24804863.445 7 129165437.70207                                  24804862.545 7 104957491.86307
C30  23837490.670 7 125266855.78407  23837494.829 7  93543447.78107  23837491.363 7 124128046.73507                                  23837494.438 7 100864213.14507
C32                                                                  22616305.028 5 117769048.41305                                  22616304.174 5  95697008.83005
C40  41523259.210 5 218206204.56405  41523274.190 5 162946248.91105  41523259.387 5 216222553.46405                                  41523269.230 6
C60                                                                  38031576.952 6 198040403.39806                                  38031564.137 7 160923995.65107
E03  26692630.507 7 140271043.07807  26692634.426 5 104748061.46505  26692633.529 6 107480592.78806  26692633.257 6 106114335.16106
E05  22275425.880 8 117058212.62608  22275426.634 6  87413641.92306  22275425.129 6  89693989.07106  22275425.646 7  88553816.04207
E15  28316088.989 6 148802048.47806                                  28316091.068 5 114017165.40605
E34  24316025.851 7 127781621.68507  24316027.167 6  95421375.23706  24316026.260 7  97910621.36807  24316026.543 7  96665996.34207
E36  23933616.412 7 125771998.34307  23933619.415 6  93920653.11906  23933618.076 7  96370752.82207  23933618.509 7  95145702.51107
G10  25172248.120 6 132281054.41906  25172247.396 5  25172250.016 5 103076160.36405  25172248.873 6 103076149.36806  25172247.081 6  98781307.28306
G15  20703254.049 3
G18  20727122.114 8 108921788.38608  20727121.864 5  20727119.756 5  84874125.84405  20727119.729 6  84874089.85606  20727122.532 6  81337682.37606
G23  21495514.927 7 112959764.50607  21495514.650 5  21495514.211 5  88020593.13705  21495514.063 6  88020527.12906  21495515.652 6  84353020.28006
G24  20042917.929 5
G29  25310082.140 6 133005272.27506  25310081.645 5  25310098.174 5 103640361.18405  25310097.361 5 103640616.22405
I03  56948976.222 7 223480047.17007
I09  39850358.937 6 156381563.28506
R05  20514809.039 8 109663465.21408  20514811.293 7  85293841.24607  20514811.165 8  85293842.25308  20514795.981 6  82254631.48006
R06  23462776.233 4
R19  22655410.768 6 121191008.13406  22655421.468 7  94259643.70207  22655421.396 7  94259646.70507
R20  20220031.668 6 108125618.48606  20220035.495 8  84097733.39608  20220035.897 8  84097740.40408
R21  22408066.456 7 119910158.35807  22408067.439 6  93263416.51606  22408067.903 6  93263432.51806  22408051.744 6  89845631.44606
S27  40221911.465 6 211367592.67906  40221891.763 6 157839443.02606
S28  38008992.501 6 199738587.97906  38008956.226 7 149155349.34407
S32  37405415.503 7 196566813.47307  37405381.684 5 146786775.34005
S34  37509898.036 7 197115865.65107  37509760.086 6 147196387.02406
S42  36758198.211 6 193165649.37006  36758056.451 6 144246502.58806
S43  36756201.506 8 193155131.99208  36756189.710 7 144239204.70607
S44  38031581.269 6 199857333.52406  38031566.664 7 149244061.63507
> 2025 03 16 15 53  5.0000000  0 41
C02                                                                  37611491.900 6 195852905.84906  37611485.686 7 151445895.36107  37611489.454 7 159146543.89807
C03                                                                  36517390.679 7 190155651.66307  36517385.972 7 147040402.69807  36517388.417 7 154517040.59607
C05                                                                  39888563.722 6 207710268.91406  39888560.679 6 160614785.19306  39888563.629 6 168781638.00006
C06                                                                  37555374.213 7 195560942.41007  37555370.396 7 151220242.78507  37555370.426 7 158909373.61607
C07                                                                  40685382.828 6 211859393.41606  40685393.292 6 163823047.10506  40685388.478 6 172153029.13106
C08                                                                  36311828.386 4 189085220.14504  36311818.119 3                  36311821.234 4
C09                                                                  38901925.117 5 202572899.26205  38901926.747 7 156642411.74507  38901924.656 6 164607220.34406
C10                                                                  40570134.413 6 211259152.35406  40570147.527 5 163358945.17005  40570142.898 6
C13                                                                  36708390.501 7 191150235.29507  36708391.783 7 147809494.89007  36708390.778 7 155325229.73607
C20  24400604.546 7 128226039.76307  24400604.135 7  95753213.12407  24400604.949 7 127060534.06207                                  24400600.223 5 103247415.83605
C27  25478226.847 7 133888984.01507  25478245.245 6  99982102.71106  25478228.070 7 132671586.95207                                  25478240.770 7 107806483.73207
C29  24804748.533 7 130349823.80507                                  24804748.588 7 129164839.92407                                  24804747.723 7 104957006.13607
C30  23837844.047 7 125268712.56607  23837848.117 7  93544834.33007  23837844.653 7 124129886.63607                                  23837847.780 7 100865708.23207
C32                                                                  22616297.963 5 117769014.54105                                  22616297.521 4  95696981.29304
C40  41523443.865 5 218207174.89205  41523458.950 5 162946973.52705  41523443.935 5 216223514.95305                                  41523453.828 5
C60                                                                  38031549.644 6 198040260.68706                                  38031536.717 7 160923879.70607
E03  26692283.631 7 140269220.72507  26692287.350 5 104746700.62805  26692286.739 6 107479196.43306  26692286.465 6 106112956.56706
E05  22275380.718 8 117057975.36208  22275381.529 6  87413464.74706  22275379.928 6  89693807.27306  22275380.511 7  88553636.55407
E15  28315529.302 6 148799107.77106                                  28315531.472 5 114014912.13205
E34  24315782.048 7 127780340.29307  24315783.396 6  95420418.35506  24315782.426 7  97909639.51207  24315782.711 7  96665026.97307
E36  23933908.804 7 125773534.86407  23933911.810 6  93921800.52006  23933910.497 7  96371930.15607  23933910.886 7  95146864.87807
G10  25171684.262 6 132278092.49806  25171683.538 5  25171686.386 5 103073852.37505  25171685.526 6 103073841.37906  25171683.515 6  98779095.45706
G15  20703505.023 3
G18  20727127.304 8 108921815.83908  20727127.054 5  20727124.978 5  84874147.23705  20727124.944 6  84874111.24806  20727127.905 6  81337702.88106
G23  21495065.083 7 112957400.10607  21495064.802 5  21495064.299 5  88018750.74805  21495063.812 6  88018684.73806  21495065.807 6  84351254.66506
G24  20042719.170 5
G29  25310530.268 6 133007628.21806  25310529.777 5  25310546.481 5 103642196.98705  25310545.513 5 103642452.01505
I03  56948595.617 7 223478553.49707
I09  39850270.160 6 156381212.90806
R05  20514800.389 8 109663418.90908  20514802.694 7  85293805.24507  20514802.549 7  85293806.24907  20514787.332 6  82254596.75006
R06  23462372.508 4
R19  22656197.343 6 121195215.02306  22656208.013 6  94262915.72306  22656207.858 7  94262918.72707
R20  20220193.765 6 108126489.05406  20220198.333 7  84098410.52607  20220198.675 7  84098417.53207
R21  22407561.468 7 119907456.58307  22407562.351 5  93261315.14305  22407562.746 6  93261331.15706  22407546.857 6  89843607.04606
S27  40221879.480 6 211367427.75606  40221860.323 6 157839319.84506
S28  38008961.521 6 199738435.57006  38008927.174 7 149155235.55307
S32  37405387.305 7 196566665.93507  37405353.598 5 146786665.20705
S34  37509869.834 7 197115717.33907  37509731.893 6 147196276.26306
S42  36758170.210 6 193165498.97506  36758027.752 6 144246390.32206
S43  36756174.632 8 193154991.08508  36756162.889 7 144239099.48307
S44  38031552.127 6 199857189.51406  38031539.199 7 149243954.09807
> 2025 03 16 15 53  6.0000000  0 41
C02                                                                  37611458.989 6 195852733.87606  37611452.667 7 151445762.36907  37611456.440 7 159146404.12807
C03                                                                  36517365.566 7 190155520.82807  36517360.895 7 147040301.53107  36517363.291 7 154516934.25707
C05                                                                  39888529.935 6 207710094.99206  39888527.338 6 160614650.70906  39888530.239 6 168781496.64506
C06                                                                  37555132.569 7 195559683.82907  37555128.684 7 151219269.57307  37555128.729 8 158908350.89908
C07                                                                  40685533.325 6 211860177.09206  40685543.941 6 163823653.09606  40685538.944 6 172153665.91606
C08                                                                  36311673.030 4 189084414.20304  36311662.918 3                  36311666.257 4
C09                                                                  38901682.368 5 202571635.77905  38901684.121 7 156641434.76307  38901682.079 7 164606193.66807
C10                                                                  40570335.066 6 211260197.15906  40570348.113 5 163359753.08705  40570343.576 6
C13                                                                  36708222.435 7 191149359.86007  36708223.728 7 147808817.94807  36708222.638 7 155324518.36507
C20  24400272.184 7 128224293.34807  24400271.797 7  95751908.97507  24400272.674 7 127058803.52107                                  24400267.902 5 103246009.62005
C27  25478778.959 7 133891885.52407  25478797.447 6  99984269.40806  25478780.242 7 132674462.08407                                  25478792.847 7 107808819.98007
C29  24804633.846 7 130349221.18807                                  24804633.933 7 129164242.78507                                  24804633.073 7 104956520.89907
C30  23838197.393 7 125270569.78907  23838201.536 7  93546221.22007  23838198.036 7 124131726.97607                                  23838201.163 7 100867203.63607
C32                                                                  22616291.176 5 117768980.87405                                  22616290.955 4  95696953.94904
C40  41523628.481 5 218208145.20705  41523643.479 5 162947698.11005  41523628.631 5 216224476.43105                                  41523638.472 6
C60                                                                  38031522.072 6 198040118.12806                                  38031509.369 7 160923763.85707
E03  26691936.802 7 140267398.65807  26691940.732 5 104745339.97905  26691940.011 6 107477800.31406  26691939.744 6 106111578.18806
E05  22275335.610 8 117057738.40808  22275336.416 6  87413287.81006  22275334.863 6  89693625.69706  22275335.419 7  88553457.29807
E15  28314969.718 6 148796167.32306                                  28314971.855 5 114012659.08305
E34  24315538.322 7 127779059.45107  24315539.741 6  95419461.88006  24315538.675 7  97908658.09307  24315538.959 7  96664058.02807
E36  23934201.343 7 125775071.92307  23934204.300 6  93922948.31606  23934202.990 7  96373107.89907  23934203.389 7  95148027.64807
G10  25171120.511 6 132275130.56106  25171119.787 5  25171122.743 5 103071544.37205  25171121.852 6 103071533.36306  25171119.809 6  98776883.64606
G15  20703757.053 3
G18  20727132.611 8 108921844.12408  20727132.357 5  20727130.344 5  84874169.27505  20727130.555 6  84874133.27506  20727133.386 6  81337724.00706
G23  21494615.166 7 112955035.98607  21494614.885 5  21494614.426 5  88016908.57505  21494614.047 6  88016842.56506  21494615.850 6  84349489.25106
G24  20042521.748 5
G29  25310978.737 6 133009984.09906  25310978.250 5  25310994.793 5 103644032.74405  25310993.863 5 103644287.74905
I03  56948214.955 7 223477059.93007
I09  39850181.211 6 156380862.60706
R05  20514791.742 8 109663372.80808  20514794.194 7  85293769.36407  20514794.006 8  85293770.37608  20514778.725 6  82254562.17206
R06  23461969.646 4
R19  22656983.733 6 121199422.15106  22656994.652 7  94266187.89207  22656994.730 7  94266190.88907
R20  20220357.170 6 108127360.64506  20220361.364 8  84099088.40308  20220361.679 8  84099095.41508
R21  22407056.727 7 119904755.65907  22407057.594 6  93259214.37506  22407058.232 6  93259230.42406  22407042.194 6  89841583.31806
S27  40221848.326 6 211367262.92106  40221828.937 6 157839196.69806
S28  38008932.921 6 199738283.32306  38008898.238 7 149155121.86907
S32  37405359.867 7 196566518.46507  37405325.704 5 146786555.12905
S34  37509841.891 7 197115569.18807  37509703.538 6 147196165.63806
S42  36758141.198 6 193165348.71706  36757999.129 6 144246278.15306
S43  36756147.538 8 193154850.32208  36756136.108 7 144238994.37007
S44  38031526.473 6 199857045.63506  38031511.877 7 149243846.66107
> 2025 03 16 15 53  7.0000000  0 41
C02                                                                  37611426.087 6 195852561.94306  37611419.640 7 151445629.41307  37611423.364 7 159146264.42607
C03                                                                  36517340.431 7 190155390.05307  36517335.876 7 147040200.40407  36517338.173 7 154516828.00407
C05                                                                  39888496.514 6 207709921.12406  39888494.212 6 160614516.27006  39888496.832 6 168781355.37006
C06                                                                  37554890.945 7 195558425.40507  37554887.023 7 151218296.48307  37554887.047 8 158907328.33308
C07                                                                  40685683.873 6 211860960.66606  40685694.412 6 163824259.01906  40685689.371 6 172154302.65406
C08                                                                                                  36311507.940 3                  36311511.718 4
C09                                                                  38901440.064 5 202570372.46305  38901441.428 7 156640457.88707  38901439.527 7 164605167.11807
C10                                                                  40570535.799 6 211261241.89506  40570548.792 5 163360560.96105  40570544.379 6
C13                                                                  36708054.373 7 191148484.44107  36708055.548 7 147808141.01907  36708054.546 7 155323807.01707
C20  24399939.839 7 128222547.01407  24399939.399 7  95750604.89707  24399940.320 7 127057073.05807                                  24399935.472 5 103244603.49805
C27  25479331.096 7 133894787.02307  25479349.564 6  99986436.07806  25479332.293 7 132677337.19707                                  25479344.950 7 107811156.23607
C29  24804519.261 7 130348619.13507                                  24804519.223 7 129163646.19907                                  24804518.466 7 104956036.12707
C30  23838550.894 7 125272427.38907  23838555.066 7  93547608.37207  23838551.569 7 124133567.68207                                  23838554.632 7 100868699.35907
C32                                                                  22616284.637 5 117768947.32205                                  22616284.638 4  95696926.64904
C40  41523813.109 5 218209115.35705  41523828.126 5 162948422.58905  41523813.251 5 216225437.77705                                  41523823.201 5
C60                                                                  38031494.294 6 198039975.63806                                  38031481.989 7 160923648.06307
E03  26691590.093 7 140265576.82107  26691594.039 5 104743979.53105  26691593.164 6 107476404.37206  26691593.064 6 106110199.99106
E05  22275290.623 8 117057501.68808  22275291.450 6  87413111.03306  22275289.776 6  89693444.32906  22275290.376 7  88553278.22707
E15  28314410.214 6 148793227.05406                                  28314412.366 5 114010406.12505
E34  24315294.722 7 127777779.09207  24315296.162 6  95418505.76706  24315295.005 7  97907677.04007  24315295.322 7  96663089.44507
E36  23934494.101 7 125776609.45207  23934496.839 6  93924096.47506  23934495.571 7  96374285.99607  23934495.975 7  95149190.77607
G10  25170556.744 6 132272168.58706  25170556.028 5  25170559.104 5 103069236.34005  25170558.225 6 103069225.33406  25170556.147 6  98774671.75606
G15  20704008.926 3
G18  20727138.127 8 108921873.15208  20727137.873 5  20727135.885 5  84874191.89605  20727136.229 6  84874155.90006  20727138.912 6  81337745.68106
G23  21494165.333 7 112952672.05007  21494165.052 5  21494164.572 5  88015066.54705  21494164.353 6  88015000.55006  21494166.011 6  84347723.97206
G24  20042323.883 5
G29  25311427.015 6 133012339.81806  25311426.533 5  25311443.064 5 103645868.37205  25311442.162 5 103646123.39005
I03  56947834.332 7 223475566.40907
I09  39850091.965 6 156380512.37306
R05  20514783.167 8 109663326.83908  20514785.532 7  85293733.62007  20514785.260 7  85293734.62807  20514770.104 6  82254527.69506
R06  23461566.735 4
R19  22657770.290 6 121203629.46806  22657781.416 7  94269460.22607  22657781.570 7  94269463.23207
R20  20220520.194 6 108128233.17906  20220524.529 7  84099767.03207  20220524.900 8  84099774.03608
R21  22406552.041 7 119902055.46607  22406552.945 6  93257114.26706  22406553.403 6  93257130.27506  22406537.585 5  89839560.12805
S27  40221816.519 6 211367098.15906  40221797.555 6 157839073.62706
S28  38008904.486 6 199738131.18506  38008869.347 7 149155008.30207
S32  37405332.394 7 196566370.95207  37405297.653 5 146786444.98205
S34  37509814.489 7 197115421.10507  37509675.421 6 147196055.06406
S42  36758111.090 6 193165198.48306  36757970.497 6 144246166.00606
S43  36756121.075 8 193154709.61508  36756109.346 7 144238889.29307
S44  38031499.362 6 199856901.80706  38031484.520 7 149243739.27107
> 2025 03 16 15 53  8.0000000  0 41
C02                                                                  37611393.175 6 195852389.87006  37611386.617 7 151445496.37507  37611390.381 7 159146124.62407
C03                                                                  36517315.350 7 190155259.15107  36517310.629 7 147040099.17507  36517313.025 7 154516721.63707
C05                                                                  39888463.057 6 207709747.13506  39888460.917 6 160614381.72706  39888463.366 6 168781213.99106
C06                                                                  37554649.330 7 195557166.97707  37554645.345 7 151217323.38607  37554645.411 7 158906305.76207
C07                                                                  40685834.381 6 211861743.98106  40685844.869 6 163824864.72606  40685839.750 6 172154939.16106
C08                                                                  36311362.700 4 189082802.60204  36311353.634 4                  36311357.058 4
C09                                                                  38901197.362 5 202569109.04505  38901198.773 7 156639480.97607  38901196.938 6 164604140.53706
C10                                                                  40570736.083 6 211262286.37206  40570749.476 5 163361368.62305  40570744.911 6
C13                                                                  36707886.249 7 191147608.86107  36707887.243 7 147807463.96307  36707886.314 7 155323095.52907
C20  24399607.487 7 128220800.55907  24399607.049 7  95749300.74207  24399608.112 7 127055342.48507                                  24399603.098 5 103243197.27805
C27  25479883.244 7 133897688.29707  25479901.702 6  99988602.59706  25479884.489 7 132680212.09807                                  25479897.006 7 107813492.31707
C29  24804404.730 7 130348017.45307                                  24804404.756 7 129163049.98607                                  24804403.967 7 104955551.65707
C30  23838904.493 7 125274285.14507  23838908.560 7  93548995.66207  23838904.977 7 124135408.55107                                  23838908.173 7 100870195.22207
C32                                                                  22616277.917 4 117768913.70504                                  22616277.982 4  95696899.41704
C40  41523997.661 5 218210085.21205  41524012.783 5 162949146.89405  41523997.716 5 216226398.83205                                  41524007.667 5
C60                                                                  38031467.017 6 198039832.99206                                  38031454.587 7 160923532.16907
E03  26691243.426 7 140263754.99307  26691247.360 5 104742619.08305  26691246.467 6 107475008.43006  26691246.406 6 106108821.79506
E05  22275245.596 8 117057265.01208  22275246.403 6  87412934.29906  22275244.697 6  89693262.97906  22275245.347 7  88553099.18507
E15  28313850.920 6 148790286.78806                                  28313852.799 5 114008153.19205
E34  24315051.179 7 127776499.03807  24315052.589 6  95417549.87506  24315051.405 7  97906696.22007  24315051.740 7  96662121.08807
E36  23934786.756 7 125778147.24507  23934789.479 6  93925244.82406  23934788.178 7  96375464.30507  23934788.602 7  95150354.10507
G10  25169993.141 6 132269206.35006  25169992.431 5  25169995.388 5 103066928.09805  25169995.044 6 103066917.12206  25169992.572 6  98772459.69006
G15  20704261.031 3
G18  20727143.704 8 108921902.73608  20727143.450 5  20727141.528 5  84874214.94505  20727141.697 6  84874178.94206  20727144.493 6  81337767.76406
G23  21493715.540 7 112950308.12107  21493715.259 5  21493714.709 5  88013224.52805  21493714.399 6  88013158.52906  21493716.192 6  84345958.71006
G24  20042125.710 4
G29  25311874.961 6 133014695.20306  25311874.483 5  25311891.272 5 103647703.74605  25311890.473 5 103647958.77505
I03  56947453.751 7 223474072.79907
I09  39850002.617 6 156380162.01806
R05  20514774.515 8 109663280.84708  20514776.929 7  85293697.85407  20514776.650 7  85293698.86407  20514761.507 6  82254493.20006
R06  23461163.743 4
R19  22658556.541 6 121207836.79306  22658568.140 7  94272732.56307  22658568.562 7  94272735.55607
R20  20220683.066 6 108129106.42306  20220687.793 7  84100446.25407  20220688.104 7  84100453.25207
R21  22406047.426 7 119899355.83307  22406048.456 5  93255014.58405  22406048.641 6  93255030.57606  22406033.103 5  89837537.37905
S27  40221785.129 6 211366933.29206  40221766.262 6 157838950.48706
S28  38008873.605 6 199737979.01706  38008840.398 7 149154894.72907
S32  37405303.981 7 196566223.27607  37405269.388 5 146786334.74105
S34  37509786.121 7 197115272.89907  37509647.370 6 147195944.42606
S42  36758081.269 6 193165048.11606  36757941.933 6 144246053.74006
S43  36756094.017 8 193154568.77808  36756082.560 7 144238784.12707
S44  38031472.662 6 199856757.86106  38031457.051 7 149243631.79407
> 2025 03 16 15 53  9.0000000  0 40
C02                                                                  37611360.188 6 195852217.64106  37611353.491 7 151445363.18807  37611357.336 7 159145984.64907
C03                                                                  36517290.063 7 190155128.06507  36517285.423 7 147039997.81707  36517287.823 8 154516615.11408
C05                                                                  39888429.663 6 207709572.96806  39888427.380 6 160614247.03006  39888429.909 7 168781072.46707
C06                                                                  37554407.567 7 195555908.48107  37554403.719 7 151216350.24307  37554403.742 8 158905283.12408
C07                                                                  40685984.943 6 211862526.96406  40685995.290 6 163825470.19506  40685990.096 6 172155575.39306
C08                                                                  36311208.311 4 189081996.51504  36311199.698 3                  36311202.188 4
C09                                                                  38900955.442 5 202567845.58905  38900956.134 7 156638503.97707  38900954.272 7 164603113.86707
C10                                                                  40570936.302 6 211263330.55706  40570949.657 5 163362176.03705  40570945.476 6 171668729.21506
C13                                                                  36707717.977 7 191146733.07707  36707719.119 7 147806786.76907  36707718.157 7 155322383.88807
C20  24399275.045 7 128219053.94107  24399274.705 7  95747996.44907  24399275.716 7 127053611.75507                                  24399270.779 6 103241790.90506
C27  25480435.342 7 133900589.29807  25480453.839 6  99990768.91606  25480436.486 7 132683086.73607                                  25480448.998 7 107815828.15707
C29  24804290.274 7 130347416.08807                                  24804290.210 7 129162454.09107                                  24804289.518 7 104955067.44007
C30  23839258.037 7 125276143.03107  23839262.070 7  93550383.03907  23839258.449 7 124137249.54907                                  23839261.749 7 100871691.17407
C32                                                                  22616271.472 4 117768880.05504                                  22616271.416 5  95696872.01405
C40  41524182.355 5 218211054.77605  41524197.313 5 162949870.88805  41524182.032 5 216227359.54705                                  41524192.115 6 175702506.27806
C60                                                                  38031439.418 6 198039690.20206                                  38031427.140 7 160923416.12507
E03  26690896.804 7 140261933.15607  26690900.636 5 104741258.64405  26690899.717 6 107473612.48006  26690899.685 6 106107443.59406
E05  22275200.545 8 117057028.32308  22275201.383 6  87412757.55006  22275199.595 6  89693081.62506  22275200.304 7  88552920.13207
E15  28313291.026 6 148787346.42906                                  28313293.369 5 114005900.20505
E34  24314807.642 7 127775219.22407  24314809.123 6  95416594.17106  24314807.844 7  97905715.58307  24314808.197 7  96661152.92007
E36  23935079.483 7 125779685.24307  23935082.058 6  93926393.34106  23935080.810 7  96376642.78107  23935081.270 7  95151517.60207
G10  25169429.373 6 132266243.80406  25169428.663 5  25169431.664 5 103064619.62705  25169430.969 6 103064608.63906  25169428.816 5  98770247.44405
G15  20704512.261 3
G18  20727149.446 8 108921932.83308  20727149.187 5  20727147.283 5  84874238.40005  20727147.354 6  84874202.40506  20727150.227 6  81337790.23506
G23  21493265.734 7 112947944.14807  21493265.453 5  21493264.873 5  88011382.47205  21493264.422 6  88011316.46006  21493266.236 6  84344193.41106
G24  20041927.698 4
G29  25312323.176 6 133017050.19406  25312322.707 5  25312339.418 5 103649538.81405  25312338.682 5 103649793.85605
I03  56947072.994 7 223472579.05507
I09  39849913.282 6 156379811.54206
R05  20514765.966 8 109663234.77008  20514768.321 8  85293662.00508  20514767.980 8  85293663.01508  20514752.852 6  82254458.64506
R19  22659342.689 6 121212044.03206  22659354.752 7  94276004.81107  22659355.085 7  94276007.80407
R20  20220846.233 6 108129980.36206  20220851.253 8  84101125.97608  20220851.524 8  84101132.97108
R21  22405543.113 7 119896656.74307  22405544.160 6  93252915.27506  22405544.423 6  93252931.27006  22405528.695 5  89835514.99905
S27  40221753.098 6 211366768.27006  40221734.889 6 157838827.26606
S28  38008846.314 6 199737826.75506  38008811.377 7 149154781.11007
S32  37405275.564 7 196566075.47007  37405241.306 5 146786224.37905
S34  37509758.638 7 197115124.54707  37509619.267 6 147195833.66706
S42  36758053.858 6 193164897.53406  36757913.283 6 144245941.32506
S43  36756067.702 8 193154427.75608  36756055.735 7 144238678.81607
S44  38031444.263 6 199856613.79806  38031429.693 7 149243524.16807
> 2025 03 16 15 53 10.0000000  0 41
C02                                                                  37611327.116 6 195852045.35906  37611320.401 7 151445229.95207  37611324.205 7 159145844.65307
C03                                                                  36517264.955 7 190154996.92207  36517260.230 7 147039896.40407  36517262.652 7 154516508.56207
C05                                                                  39888396.211 6 207709398.73206  39888393.959 6 160614112.30706  39888396.479 6 168780930.87706
C06                                                                  37554166.008 7 195554650.04707  37554162.059 7 151215377.14007  37554162.067 8 158904260.55608
C07                                                                  40686135.226 6 211863309.73706  40686145.452 6 163826075.48606  40686140.480 6 172156211.48706
C08                                                                  36311054.614 4 189081190.37604  36311045.409 3                  36311047.103 4
C09                                                                  38900713.368 5 202566582.15805  38900713.452 7 156637527.00507  38900711.550 7 164602087.21007
C10                                                                  40571136.714 6 211264374.58906  40571149.927 5 163362983.33505  40571145.984 6 171669577.56506
C13                                                                  36707549.847 7 191145857.19007  36707550.933 7 147806109.47307  36707549.894 7 155321672.15907
C20  24398942.668 7 128217307.28907  24398942.316 7  95746692.12607  24398943.320 7 127051880.97307                                  24398938.507 5 103240384.47505
C27  25480987.350 7 133903490.16307  25481005.924 6  99992935.11506  25480988.517 7 132685961.22107                                  25481000.987 7 107818163.91307
C29  24804175.869 7 130346815.17407                                  24804175.808 7 129161858.64207                                  24804175.162 7 104954583.58607
C30  23839611.638 7 125278001.15907  23839615.630 7  93551770.60007  23839611.971 7 124139090.77907                                  23839615.287 7 100873187.33207
C32                                                                  22616264.686 4 117768846.40804                                  22616265.169 4  95696844.64504
C40  41524366.519 5 218212024.05305  41524381.769 5 162950594.74705  41524366.438 5 216228320.01705                                  41524376.730 5 175703286.75905
C60                                                                  38031412.191 6 198039547.35006                                  38031399.827 7 160923300.04207
E03  26690550.268 7 140260111.40807  26690553.875 5 104739898.25305  26690552.903 6 107472216.58906  26690553.005 6 106106065.45106
E05  22275155.526 8 117056791.75908  22275156.315 6  87412580.88506  22275154.643 6  89692900.35406  22275155.293 7  88552741.16507
E15  28312731.607 6 148784406.14206                                  28312733.893 5 114003647.27005
E34  24314564.185 7 127773939.77207  24314565.656 6  95415638.74806  24314564.395 7  97904735.22507  24314564.744 7  96660185.02707
E36  23935372.106 7 125781223.60207  23935374.886 6  93927542.10706  23935373.529 7  96377821.52307  23935374.023 7  95152681.35607
G10  25168865.799 6 132263281.08806  25168865.093 5  25168867.882 5 103062311.02105  25168867.101 6 103062300.02806  25168865.115 5  98768035.00805
G15  20704762.358 3
G18  20727155.306 8 108921963.54808  20727155.052 5  20727153.141 5  84874262.33205  20727153.211 6  84874226.34506  20727156.059 6  81337813.18106
G23  21492815.819 7 112945580.24607  21492815.538 5  21492815.072 5  88009540.47005  21492814.388 6  88009474.47406  21492816.371 6  84342428.14006
G24  20041731.201 4
G29  25312771.401 6 133019404.92506  25312770.941 5  25312787.524 5 103651373.68105  25312786.831 5 103651628.70105
I03  56946692.229 7 223471085.27307
I09  39849823.872 6 156379461.01206
R05  20514757.344 8 109663188.73908  20514759.664 7  85293626.21107  20514759.323 7  85293627.21407  20514744.300 6  82254424.11306
R06  23460362.183 4
R19  22660128.805 6 121216251.31706  22660141.378 7  94279277.12607  22660141.699 7  94279280.12607
R20  20221009.710 6 108130855.12106  20221014.825 8  84101806.34808  20221014.950 8  84101813.35008
R21  22405038.627 7 119893958.28307  22405040.164 6  93250816.44606  22405039.859 6  93250832.47506  22405024.444 5  89833493.10005
S27  40221722.329 6 211366603.25606  40221703.525 6 157838704.06506
S28  38008816.028 6 199737674.34806  38008782.423 7 149154667.35207
S32  37405247.661 7 196565927.64407  37405213.166 5 146786114.03105
S34  37509730.605 7 197114976.13807  37509590.934 6 147195722.84006
S42  36758023.509 6 193164746.90506  36757884.562 6 144245828.84906
S43  36756040.675 8 193154286.67808  36756028.892 7 144238573.46807
S44  38031417.522 6 199856469.60506  38031402.238 7 149243416.49807
> 2025 03 16 15 53 11.0000000  0 41
C02                                                                  37611294.129 5 195851873.21905  37611287.249 7 151445096.87207  37611291.133 7 159145704.80007
C03                                                                  36517239.793 7 190154865.96307  36517235.055 7 147039795.14207  36517237.477 7 154516402.13707
C05                                                                  39888362.884 6 207709224.68606  39888360.676 6 160613977.73906  39888363.090 6 168780789.45606
C06                                                                  37553924.312 7 195553391.91807  37553920.412 7 151214404.27207  37553920.476 8 158903238.21108
C07                                                                  40686285.211 6 211864092.54106  40686295.681 6 163826680.82906  40686290.712 6 172156847.57706
C08                                                                  36310899.460 4 189080384.44104  36310890.235 3                  36310892.402 4
C09                                                                  38900470.946 5 202565318.99705  38900470.751 7 156636550.26407  38900468.880 7 164601060.81307
C10                                                                  40571337.217 6 211265418.65906  40571350.593 5 163363790.68805  40571346.580 6 171670425.97606
C13                                                                  36707381.667 7 191144981.48007  36707382.755 7 147805432.31307  36707381.676 7 155320960.56507
C20  24398610.277 7 128215560.84407  24398609.960 7  95745387.95207  24398611.118 7 127050150.39207                                  24398606.086 5 103238978.25805
C27  25481539.379 7 133906391.12007  25481557.849 6  99995101.38806  25481540.554 7 132688835.81207                                  25481552.991 7 107820499.73007
C29  24804061.591 7 130346214.96307                                  24804061.808 7 129161263.87807                                  24804060.797 7 104954100.28807
C30  23839965.218 7 125279859.77507  23839969.323 7  93553158.52707  23839965.630 7 124140932.50507                                  23839969.022 7 100874683.87607
C32                                                                  22616257.881 4 117768813.01804                                  22616259.153 5  95696817.55705
C40  41524550.980 5 218212993.38705  41524566.276 5 162951318.59105  41524550.917 5 216229280.53705                                  41524561.201 5 175704067.23305
C60                                                                  38031385.102 6 198039404.65906                                  38031372.398 7 160923184.10007
E03  26690203.710 7 140258289.99907  26690207.093 5 104738538.11205  26690206.253 6 107470820.97706  26690206.400 6 106104687.57906
E05  22275110.562 8 117056555.55108  22275111.401 6  87412404.49806  22275109.744 6  89692719.36206  22275110.340 7  88552562.47407
E15  28312172.065 6 148781466.16606                                  28312174.315 5 114001394.54405
E34  24314320.868 7 127772660.93307  24314322.216 6  95414683.76706  24314320.942 7  97903755.33607  24314321.393 7  96659217.59107
E36  23935664.880 7 125782762.54407  23935667.736 6  93928691.31706  23935666.406 7  96379000.70807  23935666.874 7  95153845.55207
G10  25168301.969 6 132260318.40806  25168301.263 5  25168304.114 5 103060002.43705  25168303.435 6 103059991.46206  25168301.314 5  98765822.61605
G15  20705011.593 3
G18  20727161.313 8 108921995.14308  20727161.059 5  20727159.160 5  84874286.94905  20727159.244 6  84874250.95006  20727161.991 6  81337836.75906
G23  21492365.987 7 112943216.66907  21492365.706 5  21492365.299 5  88007698.72205  21492364.615 6  88007632.72306  21492366.646 6  84340663.14806
G24  20041532.737 5
G29  25313219.864 6 133021759.65606  25313219.408 5  25313235.630 5 103653208.54205  25313234.978 6 103653463.56306
I03  56946311.590 7 223469591.63207
I09  39849734.693 6 156379110.62706
R05  20514748.801 8 109663142.99808  20514751.056 7  85293590.63807  20514750.658 7  85293591.63607  20514735.686 6  82254389.80406
R06  23459957.358 4
R19  22660915.653 6 121220458.89406  22660927.972 7  94282549.67807  22660928.244 7  94282552.67207
R20  20221173.279 6 108131730.96406  20221178.611 8  84102487.52108  20221178.811 8  84102494.54208
R21  22404534.360 7 119891260.67607  22404535.836 6  93248718.31606  22404535.846 6  93248734.32806  22404520.336 6  89831471.86006
S27  40221692.177 6 211366438.39706  40221672.300 6 157838580.95906
S28  38008787.816 6 199737522.07306  38008753.474 7 149154553.67407
S32  37405218.600 7 196565779.97307  37405185.214 5 146786003.81405
S34  37509701.200 7 197114827.91007  37509562.682 6 147195612.20606
S42  36757998.101 6 193164596.47106  36757856.001 6 144245716.53506
S43  36756013.904 8 193154145.79008  36756002.076 7 144238468.25707
S44  38031389.481 6 199856325.62806  38031374.791 7 149243308.98907
> 2025 03 16 15 53 12.0000000  0 41
C02                                                                  37611261.200 5 195851701.09705  37611254.194 7 151444963.76907  37611258.079 7 159145564.93107
C03                                                                  36517214.519 7 190154734.96607  36517209.826 7 147039693.85107  36517212.329 7 154516295.70407
C05                                                                  39888329.467 6 207709050.59806  39888327.305 6 160613843.12106  39888329.638 6 168780648.00106
C06                                                                  37553682.773 7 195552133.87807  37553678.819 7 151213431.48007  37553678.897 8 158902215.95608
C07                                                                  40686435.200 6 211864875.20606  40686445.950 6 163827286.02806  40686440.965 6 172157483.57706
C08                                                                  36310744.665 4 189079578.34504  36310734.703 3                  36310737.666 4
C09                                                                  38900228.707 5 202564055.88105  38900228.136 7 156635573.54307  38900226.295 7 164600034.43007
C10                                                                  40571537.474 6 211266462.59806  40571550.962 5 163364597.93505  40571547.085 6 171671274.26306
C13                                                                  36707213.419 7 191144105.74807  36707214.672 7 147804755.13907  36707213.533 7 155320248.96307
C20  24398277.864 7 128213814.37407  24398277.670 7  95744083.77007  24398278.922 7 127048419.80607                                  24398273.706 5 103237572.01905
C27  25482091.451 7 133909291.97307  25482109.877 6  99997267.57706  25482092.518 7 132691710.29307                                  25482104.973 7 107822835.47307
C29  24803947.433 7 130345615.21207                                  24803947.712 7 129160669.57507                                  24803946.645 7 104953617.37907
C30  23840319.021 7 125281718.66407  23840323.050 7  93554546.65607  23840319.241 7 124142774.49607                                  23840322.745 7 100876180.64207
C32                                                                  22616251.829 4 117768779.66704                                  22616253.010 4  95696790.42504
C40  41524735.490 5 218213962.45705  41524750.436 4 162952042.29404  41524735.264 5 216230240.81405                                  41524745.784 5 175704847.58005
C60                                                                  38031357.793 6 198039261.97306                                  38031345.036 7 160923068.14607
E03  26689857.153 7 140256468.73407  26689860.689 5 104737178.04505  26689859.714 6 107469425.47806  26689859.796 6 106103309.80606
E05  22275065.629 8 117056319.47608  22275066.491 6  87412228.22306  22275064.915 6  89692538.48106  22275065.422 7  88552383.89707
E15  28311612.612 6 148778526.26806                                  28311614.899 5 113999141.90805
E34  24314077.583 7 127771382.48307  24314079.002 6  95413729.08306  24314077.664 7  97902775.74607  24314078.106 7  96658250.45507
E36  23935957.845 7 125784301.84907  23935960.609 6  93929840.78706  23935959.349 7  96380180.17507  23935959.806 7  95155010.02007
G10  25167738.285 6 132257355.58906  25167737.583 5  25167740.318 5 103057693.74805  25167739.792 6 103057682.76406  25167737.536 5  98763610.12505
G15  20705261.427 3
G18  20727167.419 8 108922027.38208  20727167.160 5  20727165.290 5  84874312.07205  20727165.483 6  84874276.07506  20727168.163 6  81337860.84206
G23  21491916.143 7 112940853.18507  21491915.857 5  21491915.534 5  88005857.05105  21491914.762 6  88005791.04406  21491916.824 6  84338898.20206
G24  20041334.219 4
G29  25313668.217 6 133024114.12806  25313667.766 5  25313683.673 5 103655043.20205  25313682.763 6 103655298.23106
I03  56945931.008 7 223468097.97007
I09  39849645.220 6 156378760.19806
R05  20514740.300 8 109663097.32808  20514742.506 7  85293555.11207  20514741.945 7  85293556.11307  20514727.166 6  82254355.55606
R06  23459551.321 4
R19  22661702.036 6 121224666.56806  22661714.401 7  94285822.27707  22661714.671 7  94285825.27507
R20  20221337.566 6 108132607.63906  20221342.608 8  84103169.39308  20221342.830 7  84103176.39307
R21  22404030.451 7 119888563.71407  22404031.951 6  93246620.68606  22404032.023 6  93246636.70406  22404016.414 6  89829451.10406
S27  40221662.240 6 211366273.47706  40221640.941 6 157838457.83806
S28  38008758.975 6 199737369.71606  38008724.453 7 149154439.91307
S32  37405190.831 7 196565632.27807  37405157.283 5 146785893.54705
S34  37509672.711 7 197114679.67807  37509534.631 6 147195501.52306
S42  36757971.325 6 193164445.99106  36757827.338 6 144245604.19606
S43  36755986.989 8 193154004.86008  36755975.250 7 144238363.01607
S44  38031362.687 6 199856181.64906  38031347.402 7 149243201.44907
> 2025 03 16 15 53 13.0000000  0 41
C02                                                                  37611228.195 5 195851528.66205  37611221.104 7 151444830.42907  37611225.016 7 159145424.81707
C03                                                                  36517189.183 7 190154603.67607  36517184.655 7 147039592.32907  36517187.082 7 154516189.01307
C05                                                                  39888296.118 6 207708876.23506  39888293.611 6 160613708.28106  39888296.033 6 168780506.30006
C06                                                                  37553441.135 7 195550875.64507  37553437.220 7 151212458.53407  37553437.235 8 158901193.54908
C07                                                                  40686585.424 6 211865657.40006  40686596.092 6 163827890.89406  40686591.226 6 172158119.16306
C08                                                                  36310589.244 4 189078772.10004  36310579.202 3                  36310582.930 4
C09                                                                  38899986.275 5 202562792.58805  38899985.553 7 156634596.67707  38899983.629 7 164599007.87807
C10                                                                  40571737.944 6 211267506.12106  40571751.156 5 163365404.87805  40571747.489 6 171672122.20906
C13                                                                  36707045.159 7 191143229.68307  36707046.489 7 147804077.71407  36707045.272 7 155319537.09807
C20  24397945.486 7 128212067.61807  24397945.236 7  95742779.38007  24397946.501 7 127046688.92907                                  24397941.271 5 103236165.54105
C27  25482643.464 7 133912192.44207  25482661.832 6  99999433.49406  25482644.517 7 132694584.39307                                  25482656.930 7 107825170.88407
C29  24803833.333 7 130345015.65607                                  24803833.704 7 129160075.46207                                  24803832.504 7 104953134.62007
C30  23840672.779 7 125283577.54807  23840676.843 7  93555934.78607  23840672.875 7 124144616.48707                                  23840676.445 7 100877677.40907
C32                                                                  22616244.903 4 117768746.17404                                  22616246.683 4  95696763.17704
C40  41524919.533 5 218214931.13405  41524934.583 5 162952765.62805  41524919.580 5 216231200.64105                                  41524930.213 5 175705627.52905
C60                                                                  38031330.226 6 198039118.95706                                  38031317.549 7 160922951.94407
E03  26689510.552 7 140254647.30907  26689513.964 5 104735817.90805  26689513.242 6 107468029.83206  26689513.195 6 106101931.90806
E05  22275020.658 8 117056083.28008  22275021.527 6  87412051.84206  22275019.972 6  89692357.51006  22275020.456 7  88552205.22007
E15  28311053.079 6 148775586.19006                                  28311055.570 5 113996889.11605
E34  24313834.345 7 127770104.16807  24313835.745 6  95412774.49106  24313834.430 7  97901796.25207  24313834.837 7  96657283.41107
E36  23936250.733 7 125785841.25907  23936253.570 6  93930990.34806  23936252.371 7  96381359.71407  23936252.746 7  95156174.57107
G10  25167174.632 6 132254392.34006  25167173.926 5  25167176.437 5 103055384.72605  25167176.573 6 103055373.74706  25167173.629 5  98761397.29905
G15  20705514.365 3
G18  20727173.561 8 108922060.01208  20727173.302 5  20727171.501 5  84874337.49905  20727172.112 7  84874301.50707  20727174.454 6  81337885.21806
G23  21491466.257 7 112938489.54807  21491465.971 5  21491465.747 5  88004015.25605  21491465.063 7  88003949.24807  21491467.046 6  84337133.13906
G24  20041136.001 4
G29  25314116.289 6 133026468.09406  25314115.847 5  25314131.609 5 103656877.47105  25314130.530 6 103657132.50306
I03  56945550.467 7 223466604.08707
I09  39849556.096 6 156378409.56106
R05  20514731.734 8 109663051.45908  20514733.867 7  85293519.44007  20514733.270 7  85293520.44807  20514718.598 6  82254321.14206
R06  23459147.940 4
R19  22662488.571 6 121228874.05306  22662500.794 7  94289094.72307  22662501.116 7  94289097.73707
R20  20221501.636 6 108133484.88306  20221506.605 7  84103851.69207  20221506.972 8  84103858.69608
R21  22403526.314 7 119885867.16107  22403527.954 6  93244523.38906  22403528.295 6  93244539.39306  22403512.512 6  89827430.65006
S27  40221629.293 6 211366108.32806  40221609.541 6 157838334.52006
S28  38008728.505 6 199737217.14506  38008695.401 7 149154326.00707
S32  37405162.356 7 196565484.24507  37405129.162 5 146785783.04605
S34  37509644.500 7 197114531.13707  37509506.352 6 147195390.63706
S42  36757940.905 6 193164295.19506  36757798.590 6 144245491.61106
S43  36755959.820 8 193153863.62408  36755948.340 7 144238257.55207
S44  38031336.590 6 199856037.34806  38031319.964 7 149243093.68007
> 2025 03 16 15 53 14.0000000  0 41
C02                                                                  37611195.047 5 195851356.40205  37611188.117 7 151444697.22407  37611191.917 7
C03                                                                  36517164.088 7 190154472.55807  36517159.471 7 147039490.93707  36517161.880 7 154516082.47307
C05                                                                  39888262.693 6 207708702.01706  39888259.975 6 160613573.58106  39888262.532 6 168780364.75406
C06                                                                  37553199.598 7 195549617.69807  37553195.705 7 151211485.80807  37553195.634 8 158900171.35308
C07                                                                  40686735.789 6 211866439.65806  40686746.205 6 163828495.75106  40686741.436 6 172158754.80606
C08                                                                  36310433.721 4 189077966.02104  36310424.744 4                  36310428.016 4
C09                                                                  38899743.498 5 202561529.53505  38899743.037 7 156633620.00407  38899741.113 7 164597981.54807
C10                                                                  40571938.292 6 211268549.70006  40571951.525 5 163366211.81905  40571947.747 6 171672970.19406
C13                                                                  36706876.872 7 191142353.75407  36706878.187 7 147803400.38307  36706877.085 7 155318825.33107
C20  24397613.112 7 128210321.06307  24397612.851 7  95741475.13307  24397614.141 7 127044958.25407                                  24397608.801 5 103234759.22405
C27  25483195.449 7 133915092.98607  25483213.797 6 100001599.47106  25483196.534 7 132697458.57307                                  25483208.896 7 107827506.37307
C29  24803719.377 7 130344416.78607                                  24803719.720 7 129159482.03607                                  24803718.528 7 104952652.40107
C30  23841026.612 7 125285436.91507  23841030.697 7  93557323.26907  23841026.681 7 124146458.94007                                  23841030.257 7 100879174.55807
C32                                                                  22616237.945 4 117768712.81504                                  22616240.250 4  95696736.11204
C40  41525103.850 5 218215899.72905  41525118.727 4 162953488.99804  41525103.793 5 216232160.52705                                  41525114.434 5 175706407.47705
C60                                                                  38031302.363 6 198038976.12306                                  38031290.071 7 160922835.87507
E03  26689163.951 7 140252826.20507  26689167.447 5 104734458.04905  26689166.743 6 107466634.45606  26689166.685 6 106100554.28306
E05  22274975.747 8 117055847.42408  22274976.641 6  87411875.70506  22274975.140 6  89692176.77906  22274975.571 7  88552026.78807
E15  28310493.898 6 148772646.41806                                  28310496.194 5 113994636.56605
E34  24313591.226 7 127768826.43807  24313592.660 6  95411820.35006  24313591.314 7  97900817.21507  24313591.692 7  96656316.82207
E36  23936543.803 7 125787381.24007  23936546.644 6  93932140.33906  23936545.438 7  96382539.70107  23936545.798 7  95157339.55807
G10  25166610.865 6 132251429.15506  25166610.163 5  25166612.548 5 103053075.75005  25166613.257 6 103053064.75006  25166609.759 5  98759184.53805
G15  20705762.884 3
G18  20727179.928 8 108922093.50308  20727179.674 5  20727177.878 5  84874363.59605  20727178.401 7  84874327.60307  20727180.834 6  81337910.22406
G23  21491016.550 7 112936126.20907  21491016.264 5  21491016.005 5  88002173.69105  21491015.316 7  88002107.68007  21491017.342 6  84335368.31106
G24  20040938.570 4
G29  25314564.156 6 133028822.02206  25314563.714 5  25314579.540 5 103658711.71405  25314579.105 6 103658966.76106
I03  56945169.830 7 223465110.33707
I09  39849466.575 6 156378059.03006
R05  20514723.157 8 109663005.86208  20514725.339 7  85293483.96707  20514724.779 7  85293484.97807  20514710.025 6  82254286.94806
R06  23458744.962 4
R19  22663275.339 6 121233081.80606  22663287.276 7  94292367.40407  22663287.506 7  94292370.40807
R20  20221665.989 6 108134363.18106  20221670.906 8  84104534.81008  20221671.144 8  84104541.80608
R21  22403022.693 7 119883171.50307  22403024.258 6  93242426.75606  22403024.686 6  93242442.75406  22403008.754 6  89825410.84906
S27  40221598.014 6 211365943.37906  40221578.132 6 157838211.35506
S28  38008699.989 6 199737064.75806  38008666.398 7 149154212.22707
S32  37405134.828 7 196565336.39107  37405100.946 5 146785672.66805
S34  37509616.141 7 197114382.77107  37509478.110 6 147195279.87406
S42  36757909.013 6 193164144.57206  36757769.833 6 144245379.14406
S43  36755933.187 8 193153722.57408  36755921.497 7 144238152.22107
S44  38031307.145 6 199855893.21506  38031292.477 7 149242986.04707
> 2025 03 16 15 53 15.0000000  0 40
C02                                                                  37611161.863 5 195851184.29605  37611155.036 7 151444564.15007  37611158.890 7 159145144.97907
C03                                                                  36517138.931 7 190154341.59007  36517134.363 7 147039389.67407  36517136.721 7 154515976.04307
C05                                                                  39888229.129 6 207708527.95806  39888226.648 6 160613438.98606  39888229.080 6 168780223.30306
C06                                                                  37552957.970 7 195548360.02807  37552954.199 7 151210513.30607  37552954.148 8 158899149.40308
C07                                                                  40686886.072 6 211867221.88906  40686896.508 6 163829100.64506  40686891.695 6 172159390.44406
C08                                                                  36310278.718 4 189077159.98904  36310271.573 3                  36310274.397 4
C09                                                                  38899500.431 5 202560266.67005  38899500.767 7 156632643.53207  38899498.613 7 164596955.41207
C10                                                                  40572138.500 6 211269593.27906  40572152.524 5 163367018.82605  40572147.993 6
C13                                                                  36706708.757 7 191141477.96207  36706709.931 6 147802723.17406  36706708.867 7 155318113.67807
C20  24397280.718 7 128208574.67307  24397280.523 7  95740171.01807  24397281.797 7 127043227.74207                                  24397276.488 5 103233353.03805
C27  25483747.520 7 133917993.61507  25483765.941 6 100003765.47706  25483748.478 7 132700332.83107                                  25483760.894 7 107829841.92107
C29  24803605.511 7 130343818.56907                                  24803605.998 7 129158889.26007                                  24803604.688 7 104952170.72007
C30  23841380.506 7 125287296.74007  23841384.657 7  93558712.10107  23841380.500 7 124148301.85907                                  23841384.140 7 100880672.08007
C32                                                                  22616231.171 4 117768679.75804                                  22616234.213 4  95696709.23104
C40  41525288.527 5 218216868.35805  41525302.967 4 162954212.30404  41525287.483 5 216233120.30805                                  41525298.587 5 175707187.43005
C60                                                                  38031274.970 6 198038833.46206                                  38031262.647 7 160922719.95207
E03  26688817.494 7 140251005.43007  26688820.718 5 104733098.35205  26688820.113 6 107465239.31906  26688820.161 6 106099176.87206
E05  22274930.861 8 117055611.90208  22274931.794 6  87411699.83806  22274930.315 6  89691996.30806  22274930.750 7  88551848.61807
E15  28309934.402 6 148769706.88306                                  28309936.650 5 113992384.20405
E34  24313348.252 7 127767549.30007  24313349.547 6  95410866.62906  24313348.343 7  97899838.63007  24313348.655 7  96655350.67107
E36  23936837.013 7 125788921.76607  23936839.742 6  93933290.72306  23936838.615 7  96383720.11407  23936838.949 7  95158504.95907
G10  25166047.038 6 132248465.97006  25166046.336 5  25166048.663 5 103050766.77505  25166049.518 6 103050755.79306  25166045.943 5  98756971.77605
G18  20727186.449 8 108922127.83208  20727186.190 5  20727184.415 5  84874390.34705  20727184.867 7  84874354.34907  20727187.375 6  81337935.84006
G23  21490566.885 7 112933763.16007  21490566.604 5  21490566.316 5  88000332.35405  21490565.779 7  88000266.34507  21490567.639 6  84333603.70406
G24  20040740.468 4
G29  25315012.158 6 133031175.89206  25315011.719 5  25315027.503 5 103660545.91405  25315027.246 6 103660800.94606
I03  56944789.321 7 223463616.70107
I09  39849377.246 6 156377708.62006
R05  20514714.633 8 109662960.51408  20514716.826 7  85293448.70107  20514716.379 7  85293449.71507  20514701.564 6  82254252.93806
R06  23458342.445 4
R19  22664062.446 6 121237289.83506  22664073.812 7  94295640.29007  22664074.507 7  94295643.29907
R20  20221830.282 6 108135242.52506  20221835.238 8  84105218.73208  20221835.671 7  84105225.73207
R21  22402519.036 7 119880476.68507  22402520.547 6  93240330.79106  22402521.395 6  93240346.78406  22402505.033 6  89823391.68706
S27  40221566.055 6 211365778.47506  40221546.773 6 157838088.16506
S28  38008671.362 6 199736912.48106  38008637.440 7 149154098.51307
S32  37405106.528 7 196565188.75307  37405072.914 5 146785562.45305
S34  37509587.827 7 197114234.56107  37509449.791 6 147195169.24806
S42  36757881.119 6 193163994.06706  36757741.264 6 144245266.76406
S43  36755906.178 8 193153581.67708  36755894.667 7 144238047.00107
S44  38031278.947 6 199855749.18606  38031265.030 7 149242878.53107
> 2025 03 16 15 53 16.0000000  0 40
C02                                                                  37611128.907 5 195851012.23705  37611121.982 7 151444431.09207  37611125.858 7 159145005.16907
C03                                                                  36517113.800 7 190154210.67207  36517109.253 7 147039288.42807  36517111.574 7 154515869.66407
C05                                                                  39888195.819 6 207708353.94406  39888193.290 6 160613304.42506  39888195.775 6 168780081.90406
C06                                                                  37552716.431 7 195547102.51507  37552712.696 7 151209540.92207  37552712.691 7 158898127.57107
C07                                                                  40687036.401 6 211868004.04006  40687046.889 6 163829705.46206  40687041.891 6 172160026.01006
C08                                                                  36310124.332 4 189076354.14804  36310116.617 4                  36310119.371 3
C09                                                                  38899257.208 5 202559004.01405  38899258.244 7 156631667.14107  38899256.131 6 164595929.38606
C10                                                                  40572338.854 6 211270636.81906  40572353.070 5 163367825.73405  40572348.268 5
C13                                                                  36706540.590 7 191140602.21207  36706541.802 6 147802045.99206  36706540.676 7 155317402.06407
C20  24396948.368 7 128206828.35107  24396948.260 7  95738866.95007  24396949.466 7 127041497.29507                                  24396944.266 5 103231946.92705
C27  25484299.492 7 133920894.20507  25484317.990 6 100005931.48106  25484300.437 7 132703207.03907                                  25484312.808 7 107832177.44407
C29  24803491.707 7 130343220.90407                                  24803492.291 7 129158297.02107                                  24803491.021 6 104951689.49006
C30  23841734.453 7 125289156.91907  23841738.635 7  93560101.18007  23841734.335 7 124150145.13007                                  23841738.155 7 100882169.87907
C32                                                                  22616225.014 4 117768646.80704                                  22616228.059 4  95696682.49804
C40  41525472.953 5 218217836.84605  41525487.275 4 162954935.57004  41525471.756 5 216234080.01405                                  41525482.857 5 175707967.26705
C60                                                                  38031247.792 6 198038690.83106                                  38031235.258 7 160922604.06207
E03  26688471.055 7 140249184.84807  26688474.069 5 104731738.81405  26688473.837 6 107463844.33606  26688473.696 6 106097799.61506
E05  22274886.062 8 117055376.60008  22274886.995 6  87411524.13606  22274885.535 6  89691816.01406  22274885.967 7  88551670.61907
E15  28309375.087 6 148766767.54506                                  28309377.313 5 113990131.97905
E34  24313105.318 7 127766272.62107  24313106.631 6  95409913.27806  24313105.383 7  97898860.39407  24313105.707 7  96654384.87707
E36  23937130.343 7 125790462.75207  23937133.016 6  93934441.46006  23937131.808 7  96384900.86307  23937132.184 7  95159670.70207
G10  25165483.286 6 132245502.72106  25165482.584 5  25165484.773 5 103048457.75105  25165485.180 6 103048446.75106  25165482.047 5  98754758.95705
G18  20727193.083 8 108922162.89308  20727192.824 5  20727191.091 5  84874417.66705  20727191.633 7  84874381.67507  20727194.055 6  81337962.03506
G23  21490117.114 7 112931400.29007  21490116.833 5  21490116.676 5  87998491.15705  21490116.281 6  87998425.14906  21490118.015 6  84331839.21806
G24  20040543.100 4
G29  25315460.071 6 133033529.60606  25315459.638 5  25315475.434 5 103662379.98705  25315474.852 6 103662635.02106
I03  56944408.712 7 223462123.11007
I09  39849287.905 6 156377358.23306
R05  20514706.116 8 109662915.31708  20514708.415 7  85293413.56607  20514708.011 7  85293414.56007  20514693.098 6  82254219.04006
R06  23457938.152 4
R19  22664849.067 6 121241498.03706  22664860.402 7  94298913.30007  22664861.032 7  94298916.31507
R20  20221995.657 6 108136122.76806  20221999.825 7  84105903.37907  20222000.314 7  84105910.37907
R21  22402015.613 7 119877782.61007  22402017.029 6  93238235.40406  22402018.139 6  93238251.39006  22402001.662 6  89821373.07506
S27  40221532.647 6 211365613.59406  40221515.494 6 157837964.97206
S28  38008643.875 6 199736760.27206  38008608.477 7 149153984.83107
S32  37405078.862 7 196565041.16607  37405044.908 5 146785452.29905
S34  37509559.535 7 197114086.40707  37509421.558 6 147195058.65106
S42  36757855.783 6 193163843.60606  36757712.552 6 144245154.43406
S43  36755879.380 8 193153440.82908  36755867.878 7 144237941.82807
S44  38031251.580 6 199855605.25206  38031237.661 7 149242771.03407
> 2025 03 16 15 53 17.0000000  0 40
C02                                                                  37611096.036 5 195850840.26105  37611089.102 7 151444298.10307  37611092.826 7 159144865.41707
C03                                                                  36517088.701 7 190154079.84207  36517084.182 7 147039187.26207  36517086.412 7 154515763.35307
C05                                                                  39888162.376 6 207708180.01706  39888160.120 6 160613169.93206  39888162.417 6 168779940.57906
C06                                                                  37552474.941 7 195545845.20507  37552471.260 7 151208568.68507  37552471.223 8 158897105.90608
C07                                                                  40687186.840 6 211868786.14306  40687196.950 6 163830310.22406  40687192.162 6 172160661.52806
C08                                                                  36309968.936 4 189075548.21904  36309962.758 3                  36309964.049 4
C09                                                                  38899014.003 5 202557741.50805  38899015.786 7 156630690.88807  38899013.613 7 164594903.48607
C10                                                                  40572539.158 6 211271680.28706  40572553.823 5 163368632.61305  40572548.357 6
C13                                                                  36706372.428 7 191139726.51107  36706373.721 6 147801368.84206  36706372.562 7 155316690.48407
C20  24396616.067 7 128205082.13607  24396615.895 7  95737562.94807  24396617.162 7 127039766.94907                                  24396611.858 5 103230540.86805
C27  25484851.473 7 133923794.77907  25484869.961 6 100008097.48706  25484852.572 7 132706081.25807                                  25484864.767 7 107834512.95907
C29  24803378.110 7 130342623.83207                                  24803378.672 7 129157705.38107                                  24803377.482 7 104951208.72207
C30  23842088.495 7 125291017.47807  23842092.710 7  93561490.55407  23842088.539 7 124151988.77807                                  23842092.175 7 100883667.99107
C32                                                                  22616218.654 4 117768614.05304                                  22616221.575 4  95696655.86004
C40  41525657.543 5 218218805.27805  41525671.716 4 162955658.70204  41525655.996 5 216235039.63205                                  41525667.078 5 175708747.04605
C60                                                                  38031220.318 6 198038548.28706                                  38031207.905 7 160922488.23407
E03  26688124.720 7 140247364.50207  26688127.722 5 104730379.45305  26688127.420 6 107462449.52306  26688127.283 6 106096422.53706
E05  22274841.343 8 117055141.55708  22274842.226 6  87411348.60506  22274840.758 6  89691635.91006  22274841.224 7  88551492.80107
E15  28308815.859 6 148763828.39306                                  28308817.979 5 113987879.89005
E34  24312862.493 7 127764996.46107  24312863.768 6  95408960.29806  24312862.545 7  97897882.55907  24312862.876 7  96653419.46707
E36  23937423.699 7 125792004.22007  23937426.331 6  93935592.55206  23937425.158 7  96386081.98607  23937425.518 7  95160836.80807
G10  25164919.249 6 132242539.45806  25164918.547 5  25164920.888 5 103046148.71505  25164921.145 6 103046137.68006  25164918.151 6  98752546.11006
G18  20727199.981 8 108922198.73008  20727199.722 5  20727197.897 5  84874445.59005  20727198.460 7  84874409.60307  20727200.912 6  81337988.79806
G23  21489667.509 7 112929037.64607  21489667.228 5  21489667.095 5  87996650.13805  21489666.713 6  87996584.13506  21489668.555 6  84330074.90606
G24  20040345.177 4
G29  25315908.086 6 133035883.19606  25315907.657 5  25315923.317 5 103664213.96205  25315922.804 6 103664468.99906
I03  56944028.167 7 223460629.58407
I09  39849198.828 6 156377007.94006
R05  20514697.611 8 109662870.30208  20514699.972 7  85293378.52907  20514699.698 7  85293379.53807  20514684.702 6  82254185.26706
R06  23457535.907 4
R19  22665635.840 6 121245706.46106  22665647.211 7  94302186.47707  22665647.669 7  94302189.48007
R20  20222160.524 6 108137003.97106  20222164.515 8  84106588.75308  20222164.885 8  84106595.75808
R21  22401512.405 7 119875089.31407  22401514.008 6  93236140.59406  22401514.648 6  93236156.58806  22401498.400 6  89819355.05306
S27  40221501.905 6 211365448.81006  40221484.054 6 157837841.86106
S28  38008613.897 6 199736608.11606  38008579.541 7 149153871.18607
S32  37405050.856 7 196564893.67207  37405016.808 5 146785342.19705
S34  37509532.012 7 197113938.32707  37509393.315 6 147194948.10206
S42  36757823.400 6 193163693.22406  36757684.006 6 144245042.13206
S43  36755852.867 8 193153300.06008  36755841.093 7 144237836.70507
S44  38031223.749 6 199855461.40506  38031210.289 7 149242663.62307
> 2025 03 16 15 53 18.0000000  0 41
C02                                                                  37611062.629 5 195850668.22705  37611056.084 7 151444165.07807  37611059.785 7 159144725.62607
C03                                                                  36517063.481 7 190153948.93507  36517059.110 7 147039086.03707  36517061.362 7 154515656.97007
C05                                                                  39888128.906 6 207708006.02106  39888126.574 6 160613035.39406  39888129.032 6
C06                                                                  37552233.404 7 195544587.95007  37552229.819 7 151207596.49507  37552229.755 8 158896084.26908
C07                                                                  40687336.622 6 211869568.00406  40687347.052 6 163830914.83906  40687342.299 6 172161296.86306
C08                                                                  36309814.807 4 189074742.27604  36309808.880 4                  36309808.852 4
C09                                                                  38898770.521 5 202556479.03505  38898773.350 7 156629714.65507  38898771.235 7 164593877.60307
C10                                                                  40572739.486 6 211272723.59106  40572754.178 5 163369439.37505  40572748.638 6
C13                                                                  36706204.199 7 191138850.69607  36706205.463 6 147800691.61006  36706204.351 7 155315978.81107
C20  24396283.732 7 128203335.86407  24396283.633 7  95736258.92407  24396284.663 7 127038036.55107                                  24396279.668 5 103229134.78405
C27  25485403.418 7 133926695.21807  25485421.988 6 100010263.36106  25485404.384 7 132708955.32107                                  25485416.748 7 107836848.34907
C29  24803264.478 7 130342027.19807                                  24803265.327 7 129157114.16907                                  24803263.930 7 104950728.30707
C30  23842442.581 7 125292878.27507  23842446.813 7  93562880.11207  23842442.640 7 124153832.65807                                  23842446.250 7 100885166.28907
C32                                                                  22616213.416 4 117768581.32304                                  22616214.757 4  95696629.24404
C40  41525841.694 5 218219773.45105  41525855.736 4 162956381.71404  41525839.919 5 216235998.99905                                  41525851.315 5 175709526.63105
C60                                                                  38031192.817 6 198038405.70206                                  38031180.534 7 160922372.35907
E03  26687778.379 7 140245544.26107  26687781.224 5 104729020.22005  26687781.050 6 107461054.79706  26687780.894 6 106095045.54706
E05  22274796.639 8 117054906.61908  22274797.469 6  87411173.16606  22274796.086 6  89691455.89706  22274796.517 7  88551315.07507
E15  28308256.679 6 148760889.30106                                  28308258.417 5 113985627.85705
E34  24312619.732 7 127763720.65607  24312620.938 6  95408007.59006  24312619.807 7  97896904.99807  24312620.089 7  96652454.33307
E36  23937717.087 7 125793546.01907  23937719.662 6  93936743.90506  23937718.619 7  96387263.37907  23937718.915 7  95162003.18207
G10  25164355.357 6 132239575.95506  25164354.655 5  25164356.945 5 103043839.49205  25164357.392 6 103043828.48606  25164354.175 6  98750333.10406
G15  20706753.509 3
G18  20727206.988 8 108922235.18608  20727206.734 5  20727204.842 5  84874473.99505  20727205.263 7  84874438.00307  20727207.752 6  81338016.02306
G23  21489217.929 7 112926675.06907  21489217.648 5  21489217.513 5  87994809.16705  21489217.062 6  87994743.17606  21489218.967 6  84328310.63506
G24  20040148.439 4
G29  25316355.759 6 133038236.50806  25316355.330 5  25316371.141 5 103666047.71905  25316370.958 6 103666302.74306
I03  56943647.539 7 223459136.01407
I09  39849109.854 6 156376657.56306
R05  20514689.278 8 109662825.30908  20514691.561 7  85293343.54207  20514691.338 7  85293344.54807  20514676.334 6  82254151.52206
R06  23457133.076 4
R19  22666422.536 6 121249914.91006  22666434.055 7  94305459.68607  22666434.506 7  94305462.68007
R20  20222325.773 6 108137885.99706  20222329.393 8  84107274.77408  20222329.611 8  84107281.77108
R21  22401009.236 7 119872396.66407  22401010.673 6  93234046.32206  22401011.103 6  93234062.29906  22400995.217 6  89817337.53906
S27  40221471.453 6 211365283.94506  40221452.703 6 157837718.69706
S28  38008585.950 6 199736455.90806  38008550.587 7 149153757.50507
S32  37405022.345 7 196564746.09207  37404988.539 5 146785232.03605
S34  37509503.519 7 197113790.15407  37509365.112 6 147194837.50406
S42  36757795.327 6 193163542.76606  36757655.440 6 144244929.77106
S43  36755825.979 8 193153159.22108  36755814.299 7 144237731.53507
S44  38031196.839 6 199855317.46506  38031182.909 7 149242556.16407
> 2025 03 16 15 53 19.0000000  0 41
C02                                                                  37611029.422 6 195850496.18106  37611022.958 7 151444032.04807  37611026.758 7 159144585.83207
C03                                                                  36517038.328 7 190153818.03707  36517033.975 7 147038984.82007  36517036.232 8 154515550.60908
C05                                                                  39888095.695 6 207707832.02206  39888093.054 6 160612900.84206  39888095.660 6
C06                                                                  37551991.798 7 195543330.80907  37551988.329 7 151206624.39307  37551988.309 8 158895062.74208
C07                                                                  40687486.822 6 211870349.74806  40687497.017 6 163831519.32306  40687492.382 6 172161932.10806
C08                                                                  36309659.538 4 189073936.26204  36309651.765 3                  36309654.197 4
C09                                                                  38898527.696 5 202555216.58405  38898531.011 7 156628738.48107  38898528.808 7 164592851.80507
C10                                                                  40572939.882 6 211273766.77706  40572954.347 5 163370246.04905  40572949.150 6
C13                                                                  36706035.981 7 191137974.89707  36706037.296 7 147800014.37807  36706036.190 7 155315267.14507
C20  24395951.378 7 128201589.61407  24395951.371 7  95734954.89607  24395952.270 7 127036306.17307                                  24395947.243 5
C27  25485955.283 7 133929595.56807  25485974.025 6 100012429.17906  25485956.377 7 132711829.30607                                  25485968.733 7 107839183.67607
C29  24803151.054 7 130341431.07707                                  24803151.851 7 129156523.47007                                  24803150.553 7 104950248.32207
C30  23842796.689 7 125294739.38007  23842800.889 7  93564269.89607  23842796.951 7 124155676.84207                                  23842800.422 7 100886664.84207
C32                                                                  22616207.588 4 117768548.64404                                  22616208.429 5  95696602.70905
C40  41526025.263 5 218220741.47105  41526040.019 4 162957104.63804  41526023.926 5 216236958.21005                                  41526035.592 5 175710306.07705
C60                                                                  38031165.523 6 198038263.09906                                  38031153.186 7 160922256.48707
E03  26687432.055 7 140243724.17707  26687435.061 5 104727661.07605  26687434.704 6 107459660.19906  26687434.535 6 106093668.67806
E05  22274752.014 8 117054671.85908  22274752.820 6  87410997.85506  22274751.468 6  89691276.01606  22274751.850 7  88551137.48107
E15  28307697.268 6 148757950.31506                                  28307699.214 5 113983375.92705
E34  24312377.038 7 127762445.28707  24312378.271 6  95407055.19806  24312377.096 7  97895927.76107  24312377.387 7  96651489.51907
E36  23938010.608 7 125795088.23107  23938013.120 6  93937895.55306  23938012.113 7  96388445.05607  23938012.379 7  95163169.84407
G10  25163791.274 6 132236612.35506  25163790.571 5  25163792.979 5 103041530.18905  25163793.246 6 103041519.20606  25163790.195 5  98748120.05405
G15  20707005.369 3
G18  20727214.146 8 108922272.32608  20727213.887 5  20727211.907 5  84874502.93505  20727212.175 6  84874466.94406  20727214.649 6  81338043.75206
G23  21488768.446 7 112924312.62207  21488768.160 5  21488767.954 5  87992968.30505  21488767.294 6  87992902.30806  21488769.456 6  84326546.48606
G24  20039950.221 4
G29  25316803.810 6 133040589.61806  25316803.381 5  25316818.942 5 103667881.31805  25316818.880 6 103668136.34606
I03  56943266.926 7 223457642.45007
I09  39849020.527 6 156376307.19006
R05  20514680.794 8 109662780.40808  20514683.194 7  85293308.61807  20514682.867 8  85293309.62608  20514667.926 6  82254117.85606
R06  23456730.062 4
R19  22667209.188 6 121254123.47406  22667221.016 7  94308732.97607  22667221.295 7  94308735.96907
R20  20222490.828 6 108138768.91306  20222494.454 8  84107961.47708  20222494.795 8  84107968.48208
R21  22400506.029 7 119869704.74807  22400507.687 6  93231952.61706  22400508.025 6  93231968.60606  22400492.110 6  89815320.53506
S27  40221440.317 6 211365119.08406  40221421.290 6 157837595.53806
S28  38008556.021 6 199736303.73006  38008521.575 7 149153643.85307
S32  37404994.245 7 196564598.45507  37404960.318 5 146785121.76905
S34  37509475.437 7 197113641.99307  37509336.847 6 147194726.90906
S42  36757766.628 6 193163392.25206  36757626.826 6 144244817.35706
S43  36755799.007 8 193153018.38908  36755787.518 7 144237626.36407
S44  38031168.480 6 199855173.55206  38031155.547 7 149242448.69207
