     3.04           OBSERVATION DATA    M                   RINEX VERSION / TYPE
sbf2rin-15.10.3                         20250317 065755 UTC PGM / RUN BY / DATE 
SEPT                                                        MARKER NAME         
Unknown                                                     MARKER NUMBER       
Unknown             Unknown                                 OBSERVER / AGENCY   
3672179             SEPT MOSAIC-X5C     4.12.1              REC # / TYPE / VERS 
Unknown             Unknown                                 ANT # / TYPE        
 -2751595.3183  4771639.7318  3205009.5488                  APPROX POSITION XYZ 
        0.0000        0.0000        0.0000                  ANTENNA: DELTA H/E/N
G    6 C1C L1C C2W L2W C2L L2L                              SYS / # / OBS TYPES 
E    6 C1C L1C C5Q L5Q C7Q L7Q                              SYS / # / OBS TYPES 
S    2 C1C L1C                                              SYS / # / OBS TYPES 
R    4 C1C L1C C2C L2C                                      SYS / # / OBS TYPES 
C    6 C2I L2I C7I L7I C6I L6I                              SYS / # / OBS TYPES 
J    4 C1C L1C C2L L2L                                      SYS / # / OBS TYPES 
I    2 C5A L5A                                              SYS / # / OBS TYPES 
SEPTENTRIO RECEIVERS OUTPUT ALIGNED CARRIER PHASES.         COMMENT             
NO FURTHER PHASE SHIFT APPLIED IN THE RINEX ENCODER.        COMMENT             
G L1C                                                       SYS / PHASE SHIFT   
G L2W                                                       SYS / PHASE SHIFT   
G L2L  0.00000                                              SYS / PHASE SHIFT   
E L1C  0.00000                                              SYS / PHASE SHIFT   
E L5Q  0.00000                                              SYS / PHASE SHIFT   
E L7Q  0.00000                                              SYS / PHASE SHIFT   
S L1C                                                       SYS / PHASE SHIFT   
R L1C                                                       SYS / PHASE SHIFT   
R L2C                                                       SYS / PHASE SHIFT   
C L2I                                                       SYS / PHASE SHIFT   
C L7I                                                       SYS / PHASE SHIFT   
C L6I                                                       SYS / PHASE SHIFT   
J L1C                                                       SYS / PHASE SHIFT   
J L2L  0.00000                                              SYS / PHASE SHIFT   
I L5A                                                       SYS / PHASE SHIFT   
     1.000                                                  INTERVAL            
  2025     3    17     6    42    2.0000000     GPS         TIME OF FIRST OBS   
  2025     3    17     6    51   38.0000000     GPS         TIME OF LAST OBS    
    54                                                      # OF SATELLITES     
 C1C    0.000 C2C    0.000                                  GLONASS COD/PHS/BIS 
    18                                                      LEAP SECONDS        
  9 R01  1 R08  6 R13 -2 R14 -7 R15  0 R17  4 R18 -3 R23  3 GLONASS SLOT / FRQ #
    R24  2                                                  GLONASS SLOT / FRQ #
                                                            END OF HEADER       
> 2025 03 17 06 42  2.0000000  0 52
C03                                  36665501.361 7 147636780.84707  36665502.889 5 155143737.82905
C04                                  38429376.241 6 154739164.93906  38429377.707 5 162607272.74105
C06  39414423.535 4                  39414434.721 5 158705512.65205
C07  36032979.456 6                  36032969.674 7 145089838.65807  36032967.842 6 152467276.09306
C09  38669608.327 5                  38669612.539 6 155706465.71906
C10  36886762.518 6                  36886755.210 7 148527681.78207  36886753.581 6 156079921.08106
C12  22364293.215 6                  22364286.278 7  90051719.08107  22364284.822 6  94630611.47606
C16  39731820.921 5                  39731845.192 6 159983557.42606
C19  26527902.297 5                                                  26527900.727 5 112248228.91005
C21  25410746.981 5                                                  25410753.790 5 107521279.25305
C22  24273239.494 6                                                  24273233.030 6 102708001.81406
C24  22564025.038 6                                                  22564020.763 6  95475734.75206
C25  23826521.927 6                                                  23826520.645 6 100817814.04206
C26  25348680.040 4
C34  23026771.489 6                                                  23026771.163 6  97433806.73806
C35  25177540.462 5                                                  25177540.116 5 106534397.43905
C38  37202650.786 6                                                  37202647.891 6 157416588.08606
C40  36346678.408 6                                                  36346673.785 6 153794672.03506
C44  22205912.929 6                                                  22205909.406 6  93960465.58006
E13  23456923.352 7 123266976.63707  23456926.702 6  92050031.36506  23456923.417 7  94451292.42907
E15  26314710.369 6 138284703.64606  26314717.713 6 103264590.24806  26314713.812 6 105958418.69706
E21  23727909.860 7 124691023.22007  23727912.642 6  93113437.96506  23727909.562 7  95542457.06307
E23  27025905.046 6 142022116.49806  27025916.843 5 106055564.90705  27025912.606 6 108822181.33406
E26  25147158.294 6 132149220.55406  25147164.611 6  98682914.87806  25147160.832 7 101257216.95807
E27  24495210.159 7 128723189.63807  24495216.175 6  96124473.16306  24495212.338 7  98632039.72607
E30  28992479.559 3                                                  28992505.162 4
G01  22740732.879 6 119503359.28806  22740734.141 4  93119517.11404
G02  25016983.463 6 131465121.06106  25016986.610 3 102440385.96703
G03  21102429.592 7 110894046.42807  21102431.541 7  86410945.03607
G06  22798317.134 6 119806003.64706  22798325.229 6  93355337.36106
G14  19973087.849 7 104959303.50907  19973087.593 6  81786462.45706
G17  21274837.144 7 111800055.24207  21274835.167 7  87116902.96007
G19  22269090.536 6 117024878.04706  22269090.594 5  91188211.79205
G22  20980817.252 7 110254933.84607  20980815.723 5  85912931.46405
G30  23961815.806 5 125920075.93905  23961840.313 4  98119720.77104
I02  38858495.094 6 152489094.44206
I03  39660953.115 6 155638105.37306
I10  36523062.607 6 143324346.05206
J02  37356123.594 7 196307750.45207
J03  38985542.469 7 204870411.60507
R01  22493180.106 5 120239074.83105  22493180.851 6  93519239.94006
R08  23603382.755 5 126395020.57305  23603369.632 6  98307214.66306
R13  23179974.293 4
R14  19686282.463 7 104938927.86907  19686281.237 7  81619170.60007
R15  20935196.861 7 111871380.03407  20935191.618 7  87011049.72807
R17  20930624.766 7 112004035.00007  20930617.003 7  87114205.60807
R18  23966132.773 5 127932888.92305  23966151.339 6  99503428.41306
R23  24587164.640 5 131524743.24105
R24  20707208.759 7 110730761.63607  20707201.405 7  86123876.96007
S30  37295143.799 7 195987285.48307
S43  36915474.716 7 193992107.45207
S44  38336402.323 6 201459135.48906
> 2025 03 17 06 42  3.0000000  0 52
C03                                  36665553.071 7 147636986.80607  36665553.852 5 155143954.23105
C04                                  38429423.551 7 154739353.25207  38429424.373 5 162607470.61905
C06  39414829.599 4                  39414840.973 5 158707147.23405
C07  36032971.606 6                  36032962.827 7 145089809.40407  36032960.599 6 152467245.34406
C09  38670006.140 5                  38670011.405 6 155708070.18606
C10  36886726.968 6                  36886720.662 7 148527540.77807  36886718.563 6 156079772.88006
C12  22364354.435 6                  22364348.588 8  90051967.88908  22364346.688 6  94630872.91306
C16  39732210.174 5                  39732235.511 6 159985126.65506
C19  26528159.725 5                                                  26528158.082 5 112249318.28005
C21  25410262.978 5                                                  25410269.735 5 107519232.30605
C22  24273046.673 6                                                  24273039.945 5 102707184.53705
C24  22564420.590 6                                                  22564416.386 6  95477408.47406
C25  23826363.419 6                                                  23826362.116 6 100817142.80106
C26  25349356.328 5                                                  25349373.642 5
C34  23026610.137 6                                                  23026609.885 6  97433124.05806
C35  25177978.336 6                                                  25177977.901 5 106536250.03105
C38  37202440.272 6                                                  37202437.139 6 157415696.59806
C40  36346671.188 6                                                  36346666.492 6 153794640.75506
C44  22206131.942 7                                                  22206128.210 6  93961391.20806
E13  23457114.156 7 123267979.35407  23457117.449 6  92050780.20406  23457114.707 7  94452060.79607
E15  26315220.140 6 138287382.38806  26315227.317 6 103266590.64206  26315223.939 7 105960471.29207
E21  23727809.285 7 124690494.66107  23727811.964 6  93113043.30906  23727809.445 7  95542052.12007
E23  27025459.316 6 142019775.35206  27025471.246 6 106053816.72106  27025467.543 6 108820387.53606
E26  25146916.950 6 132147952.51906  25146923.226 6  98681968.04406  25146920.001 7 101256245.40807
E27  24495616.579 7 128725325.65707  24495622.500 6  96126068.27506  24495619.237 7  98633676.46807
E30  28993079.020 3                                                  28993103.952 4
G01  22741336.608 7 119506530.52007  22741337.511 4  93121988.20504
G02  25017578.169 6 131468246.72506  25017581.403 3 102442821.54103
G03  21102574.316 7 110894806.67907  21102576.131 7  86411537.44507
G06  22797939.152 6 119804017.36706  22797947.193 6  93353789.62506
G14  19973189.398 7 104959837.65207  19973189.165 6  81786878.67706  19973187.614 8  81786862.72618
G17  21274747.584 7 111799584.82507  21274745.587 7  87116536.40807
G19  22268750.839 7 117023092.04007  22268750.621 5  91186820.11005
G22  20980638.265 7 110253991.99107  20980636.429 5  85912197.56005
G30  23962392.009 5 125923103.24005  23962416.392 4  98122079.67004
I02  38858488.983 6 152489069.81106
I03  39660671.683 6 155637000.87806
I10  36523134.293 6 143324627.61206
J02  37356030.314 7 196307260.94807  37356029.789 7 152966695.36117
J03  38985699.344 7 204871236.61507  38985697.345 7 159639910.48517
R01  22492788.404 5 120236982.68405  22492789.634 6  93517612.74406
R08  23603532.913 6 126395824.53306  23603519.790 6  98307839.98206
R13  23180864.110 5
R14  19686666.495 7 104940975.34507  19686665.213 7  81620763.09507
R15  20934814.031 7 111869334.66707  20934808.912 7  87009458.90207
R17  20930519.677 7 112003473.37407  20930511.892 7  87113768.78907
R18  23965756.993 5 127930878.53905  23965774.742 6  99501864.83106
R23  24587735.109 5 131527792.99505
R24  20707565.230 7 110732669.43407  20707558.098 7  86125360.81807
S30  37295191.047 7 195987534.48607
S43  36915526.806 7 193992383.49207
S44  38336450.067 6 201459388.82206
> 2025 03 17 06 42  4.0000000  0 52
C03                                  36665604.557 7 147637192.87007  36665604.748 5 155144170.76705
C04                                  38429470.691 7 154739541.66507  38429471.034 5 162607668.60805
C06  39415234.741 4                  39415246.970 5 158708781.84605
C07  36032963.930 6                  36032955.861 7 145089780.23907  36032953.296 6 152467214.69206
C09  38670404.680 5                  38670410.125 6 155709674.79006
C10  36886691.702 6                  36886685.940 7 148527399.83207  36886683.573 5 156079624.76005
C12  22364415.749 6                  22364410.768 8  90052216.88208  22364408.465 6  94631134.55506
C16  39732599.589 5                  39732625.546 6 159986695.94106
C19  26528417.625 5                                                  26528415.386 5 112250408.14305
C21  25409779.061 5                                                  25409785.806 5 107517185.42505
C22  24272853.881 6                                                  24272846.909 5 102706367.73505
C24  22564816.569 6                                                  22564811.986 6  95479082.66306
C25  23826205.255 6                                                  23826203.514 6 100816472.15606
C26  25350033.224 4                                                  25350050.606 4
C34  23026449.065 6                                                  23026448.459 6  97432441.58806
C35  25178416.497 5                                                  25178415.669 5 106538102.74905
C38  37202229.992 6                                                  37202226.420 6 157414805.33906
C40  36346664.235 6                                                  36346658.970 6 153794609.55806
C44  22206351.120 6                                                  22206346.906 6  93962317.02106
E13  23457305.044 7 123268982.52307  23457308.339 7  92051529.33307  23457305.881 7  94452829.47707
E15  26315729.905 6 138290061.33506  26315737.147 6 103268591.15306  26315733.969 7 105962524.00507
E21  23727708.811 7 124689966.66607  23727711.492 7  93112649.03307  23727709.206 7  95541647.56707
E23  27025014.126 6 142017434.49706  27025025.865 6 106052068.67806  27025022.314 7 108818593.90907
E26  25146675.896 6 132146684.94706  25146681.893 6  98681021.48706  25146679.033 7 101255274.16607
E27  24496023.210 7 128727462.21507  24496028.981 7  96127663.76207  24496026.075 7  98635313.57407
E30                                                                  28993702.931 4
G01  22741940.188 6 119509702.02506  22741940.943 4  93124459.52604
G02  25018173.314 6 131471372.44606  25018176.201 3 102445257.18003
G03  21102719.035 7 110895567.79907  21102720.914 7  86412130.54707
G06  22797561.408 6 119802031.60606  22797569.243 6  93352242.30206
G14  19973291.304 7 104960372.62307  19973290.908 6  81787295.55406  19973289.875 8  81787279.59308
G17  21274658.076 7 111799114.69307  21274656.060 7  87116170.09007
G19  22268411.073 6 117021306.26006  22268410.729 5  91185428.61305
G22  20980459.247 7 110253050.79307  20980457.246 5  85911464.17705
G30  23962968.552 5 125926130.76905  23962992.503 4  98124438.75304  23962992.489 6  98124447.70116
I02  38858482.968 6 152489045.29406
I03  39660390.302 6 155635896.47606
I10  36523206.015 7 143324909.25407
J02  37355937.207 7 196306771.66807  37355937.316 7 152966314.11007
J03  38985856.455 7 204872061.75507  38985855.113 7 159640553.46107
R01  22492397.021 5 120234891.17905  22492398.332 6  93515986.01306
R08  23603683.656 5 126396629.40005  23603670.321 6  98308465.99706
R13  23181752.563 4
R14  19687050.966 7 104943023.80707  19687049.294 7  81622356.33707
R15  20934431.601 7 111867290.16507  20934425.871 7  87007868.75307
R17  20930414.850 7 112002912.13207  20930407.002 7  87113332.28907
R18  23965381.749 5 127928868.53805  23965397.992 5  99500301.55705
R23  24588304.985 5 131530842.76305
R24  20707921.724 7 110734577.49707  20707914.742 7  86126844.87007
S30  37295238.857 7 195987783.66807
S43  36915579.174 7 193992659.71707
S44  38336499.044 6 201459642.33906
> 2025 03 17 06 42  5.0000000  0 52
C03  36665660.241 6 190927713.27316  36665655.856 7 147637399.03107  36665655.492 5 155144387.43205
C04                                  38429517.487 7 154739730.20107  38429517.575 5 162607866.71805
C06  39415639.857 4                  39415652.538 5 158710416.53005
C07  36032956.366 6                  36032948.815 7 145089751.17807  36032945.947 6 152467184.14106
C09  38670802.957 5                  38670808.787 6 155711279.53806
C10  36886656.146 6                  36886651.170 7 148527258.99107  36886648.320 5 156079476.76905
C12  22364477.184 6                  22364472.753 8  90052466.08708  22364470.292 6  94631396.42506
C16  39732988.813 5                  39733015.596 6 159988265.27906
C19  26528674.850 5                                                  26528672.934 5 112251498.54205
C21  25409295.151 5                                                  25409301.976 5 107515138.75405
C22  24272661.019 6                                                  24272653.779 5 102705551.37205
C24  22565212.220 6                                                  22565207.647 6  95480757.31206
C25  23826046.699 6                                                  23826045.019 6 100815802.01006
C26  25350710.304 4                                                  25350727.529 4
C34  23026288.099 6                                                  23026287.124 6  97431759.33706
C35  25178854.292 6                                                  25178853.122 5 106539955.54205
C38  37202019.417 6                                                  37202015.642 6 157413914.30206
C40  36346656.836 6                                                  36346651.412 6 153794578.45106
C44  22206570.121 6                                                  22206565.529 6  93963243.03406
E13  23457496.008 7 123269986.13707  23457499.371 7  92052278.76407  23457496.891 7  94453598.45607
E15  26316239.712 6 138292740.47106  26316247.134 6 103270591.77806  26316243.798 7 105964576.83507
E21  23727608.417 7 124689439.23207  23727611.183 7  93112255.16307  23727608.828 7  95541243.41307
E23  27024568.621 6 142015093.92206  27024580.449 6 106050320.85606  27024576.967 7 108816800.47507
E26  25146434.704 6 132145417.82306  25146440.879 6  98680075.24806  25146437.975 7 101254303.24807
E27  24496429.924 7 128729599.30007  24496435.609 7  96129259.61007  24496432.784 7  98636951.05307
E30  28994272.321 3                                                  28994301.515 4
G01  22742543.928 6 119512873.82106  22742544.518 4  93126931.06404  22742543.946 7  93126912.07017
G02  25018768.348 6 131474498.22406  25018770.873 3 102447692.86103
G03  21102864.010 7 110896329.81007  21102865.893 7  86412724.33207
G06  22797183.499 6 119800046.36906  22797191.422 6  93350695.38506
G14  19973393.322 7 104960908.42707  19973392.830 6  81787713.07206  19973392.061 8  81787697.07508
G17  21274568.635 7 111798644.82707  21274566.610 7  87115803.97407
G19  22268071.305 6 117019520.70506  22268070.885 5  91184037.28605
G22  20980280.439 7 110252110.26007  20980278.225 5  85910731.30405
G30  23963544.610 5 125929158.44805  23963568.676 4  98126797.95604  23963568.890 6  98126806.87006
I02  38858476.749 6 152489020.92106
I03  39660108.986 6 155634792.19706
I10  36523277.799 7 143325191.03707
J02  37355844.185 7 196306282.62407  37355844.530 7 152965933.01607
J03  38986013.371 7 204872887.02907  38986012.474 7 159641196.51307
R01  22492005.673 5 120232800.30005  22492007.309 6  93514359.77606
R08  23603833.701 5 126397435.18705  23603820.708 6  98309092.71806
R13  23182642.881 4
R14  19687435.576 7 104945073.25107  19687433.726 7  81623950.34407
R15  20934048.875 7 111865246.59007  20934043.327 7  87006279.30507
R17  20930310.102 7 112002351.34407  20930302.304 7  87112896.12507
R18  23965005.695 5 127926858.90805  23965020.895 5  99498738.53005
R23  24588875.032 5 131533892.52205
R24  20708278.544 7 110736485.81007  20708271.670 7  86128329.11207
S30  37295285.268 7 195988033.04907
S43  36915631.854 7 193992936.12307
S44  38336546.895 6 201459896.04706
> 2025 03 17 06 42  6.0000000  0 52
C03  36665710.954 6 190927980.00706  36665706.841 7 147637605.27507  36665706.514 5 155144604.14205
C04                                  38429564.117 7 154739918.79607  38429564.035 5 162608064.90005
C06  39416045.531 4                  39416058.235 5 158712051.33105
C07  36032948.603 6                  36032941.625 7 145089722.15307  36032938.608 6 152467153.64806
C09  38671201.231 5                  38671207.271 6 155712884.36706
C10  36886620.674 6                  36886616.208 7 148527118.18207  36886613.154 5 156079328.81205
C12  22364538.490 6                  22364534.676 8  90052715.44008  22364531.952 6  94631658.47206
C16  39733377.897 5                  39733405.530 6 159989834.66806
C19  26528932.434 5                                                  26528930.792 5 112252589.36805
C21  25408811.246 5                                                  25408818.167 5 107513092.14805
C22  24272467.982 6                                                  24272460.749 5 102704735.39205
C24  22565608.049 6                                                  22565603.302 6  95482432.36906
C25  23825888.340 6                                                  23825886.559 6 100815132.34706
C26  25351385.930 4                                                  25351404.224 4
C34  23026126.628 6                                                  23026125.766 6  97431077.25606
C35  25179291.987 5                                                  25179290.853 5 106541808.42605
C38  37201808.580 6                                                  37201804.938 6 157413023.46206
C40  36346649.224 6                                                  36346643.922 6 153794547.36206
C44  22206789.057 6                                                  22206784.277 6  93964169.19006
E13  23457686.859 7 123270990.06707  23457690.424 7  92053028.44907  23457687.838 7  94454367.70707
E15  26316749.449 6 138295419.67606  26316757.071 6 103272592.47806  26316753.570 7 105966629.71907
E21  23727508.053 7 124688912.23607  23727510.990 7  93111861.61507  23727508.492 7  95540839.60807
E23  27024123.156 6 142012753.49206  27024135.232 6 106048573.13306  27024131.496 7 108815007.16607
E26  25146193.524 6 132144151.03506  25146199.860 6  98679129.27306  25146196.893 7 101253332.59907
E27  24496836.554 7 128731736.75707  24496842.449 7  96130855.76207  24496839.520 7  98638588.85007
E30  28994870.544 3                                                  28994899.349 4
G01  22743147.457 6 119516045.77306  22743148.116 4  93129402.70904  22743147.794 7  93129383.71607
G02  25019363.055 6 131477623.98006  25019365.666 3 102450128.51103
G03  21103009.135 7 110897092.59107  21103011.015 7  86413318.70707
G06  22796805.186 6 119798061.52506  22796813.695 6  93349148.76606  22796813.802 7  93349136.78417
G14  19973495.311 7 104961444.92107  19973494.886 6  81788131.11906  19973494.385 8  81788115.11808
G17  21274479.218 7 111798175.13807  21274477.200 7  87115437.98707
G19  22267731.502 6 117017735.26206  22267731.073 5  91182646.03805
G22  20980101.553 7 110251170.25407  20980099.311 5  85909998.83605
G30  23964120.856 5 125932186.21705  23964144.862 4  98129157.19904  23964145.175 6  98129166.11106
I02  38858470.639 6 152488996.65006
I03  39659827.819 6 155633687.95206
I10  36523349.774 7 143325472.88107
J02  37355751.125 6 196305793.69206  37355751.677 7 152965552.02707
J03  38986170.341 7 204873712.31507  38986169.776 7 159641839.58207
R01  22491614.468 5 120230710.00105  22491616.642 6  93512734.00906
R08  23603984.710 5 126398241.80605  23603971.325 6  98309720.09106
R13  23183532.390 4
R14  19687820.310 6 104947123.57806  19687818.263 7  81625545.05007
R15  20933666.667 7 111863203.81307  20933661.048 7  87004690.48307
R17  20930205.132 7 112001790.93807  20930197.454 7  87112460.25407
R18  23964628.951 5 127924849.56505  23964643.786 6  99497175.71806
R23  24589445.501 5 131536942.17405
R24  20708635.400 7 110738394.29007  20708628.474 7  86129813.48707
S30  37295333.463 6 195988282.46406
S43  36915684.936 7 193993212.60807
S44  38336597.156 6 201460149.79206
> 2025 03 17 06 42  7.0000000  0 52
C03  36665762.042 6 190928246.78506  36665757.854 7 147637811.55907  36665757.673 5 155144820.92705
C04                                  38429610.662 7 154740107.44307  38429610.795 5 162608263.14805
C06  39416451.590 4                  39416464.087 5 158713686.14005
C07  36032940.994 6                  36032934.398 7 145089693.18407  36032931.272 6 152467123.21206
C09  38671599.952 5                  38671605.848 6 155714489.30506
C10  36886585.205 6                  36886581.094 7 148526977.39907  36886578.031 6 156079180.86506
C12  22364600.196 6                  22364596.484 8  90052964.93408  22364593.836 6  94631920.64706
C16  39733766.922 5                  39733795.272 6 159991404.05606
C19  26529190.178 5                                                  26529188.389 5 112253680.63805
C21  25408327.200 5                                                  25408334.521 5 107511045.56005
C22  24272275.183 6                                                  24272267.753 5 102703919.84305
C24  22566003.636 6                                                  22565999.097 6  95484107.85206
C25  23825729.874 6                                                  23825728.318 6 100814463.13806
C26  25352062.545 5                                                  25352081.223 4
C34  23025965.153 6                                                  23025964.455 6  97430395.30706
C35  25179729.585 6                                                  25179728.714 5 106543661.33005
C38  37201597.585 6                                                  37201594.369 6 157412132.77806
C40  36346641.569 6                                                  36346636.459 6 153794516.33406
C44  22207007.747 7                                                  22207002.990 6  93965095.48006
E13  23457877.758 7 123271994.33807  23457881.568 7  92053778.37507  23457878.753 7  94455137.20107
E15  26317259.025 6 138298098.97106  26317267.022 6 103274593.22506  26317263.214 7 105968682.66707
E21  23727407.654 7 124688385.69207  23727410.788 7  93111468.41407  23727408.123 7  95540436.14607
E23  27023677.922 6 142010413.24106  27023689.833 6 106046825.52906  27023686.003 7 108813213.98807
E26  25145952.374 6 132142884.60706  25145958.797 6  98678183.55206  25145955.768 7 101252362.20907
E27  24497243.303 7 128733874.65207  24497249.293 7  96132452.22007  24497246.194 7  98640226.95907
E30  28995471.029 3                                                  28995498.032 4
G01  22743750.983 6 119519217.89506  22743751.735 4  93131874.49204  22743751.606 7  93131855.48407
G02  25019957.587 6 131480749.67406  25019960.409 3 102452564.10603
G03  21103154.442 7 110897856.15407  21103156.302 7  86413913.69207
G06  22796427.799 6 119796077.09706  22796436.040 6  93347602.46206  22796436.250 7  93347590.48207
G14  19973597.393 7 104961982.12707  19973597.094 6  81788549.72206  19973596.259 8  81788533.73108
G17  21274389.856 7 111797705.61007  21274387.821 7  87115072.12207  21274387.347 7  87115050.12517
G19  22267391.707 6 117015949.93106  22267391.266 5  91181254.87605
G22  20979922.635 7 110250230.80207  20979920.513 5  85909266.79705
G30  23964696.745 5 125935214.04905  23964721.053 4  98131516.49904  23964721.438 6  98131525.39706
I02  38858464.426 6 152488972.39606
I03  39659546.399 6 155632583.76006
I10  36523421.601 7 143325754.76607
J02  37355657.988 7 196305304.89407  37355658.509 7 152965171.14107
J03  38986327.151 7 204874537.62207  38986326.527 7 159642482.68607
R01  22491223.627 5 120228620.24805  22491225.378 6  93511108.66206
R08  23604135.550 5 126399049.26405  23604121.941 6  98310348.11806
R13  23184423.522 4
R14  19688205.335 7 104949174.80907  19688203.046 7  81627140.42807
R15  20933284.725 7 111861161.83507  20933279.093 7  87003102.27107
R17  20930100.370 7 112001230.90107  20930092.863 7  87112024.67307
R18  23964252.583 5 127922840.52505  23964267.463 6  99495613.17306
R23  24590016.336 5 131539991.71605
R24  20708992.378 7 110740303.01407  20708985.369 7  86131298.04107
S30  37295379.959 6 195988531.96606
S43  36915737.518 7 193993489.17307
S44  38336645.637 6 201460403.63806
> 2025 03 17 06 42  8.0000000  0 52
C03  36665813.703 6 190928513.76906  36665808.955 7 147638018.03107  36665808.967 5 155145037.87305
C04                                  38429657.511 7 154740296.27207  38429657.402 5 162608461.56905
C06  39416857.739 4                  39416869.908 5 158715321.06505
C07  36032934.081 6                  36032927.109 7 145089664.37407  36032923.928 5 152467092.93205
C09  38671998.525 5                  38672004.530 6 155716094.43406
C10  36886550.461 6                  36886546.034 7 148526836.77607  36886542.896 5 156079033.06605
C12  22364661.879 6                  22364658.393 8  90053214.69808  22364655.755 6  94632183.11306
C16  39734156.252 5                  39734184.933 6 159992973.56906
C19  26529448.237 5                                                  26529446.410 5 112254772.53605
C21  25407843.653 5                                                  25407850.944 5 107508999.24205
C22  24272082.363 6                                                  24272074.903 5 102703104.80505
C24  22566399.772 6                                                  22566395.056 6  95485783.84006
C25  23825571.757 6                                                  23825570.246 6 100813794.52006
C26  25352740.532 4                                                  25352758.231 4
C34  23025804.254 6                                                  23025803.205 6  97429713.66706
C35  25180167.574 6                                                  25180166.562 5 106545514.40205
C38  37201387.023 6                                                  37201383.739 6 157411242.41606
C40  36346634.360 6                                                  36346629.059 6 153794485.44506
C44  22207226.752 6                                                  22207221.844 6  93966022.01706
E13  23458068.953 7 123272999.09207  23458072.800 7  92054528.68007  23458069.820 7  94455907.07407
E15  26317769.001 6 138300778.48306  26317776.925 6 103276594.17706  26317772.957 7 105970735.79807
E21  23727307.526 7 124687859.75007  23727310.640 7  93111075.65807  23727307.889 7  95540033.14807
E23  27023232.744 6 142008073.32206  27023244.544 6 106045078.20806  27023240.562 7 108811421.05907
E26  25145711.463 6 132141618.65906  25145717.932 6  98677238.23106  25145714.739 7 101251392.21107
E27  24497650.138 6 128736013.09506  24497656.226 7  96134049.11107  24497652.988 7  98641865.49607
E30                                                                  28996097.230 4
G01  22744354.354 6 119522390.32406  22744355.396 4  93134346.50404  22744355.525 7  93134327.50907
G02  25020552.270 6 131483875.48306  25020555.211 3 102454999.80703
G03  21103299.879 7 110898620.63807  21103301.764 7  86414509.39207  21103302.090 7  86414484.41117
G06  22796050.137 6 119794093.22106  22796058.496 6  93346056.59406  22796058.934 7  93346044.62107
G14  19973699.656 7 104962520.19907  19973699.463 6  81788968.99406  19973698.697 8  81788953.01008
G17  21274300.490 7 111797236.41107  21274298.509 7  87114706.51107  21274298.424 7  87114684.52207
G19  22267052.008 6 117014164.86406  22267051.530 5  91179863.91505
G22  20979744.022 7 110249292.04807  20979741.876 5  85908535.29805
G30  23965272.840 5 125938242.06305  23965297.302 4  98133875.93804  23965297.342 6  98133884.91206
I02  38858458.120 6 152488948.36106
I03  39659265.257 6 155631479.75106
I10  36523493.531 7 143326036.84707
J02  37355564.956 6 196304816.35706  37355565.669 7 152964790.47107
J03  38986484.314 7 204875363.10207  38986483.785 7 159643125.91807
R01  22490832.843 5 120226531.20705  22490834.387 6  93509483.86406
R08  23604286.243 5 126399857.72605  23604272.694 6  98310976.91106
R13  23185313.437 4
R14  19688590.156 6 104951227.03906  19688588.135 7  81628736.61707
R15  20932902.693 6 111859120.78206  20932897.029 7  87001514.79307
R17  20929995.938 7 112000671.38907  20929988.277 7  87111589.50907
R18  23963875.730 4 127920831.92604  23963890.649 5  99494050.98605
R23  24590586.905 5 131543041.36705
R24  20709349.541 7 110742212.10907  20709342.484 7  86132782.88907
S30  37295427.734 6 195988781.69906
S43  36915790.918 7 193993765.95507
S44  38336692.759 6 201460657.70106
> 2025 03 17 06 42  9.0000000  0 52
C03  36665865.354 6 190928780.78006  36665860.222 7 147638224.49007  36665860.105 5 155145254.83905
C04                                  38429704.557 7 154740485.09607  38429704.274 5 162608659.98505
C06  39417264.026 4                  39417275.930 5 158716955.95405
C07  36032927.345 6 187632877.22516  36032919.824 7 145089635.53907  36032916.774 5 152467062.63605
C09  38672397.703 5 201377331.17915  38672403.190 6 155717699.57506
C10  36886515.562 6 192077705.77516  36886510.850 7 148526696.10407  36886507.899 6 156078885.26206
C12  22364724.002 6 116459057.68116  22364720.332 8  90053464.54908  22364717.759 6  94632445.67406
C16  39734546.334 5 206908212.75915  39734574.509 6 159994543.05906
C19  26529706.904 5 138147142.10115                                  26529704.404 5 112255864.78705
C21  25407360.451 5 132302820.59215                                  25407367.062 5 107506952.87805
C22  24271890.045 6 126390087.91616                                  24271882.362 5 102702290.09305
C24  22566796.342 6 117511248.95016                                  22566791.150 6  95487460.17406
C25  23825413.958 6 124065128.20516                                  23825412.179 6 100813126.31506
C26  25353418.542 5                                                  25353435.316 4
C34  23025643.307 6 119900565.27816                                  23025642.163 6  97429032.09606
C35  25180605.616 6 131122013.86516                                  25180604.426 5 106547367.47305
C38  37201176.919 6 193716390.57116                                  37201173.281 6 157410352.14006
C40  36346627.169 7 189266445.45817                                  36346621.665 6 153794454.52106
C44  22207445.928 7 115640017.43117                                  22207440.869 6  93966948.63206
E13  23458260.230 7 123274004.08607  23458264.056 7  92055279.16407  23458260.988 7  94456677.13607
E15  26318278.893 6 138303457.97906  26318286.833 6 103278595.09906  26318282.745 7 105972788.93107
E21  23727207.532 7 124687334.16007  23727210.699 7  93110683.17007  23727207.775 7  95539630.42407
E23  27022787.247 6 142005733.48606  27022799.300 6 106043330.91906  27022795.223 7 108809628.20207
E26  25145470.560 6 132140352.98406  25145477.118 6  98676293.08106  25145473.779 7 101250422.41107
E27  24498057.070 7 128738151.86007  24498063.223 7  96135646.23407  24498059.868 7  98643504.28507
E30                                                                  28996696.043 4
G01  22744958.000 6 119525562.83406  22744959.105 4  93136818.59104  22744958.854 7  93136799.59607
G02  25021147.011 6 131487001.19506  25021150.067 3 102457435.42403
G03  21103445.540 7 110899385.81507  21103447.369 7  86415105.63607  21103447.745 7  86415080.64007
G06  22795672.762 6 119792109.67106  22795681.024 6  93344510.98306  22795681.588 7  93344499.00207
G14  19973801.991 7 104963058.88907  19973801.966 6  81789388.75206  19973801.210 8  81789372.76908
G17  21274211.092 7 111796767.29307  21274209.229 7  87114340.96807  21274209.166 7  87114318.97307
G19  22266712.086 6 117012379.82306  22266711.803 5  91178472.98105
G22  20979565.369 7 110248353.74207  20979563.324 5  85907804.15205
G30  23965848.964 5 125941270.11405  23965873.569 4  98136235.41104  23965873.730 6  98136244.37806
I02  38858452.144 6 152488924.27706
I03  39658983.967 6 155630375.71206
I10  36523565.473 7 143326318.90607
J02  37355471.862 7 196304327.85507  37355472.699 7 152964409.81907
J03  38986641.489 7 204876188.50407  38986640.862 7 159643769.09107
R01  22490442.099 5 120224442.60905  22490444.136 6  93507859.40306
R08  23604437.604 5 126400666.92905  23604423.523 6  98311606.28406
R13  23186202.440 4
R14  19688975.170 6 104953280.06506  19688973.309 7  81630333.42207
R15  20932520.629 7 111857080.45807  20932515.178 7  86999927.88007
R17  20929891.598 7 112000112.13107  20929883.754 7  87111154.52307
R18  23963499.132 5 127918823.56805  23963515.023 5  99492488.96605
R23  24591156.619 5 131546090.83805
R24  20709706.549 7 110744121.26207  20709699.562 7  86134267.79607
S30  37295474.208 6 195989031.40506
S43  36915844.283 7 193994042.72107
S44  38336741.062 6 201460911.74406
> 2025 03 17 06 42 10.0000000  0 52
C03  36665916.805 6 190929047.73906  36665911.405 7 147638430.92507  36665911.372 5 155145471.77405
C04                                  38429751.267 7 154740673.88307  38429751.110 5 162608858.37205
C06  39417670.760 4                  39417681.695 5 158718590.85105
C07  36032920.479 6 187632839.91106  36032912.620 7 145089606.67907  36032909.460 5 152467032.30305
C09  38672796.657 5 201379407.04105  38672801.933 6 155719304.74206
C10  36886480.693 6 192077523.82106  36886475.846 7 148526555.40607  36886472.863 5 156078737.40005
C12  22364786.453 6 116459380.88106  22364782.259 8  90053714.45908  22364779.745 6  94632708.27706
C16  39734936.667 5 206910242.39505  39734964.155 6 159996112.47406
C19  26529965.314 5 138148486.74805                                  26529962.576 5 112256957.42405
C21  25406876.909 5 132300302.20805                                  25406883.264 5 107504906.51805
C22  24271697.922 6 126389085.65406                                  24271689.772 5 102701475.67205
C24  22567192.556 6 117513312.32606                                  22567187.365 6  95489136.83506
C25  23825256.362 6 124064306.31906                                  23825254.345 6 100812458.48706
C26  25354096.454 5                                                  25354112.708 4
C34  23025482.346 6 119899726.57206                                  23025481.198 6  97428350.57306
C35  25181043.836 6 131124294.27406                                  25181042.298 5 106549220.47105
C38  37200966.702 6 193715295.05806                                  37200962.900 6 157409461.93206
C40  36346620.110 7 189266407.32507                                  36346614.310 6 153794423.54106
C44  22207665.202 7 115641157.81707                                  22207659.800 6  93967875.28406
E13  23458451.497 7 123275009.31207  23458455.361 7  92056029.81807  23458452.203 8  94457447.36908
E15  26318788.824 6 138306137.47906  26318796.763 6 103280596.00006  26318792.536 7 105974842.02107
E21  23727107.483 7 124686808.91707  23727110.660 7  93110290.94807  23727107.764 7  95539227.96607
E23  27022342.033 6 142003393.68406  27022354.091 6 106041583.67406  27022349.922 7 108807835.37607
E26  25145229.810 6 132139087.56106  25145236.290 6  98675348.11706  25145232.915 7 101249452.79807
E27  24498464.123 7 128740290.93107  24498470.338 7  96137243.58507  24498466.815 7  98645143.30907
E30  28997265.567 3                                                  28997295.079 4
G01  22745561.655 6 119528735.41206  22745562.814 4  93139290.72304  22745562.706 7  93139271.72807
G02  25021741.909 6 131490126.75106  25021744.864 3 102459870.92103
G03  21103591.216 7 110900151.66807  21103593.099 7  86415702.40507  21103593.578 7  86415677.40707
G06  22795295.419 6 119790126.42006  22795303.601 6  93342965.59806  22795303.577 7  93342953.63307
G14  19973904.634 7 104963598.19607  19973904.576 6  81789808.99106  19973903.859 8  81789792.99908
G17  21274121.754 7 111796298.23407  21274119.957 7  87113975.47107  21274119.890 7  87113953.46807
G19  22266372.306 6 117010594.78706  22266372.094 5  91177082.05105
G22  20979386.880 7 110247415.88307  20979384.853 5  85907073.35905
G30  23966425.032 5 125944298.12405  23966449.827 4  98138594.85304  23966449.802 6  98138603.78106
I02  38858446.129 6 152488900.19206
I03  39658702.665 6 155629271.63306
I10  36523637.172 7 143326600.96007
J02  37355378.966 6 196303839.36406  37355379.825 7 152964029.17707
J03  38986798.604 7 204877013.81307  38986798.081 7 159644412.19407
R01  22490051.397 5 120222354.43305  22490053.142 6  93506235.30106
R08  23604590.101 5 126401476.83905  23604575.019 6  98312236.21706
R13  23187092.159 4
R14  19689360.596 6 104955333.93306  19689358.508 7  81631930.86307
R15  20932139.082 7 111855040.86407  20932133.621 7  86998341.52007
R17  20929787.248 7 111999553.08307  20929779.226 7  87110719.71407
R18  23963121.756 5 127916815.38405  23963139.149 6  99490927.05206
R23  24591726.108 5 131549139.99005
R24  20710063.690 7 110746030.49407  20710056.611 7  86135752.74507
S30  37295522.917 6 195989281.08406
S43  36915895.483 7 193994319.45907
S44  38336787.965 6 201461165.75606
> 2025 03 17 06 42 11.0000000  0 52
C03  36665968.327 6 190929314.89306  36665962.582 7 147638637.47807  36665962.899 5 155145688.84005
C04                                  38429798.045 7 154740862.78707  38429797.995 5 162609056.89805
C06  39418078.264 4                  39418087.474 5 158720225.74605
C07  36032913.388 6 187632802.74406  36032905.439 7 145089577.93307  36032902.266 5 152467002.09105
C09  38673195.759 5 201381483.06405  38673200.434 6 155720910.05106
C10  36886446.022 6 192077341.99006  36886440.916 7 148526414.78707  36886438.059 5 156078589.61105
C12  22364848.984 6 116459704.34606  22364844.262 8  90053964.57708  22364841.816 6  94632971.11906
C16  39735326.618 5 206912272.13905  39735353.916 6 159997681.94206
C19  26530223.655 5 138149832.00405                                  26530221.102 5 112258050.54305
C21  25406393.072 5 132297783.94905                                  25406399.635 5 107502860.26005
C22  24271505.268 6 126388084.00406                                  24271497.390 5 102700661.73605
C24  22567588.788 7 117515376.29007                                  22567583.734 6  95490813.94306
C25  23825098.534 6 124063485.11506                                  23825096.541 6 100811791.16106
C26  25354773.319 5                                                  25354790.079 4
C34  23025321.209 6 119898888.15706                                  23025320.203 6  97427669.29806
C35  25181481.699 6 131126574.83606                                  25181480.400 5 106551073.59005
C38  37200756.369 6 193714199.84706                                  37200752.552 6 157408571.97706
C40  36346612.930 7 189266369.33307                                  36346607.070 6 153794392.64106
C44  22207884.105 7 115642298.45707                                  22207878.901 6  93968802.12306
E13  23458642.842 7 123276014.93807  23458646.772 7  92056780.77707  23458643.509 8  94458217.91708
E15  26319298.614 6 138308817.10506  26319306.690 6 103282597.02006  26319302.432 7 105976895.25407
E21  23727007.622 7 124686284.19307  23727010.817 7  93109899.11207  23727007.875 7  95538825.91007
E23  27021896.807 6 142001054.14406  27021908.947 6 106039836.63106  27021904.692 7 108806042.75807
E26  25144988.919 6 132137822.53306  25144995.552 6  98674403.47006  25144992.099 7 101248483.50307
E27  24498871.170 7 128742430.47907  24498877.533 7  96138841.29107  24498873.894 7  98646782.69807
E30  28997865.686 3                                                  28997893.279 4
G01  22746165.225 6 119531908.22506  22746166.608 4  93141763.04004  22746166.459 7  93141744.03607
G02  25022336.629 6 131493252.33506  25022339.616 3 102462306.42203
G03  21103737.012 7 110900918.35407  21103738.990 7  86416299.82407  21103739.451 7  86416274.82207
G06  22794918.071 6 119788143.63706  22794926.268 6  93341420.58706  22794926.151 7  93341408.62007
G14  19974007.345 7 104964138.27807  19974007.329 6  81790229.83506  19974006.608 8  81790213.84208
G17  21274032.559 7 111795829.42307  21274030.726 7  87113610.16507  21274030.437 7  87113588.17707
G19  22266032.483 6 117008809.96206  22266032.411 5  91175691.28105
G22  20979208.577 7 110246478.64807  20979206.489 5  85906343.04505
G30  23967000.690 5 125947326.25305  23967026.125 4  98140954.38804  23967026.256 6  98140963.34406
I02  38858439.990 6 152488876.25506
I03  39658421.226 6 155628167.67206
I10  36523709.033 7 143326883.12207
J02  37355286.184 7 196303351.07107  37355286.951 7 152963648.68107
J03  38986955.585 7 204877839.23107  38986955.068 7 159645055.36407
R01  22489660.910 5 120220266.89705  22489662.658 6  93504611.65606
R08  23604741.601 6 126402287.61606  23604726.657 6  98312866.82606
R13  23187982.647 4
R14  19689745.967 6 104957388.82606  19689744.109 7  81633529.10607
R15  20931757.614 7 111853002.12807  20931752.116 7  86996755.84207
R17  20929682.880 7 111998994.43707  20929675.054 7  87110285.20807
R18  23962745.023 5 127914807.51005  23962762.913 6  99489365.43306
R23  24592295.893 5 131552189.17705
R24  20710420.860 7 110747940.00107  20710413.476 7  86137237.90807
S30  37295570.276 7 195989530.89607
S43  36915948.937 7 193994596.34307
S44  38336835.328 6 201461419.91306
> 2025 03 17 06 42 12.0000000  0 52
C03  36666019.750 6 190929582.09206  36666013.867 7 147638844.11707  36666014.161 5 155145905.97205
C04                                  38429844.850 7 154741051.80307  38429844.880 5 162609255.51405
C06  39418484.672 4                  39418493.595 5 158721860.78005
C07  36032906.560 6 187632765.65206  36032898.214 7 145089549.26307  36032895.355 6 152466971.94906
C09  38673594.751 5 201383559.22905  38673598.956 6 155722515.48106
C10  36886411.392 6 192077160.20406  36886405.902 7 148526274.24107  36886403.168 5 156078441.94205
C12  22364911.659 6 116460028.02706  22364906.307 8  90054214.87508  22364904.121 6  94633234.13906
C16  39735716.654 5 206914301.90505  39735743.575 6 159999251.47306
C19  26530481.738 5 138151177.89105                                  26530479.503 5 112259144.20905
C21  25405909.723 5 132295265.85805                                  25405916.135 5 107500814.11505
C22  24271312.580 6 126387082.83406                                  24271305.247 5 102699848.22105
C24  22567985.175 6 117517440.73606                                  22567980.354 6  95492491.51206
C25  23824940.852 6 124062664.51806                                  23824939.061 6 100811124.38906
C26  25355450.573 5                                                  25355466.970 4
C34  23025160.206 6 119898049.94406                                  23025159.220 6  97426988.19706
C35  25181919.593 6 131128855.44006                                  25181918.419 5 106552926.78505
C38  37200545.661 6 193713104.85306                                  37200542.246 6 157407682.21506
C40  36346605.456 6 189266331.37706                                  36346599.786 6 153794361.83206
C44  22208102.874 6 115643439.26206                                  22208098.042 6  93969729.15206
E13  23458834.236 7 123277020.95107  23458838.201 7  92057532.01407  23458834.916 7  94458988.76207
E15  26319808.478 6 138311496.87406  26319816.669 6 103284598.13806  26319812.349 7 105978948.58407
E21  23726907.770 7 124685759.97607  23726911.108 7  93109507.65107  23726908.053 7  95538424.23807
E23  27021451.631 5 141998714.81105  27021463.852 6 106038089.75106  27021459.422 7 108804250.29407
E26  25144748.084 6 132136557.91406  25144754.967 6  98673459.11606  25144751.389 7 101247514.52107
E27  24499278.421 6 128744570.48806  24499284.833 7  96140439.34207  24499281.068 7  98648422.44207
E30                                                                  28998491.618 4
G01  22746768.704 6 119535081.24906  22746770.420 4  93144235.52504  22746770.227 7  93144216.52907
G02  25022931.761 6 131496377.94206  25022934.333 3 102464741.95503
G03  21103883.096 7 110901685.87507  21103885.033 7  86416897.88907  21103885.071 7  86416872.89707
G06  22794540.622 6 119786161.32406  22794549.015 6  93339875.93906  22794548.821 7  93339863.97207
G14  19974110.128 7 104964679.12207  19974110.235 6  81790651.26706  19974109.536 8  81790635.28108
G17  21273943.363 7 111795360.83207  21273941.535 7  87113245.02607  21273941.187 7  87113223.04207
G19  22265692.811 6 117007025.28406  22265692.796 5  91174300.62905
G22  20979030.224 7 110245542.01007  20979028.232 5  85905613.19505
G30  23967577.370 5 125950354.53805  23967602.441 4  98143314.04304  23967602.482 6  98143322.98606
I02  38858433.896 6 152488852.43706
I03  39658139.931 6 155627063.79406
I10  36523780.944 7 143327165.38007
J02  37355193.162 6 196302862.94806  37355194.072 7 152963268.33207
J03  38987112.683 7 204878664.70307  38987112.178 7 159645698.59607
R01  22489269.983 5 120218179.96805  22489272.074 6  93502988.49906
R08  23604893.225 5 126403099.28905  23604878.452 6  98313498.15506
R13  23188873.086 4
R14  19690131.538 6 104959444.71106  19690129.999 7  81635128.12007
R15  20931376.135 6 111850964.24506  20931370.852 7  86995170.83607
R17  20929578.883 7 111998436.22107  20929570.826 7  87109851.03907
R18  23962368.185 4 127912800.06904  23962386.921 6  99487804.08706
R23  24592865.899 4 131555238.33904
R24  20710777.928 7 110749849.76607  20710770.893 7  86138723.28907
S30  37295617.662 6 195989780.83906
S43  36916001.263 7 193994873.34807
S44  38336883.581 6 201461674.19206
> 2025 03 17 06 42 13.0000000  0 52
C03  36666071.089 6 190929849.39906  36666065.255 7 147639050.80007  36666065.531 5 155146123.16305
C04  38429896.079 5 200114552.16515  38429891.904 7 154741240.84907  38429891.948 5 162609454.18805
C06  39418890.498 4                  39418899.722 5 158723495.84805
C07  36032899.667 6 187632728.64406  36032891.030 7 145089520.64107  36032888.398 6 152466941.87306
C09  38673994.044 5 201385635.52805  38673997.638 6 155724120.98806
C10  36886376.744 6 192076978.47306  36886370.976 7 148526133.71207  36886368.317 6 156078294.26506
C12  22364974.378 6 116460351.89706  22364968.454 8  90054465.31308  22364966.390 6  94633497.32706
C16  39736106.840 5 206916331.68005  39736133.463 6 160000820.99506
C19  26530739.938 5 138152524.28105                                  26530738.122 5 112260238.24305
C21  25405426.419 5 132292747.82305                                  25405432.733 5 107498768.04905
C22  24271120.284 6 126386082.16906                                  24271113.306 5 102699035.11005
C24  22568381.421 6 117519505.71506                                  22568377.062 6  95494169.45706
C25  23824783.096 6 124061844.49006                                  23824781.634 6 100810458.03706
C26  25356127.366 5                                                  25356144.278 4
C34  23024999.264 6 119897211.93306                                  23024998.317 6  97426307.23906
C35  25182357.816 6 131131136.13206                                  25182356.483 5 106554780.02005
C38  37200335.559 6 193712010.08306                                  37200332.008 6 157406792.63106
C40  36346597.945 7 189266293.47007                                  36346592.590 6 153794331.03106
C44  22208322.021 7 115644580.24507                                  22208317.189 6  93970656.28106
E13  23459025.769 7 123278027.28707  23459029.735 7  92058283.48307  23459026.385 7  94459759.83707
E15  26320318.253 6 138314176.70906  26320326.566 6 103286599.32006  26320322.264 7 105981001.95307
E21  23726808.077 7 124685236.20807  23726811.537 7  93109116.50607  23726808.357 7  95538022.89207
E23  27021006.373 6 141996375.65606  27021018.708 6 106036342.95406  27021014.291 7 108802457.94407
E26  25144507.433 6 132135293.63506  25144514.374 6  98672515.00606  25144510.768 7 101246545.77707
E27  24499685.541 7 128746710.90507  24499692.190 7  96142037.69307  24499688.376 7  98650062.48507
E30                                                                  28999090.422 4
G01  22747372.592 6 119538254.43906  22747374.282 4  93146708.13604  22747374.105 7  93146689.12907
G02  25023526.402 6 131499503.51306  25023529.059 3 102467177.46403
G03  21104029.064 7 110902454.17107  21104031.220 7  86417496.55907  21104031.300 7  86417471.56007
G06  22794163.369 6 119784179.43106  22794171.847 6  93338331.61006  22794171.681 7  93338319.63007
G14  19974213.201 7 104965220.68407  19974213.283 6  81791073.26406  19974212.555 8  81791057.25908
G17  21273854.233 7 111794892.40907  21273852.376 7  87112880.02207  21273851.967 7  87112858.01707
G19  22265353.015 6 117005240.71106  22265353.194 5  91172910.05505
G22  20978852.015 7 110244605.90607  20978850.078 5  85904883.76305
G30  23968153.910 5 125953382.87305  23968178.771 4  98145673.73704  23968178.666 6  98145682.65306
I02  38858428.057 6 152488828.65406
I03  39657858.632 6 155625959.93906
I10  36523852.943 7 143327447.67707
J02  37355100.274 7 196302374.95307  37355101.261 7 152962888.04807
J03  38987269.628 7 204879490.20507  38987269.149 7 159646341.82507
R01  22488879.543 5 120216093.57005  22488882.171 6  93501365.74606
R08  23605044.703 6 126403911.79706  23605029.814 6  98314130.09306
R13  23189765.626 4
R14  19690517.214 6 104961501.43506  19690515.875 7  81636727.79607
R15  20930995.055 7 111848927.14607  20930989.698 7  86993586.40807
R17  20929475.112 7 111997878.36907  20929466.530 7  87109417.16207
R18  23961992.620 5 127910792.84405  23962010.929 6  99486242.95206
R23  24593436.394 5 131558287.32505
R24  20711135.079 7 110751759.68407  20711128.221 7  86140208.77807
S30  37295666.541 6 195990030.86506
S43  36916054.512 7 193995150.43607
S44  38336935.524 6 201461928.53706
> 2025 03 17 06 42 14.0000000  0 52
C03  36666122.338 6 190930116.86706  36666116.531 7 147639257.61907  36666117.085 6 155146340.49306
C04  38429943.286 5 200114796.84905  38429938.789 7 154741430.02807  38429939.209 5 162609652.98305
C06  39419297.045 4                  39419305.400 5 158725130.98505
C07  36032892.620 6 187632691.79106  36032883.934 7 145089492.12707  36032881.557 6 152466911.92906
C09  38674393.154 5 201387712.02505  38674396.386 6 155725726.64206
C10  36886342.092 6 192076796.88106  36886336.091 7 148525993.25707  36886333.465 6 156078146.67206
C12  22365036.807 6 116460676.08406  22365030.730 8  90054715.97108  22365028.703 6  94633760.72306
C16  39736496.958 5 206918361.61005  39736523.095 6 160002390.60806
C19  26530998.507 5 138153871.34405                                  26530996.755 5 112261332.85805
C21  25404942.668 5 132290229.97305                                  25404949.188 5 107496722.14405
C22  24270928.244 6 126385082.08506                                  24270921.380 6 102698222.45306
C24  22568778.062 6 117521571.28906                                  22568773.907 6  95495847.88406
C25  23824625.778 6 124061025.14606                                  23824624.400 6 100809792.24306
C26  25356805.067 5                                                  25356821.877 5
C34  23024838.509 6 119896374.19906                                  23024837.450 6  97425626.49806
C35  25182795.846 6 131133416.97606                                  25182794.373 6 106556633.39206
C38  37200125.495 6 193710915.63006                                  37200121.968 6 157405903.27406
C40  36346590.793 7 189266255.69707                                  36346585.395 6 153794300.32406
C44  22208541.184 7 115645721.49907                                  22208536.434 6  93971583.62706
E13  23459217.226 7 123279034.06507  23459221.358 7  92059035.28607  23459217.990 8  94460531.23908
E15  26320828.246 6 138316856.72906  26320836.528 6 103288600.60506  26320832.260 7 105983055.43707
E21  23726708.436 7 124684712.98207  23726711.973 7  93108725.76607  23726708.783 8  95537621.96008
E23  27020561.365 6 141994036.76506  27020573.596 6 106034596.37306  27020569.150 7 108800665.78407
E26  25144266.892 6 132134029.80406  25144273.863 6  98671571.21706  25144270.249 7 101245577.37007
E27  24500092.831 7 128748851.82907  24500099.653 7  96143636.41607  24500095.812 7  98651702.90407
E30                                                                  28999688.993 4
G01  22747976.349 6 119541427.88606  22747978.157 4  93149180.94504  22747977.863 7  93149161.93307
G02  25024120.772 6 131502629.11906  25024123.852 3 102469612.99103
G03  21104175.285 7 110903223.32907  21104177.567 7  86418095.89807  21104177.594 7  86418070.88307
G06  22793786.096 6 119782198.04406  22793794.773 6  93336787.68206  22793794.441 7  93336775.67407
G14  19974316.221 7 104965763.04507  19974316.466 6  81791495.87506  19974315.725 8  81791479.85408
G17  21273765.007 7 111794424.24507  21273763.261 7  87112515.21507  21273762.925 7  87112493.20807
G19  22265013.440 6 117003456.35406  22265013.592 5  91171519.64705
G22  20978673.894 7 110243670.45807  20978672.041 5  85904154.84005
G30  23968730.393 5 125956411.37105  23968755.132 4  98148033.55404  23968754.952 6  98148042.46506
I02  38858421.870 6 152488805.02106
I03  39657577.543 6 155624856.19906
I10  36523924.840 7 143327730.10807
J02  37355007.023 7 196301887.16607  37355008.318 7 152962507.94507
J03  38987426.575 7 204880315.80907  38987426.199 7 159646985.14007
R01  22488489.310 5 120214007.80405  22488491.497 6  93499743.52506
R08  23605196.520 5 126404725.23005  23605182.011 6  98314762.77206
R13  23190656.284 4
R14  19690902.930 6 104963559.11606  19690902.002 7  81638328.22407
R15  20930613.884 7 111846890.90307  20930608.491 7  86992002.68307
R17  20929371.387 7 111997321.00807  20929362.264 7  87108983.66907
R18  23961616.174 5 127908785.98205  23961634.737 6  99484682.10006
R23  24594006.589 4 131561336.35304
R24  20711492.294 7 110753669.85707  20711485.507 7  86141694.46907
S30  37295714.987 6 195990281.04206
S43  36916108.082 7 193995427.69507
S44  38336984.117 6 201462183.08606
> 2025 03 17 06 42 15.0000000  0 52
C03  36666173.954 6 190930384.44106  36666168.085 7 147639464.54007  36666168.584 6 155146557.93006
C04                                  38429985.916 7 154741619.31907  38429986.299 5 162609851.86505
C06  39419703.108 4                  39419711.055 5 158726766.21605
C07  36032885.982 6 187632655.02906  36032876.821 7 145089463.71007  36032874.541 6 152466882.05406
C09  38674792.007 5 201389788.67705  38674795.084 6 155727332.45006
C10  36886307.802 6 192076615.36506  36886301.272 7 148525852.91707  36886298.598 6 156077999.18806
C12  22365099.186 6 116461000.47606  22365093.013 8  90054966.83408  22365090.995 6  94634024.32606
C16  39736887.226 5 206920391.58705  39736912.839 6 160003960.29806
C19  26531256.928 5                                                  26531255.786 5 112262427.94205
C21  25404459.044 5 132287712.26705                                  25404465.736 5 107494676.35005
C22  24270735.945 6 126384082.52806                                  24270729.559 6 102697410.24606
C24  22569174.521 6 117523637.37706                                  22569170.823 6  95497526.76206
C25  23824468.422 6 124060206.39906                                  23824467.155 6 100809126.95406
C26  25357482.469 4                                                  25357498.987 5
C34  23024677.560 6 119895536.70006                                  23024676.659 6  97424945.97606
C35  25183233.890 5 131135697.89305                                  25183232.653 6 106558486.82806
C38  37199915.230 6 193709821.41306                                  37199912.070 6 157405014.15006
C40  36346583.282 6 189266218.01606                                  36346578.313 6 153794269.70106
C44  22208760.038 6 115646862.93806                                  22208755.750 6  93972511.14506
E13  23459408.720 7 123280041.19007  23459412.964 6  92059787.38206  23459409.632 8  94461302.95508
E15  26321338.311 6 138319536.85806  26321346.453 6 103290601.99906  26321342.244 7 105985109.06907
E21  23726608.852 7 124684190.22807  23726612.466 6  93108335.42706  23726609.288 7  95537221.42807
E23  27020116.252 5 141991698.06005  27020128.536 6 106032849.96906  27020124.122 7 108798873.82907
E26  25144026.271 6 132132766.35206  25144033.373 6  98670627.76006  25144029.760 7 101244609.29107
E27  24500500.316 6 128750993.18506  24500507.121 6  96145235.48906  24500503.296 7  98653343.70107
E30                                                                  29000287.712 4
G01  22748580.165 6 119544601.53806  22748582.072 4  93151653.89704  22748581.804 7  93151634.91607
G02  25024715.025 5 131505754.72305  25024718.578 3 102472048.49003
G03  21104321.584 6 110903993.30906  21104324.075 7  86418695.87007  21104324.107 7  86418670.89007
G06  22793408.881 6 119780217.08206  22793417.779 6  93335244.06706  22793417.476 7  93335232.08907
G14  19974419.512 7 104966306.15307  19974419.774 6  81791919.06006  19974419.122 8  81791903.07808
G17  21273675.953 7 111793956.29607  21273674.181 7  87112150.56807  21273673.871 7  87112128.58807
G19  22264673.915 6 117001672.16106  22264674.035 5  91170129.35505
G22  20978495.821 7 110242735.58807  20978494.110 5  85903426.35205
G30  23969306.729 5 125959439.97205  23969331.506 4  98150393.45604  23969331.522 6  98150402.38806
I02  38858415.747 6 152488781.50506
I03  39657295.994 6 155623752.57006
I10  36523996.889 7 143328012.65107
J02  37354913.915 6 196301399.53006  37354915.467 7 152962127.98807
J03  38987583.590 6 204881141.46506  38987583.288 7 159647628.53107
R01  22488099.017 5 120211922.71905  22488101.686 6  93498121.75806
R08  23605348.840 5 126405539.54705  23605333.985 6  98315396.11106
R13  23191546.257 4
R14  19691288.810 6 104965617.75506  19691288.131 7  81639929.36107
R15  20930232.643 7 111844855.56007  20930227.640 7  86990419.61307
R17  20929267.475 7 111996764.07007  20929258.235 7  87108550.46307
R18  23961239.346 5 127906779.50205  23961258.726 5  99483121.50405
R23  24594575.982 4 131564385.39204
R24  20711849.756 7 110755580.34107  20711842.649 7  86143180.36307
S30  37295764.411 6 195990531.33506
S43  36916161.705 7 193995705.05007
S44  38337034.320 6 201462437.70006
> 2025 03 17 06 42 16.0000000  0 52
C03  36666225.342 6 190930652.05006  36666219.522 7 147639671.53707  36666220.178 6 155146775.43306
C04                                  38430033.118 7 154741808.67407  38430033.546 5 162610050.84705
C06  39420108.313 4                  39420117.288 5 158728401.47105
C07  36032879.367 6 187632618.28606  36032869.890 7 145089435.35907  36032867.587 6 152466852.24006
C09  38675191.206 5 201391865.41205  38675193.988 6 155728938.35906
C10  36886273.292 6 192076433.82906  36886266.507 7 148525712.60207  36886263.872 6 156077851.72306
C12  22365161.583 6 116461325.00406  22365155.389 8  90055217.84608  22365153.495 6  94634288.08006
C16  39737277.572 5 206922421.49605  39737302.722 6 160005530.00106
C19  26531515.609 5                                                  26531514.939 5 112263523.48305
C21  25403975.628 5 132285194.58805                                  25403982.233 5 107492630.59805
C22  24270544.573 6 126383083.40306                                  24270537.859 6 102696598.42706
C24  22569571.847 7 117525703.94207                                  22569567.751 6  95499206.04806
C25  23824311.811 6 124059388.18806                                  23824310.142 6 100808462.11706
C26  25358159.857 5                                                  25358176.094 5
C34  23024517.199 6 119894699.34406                                  23024515.938 6  97424265.59606
C35  25183672.426 6 131137978.84406                                  25183670.888 5 106560340.32005
C38  37199705.595 6 193708727.36206                                  37199702.168 6 157404125.18406
C40  36346576.324 7 189266180.31207                                  36346571.180 6 153794239.10306
C44  22208979.941 7 115648004.50807                                  22208975.091 6  93973438.81406
E13  23459600.545 7 123281048.66207  23459604.746 7  92060539.70507  23459601.498 7  94462074.92507
E15  26321848.501 6 138322217.05706  26321856.412 6 103292603.45406  26321852.437 7 105987162.74507
E21  23726509.579 7 124683667.93807  23726513.086 7  93107945.38807  23726510.016 7  95536821.24707
E23  27019671.172 6 141989359.54906  27019683.501 6 106031103.67506  27019679.258 7 108797082.00707
E26  25143786.088 6 132131503.24106  25143793.001 6  98669684.52406  25143789.522 7 101243641.47007
E27  24500908.018 7 128753134.95107  24500914.710 6  96146834.85206  24500910.993 7  98654984.80707
E30                                                                  29000886.539 4
G01  22749184.199 7 119547775.36007  22749186.049 4  93154126.99904  22749185.506 7  93154107.99607
G02  25025309.999 6 131508880.30306  25025313.366 3 102474484.01603
G03  21104468.340 7 110904764.05907  21104470.736 7  86419296.45407  21104470.649 7  86419271.45607
G06  22793032.000 6 119778236.50906  22793040.857 6  93333700.77306  22793040.324 7  93333688.80607
G14  19974523.240 7 104966849.97607  19974523.243 6  81792342.81506  19974522.302 8  81792326.82108
G17  21273586.909 7 111793488.50707  21273585.129 7  87111786.05707  21273584.562 6  87111764.07006
G19  22264334.552 7 116999888.07207  22264334.514 5  91168739.16305
G22  20978318.126 7 110241801.27207  20978316.283 5  85902698.31405
G30  23969883.146 5 125962468.63805  23969907.845 4  98152753.40504  23969907.775 6  98152762.33806
I02  38858409.696 6 152488758.03806
I03  39657014.758 6 155622648.95706
I10  36524069.034 7 143328295.22607
J02  37354821.276 7 196300912.03107  37354822.496 7 152961748.10107
J03  38987740.819 7 204881967.15207  38987740.061 7 159648271.91007
R01  22487708.759 5 120209838.15005  22487711.799 6  93496500.44706
R08  23605500.854 6 126406354.68006  23605486.395 6  98316030.07906
R13  23192437.246 4
R14  19691675.390 7 104967677.30107  19691674.354 7  81641531.18207
R15  20929852.037 7 111842821.03707  20929847.157 7  86988837.18207
R17  20929163.895 7 111996207.45407  20929154.402 7  87108117.51607
R18  23960863.043 5 127904773.34505  23960883.204 6  99481561.16406
R23  24595146.780 5 131567434.29905
R24  20712207.235 7 110757491.02207  20712199.937 7  86144666.43507
S30  37295811.448 7 195990781.68307
S43  36916213.133 7 193995982.48407
S44  38337083.472 6 201462692.39306
> 2025 03 17 06 42 17.0000000  0 52
C03  36666277.258 6 190930919.76806  36666270.776 7 147639878.54507  36666271.557 5 155146992.96205
C04                                  38430079.950 7 154741998.06107  38430080.735 5 162610249.83405
C06  39420514.909 4                  39420523.789 5 158730036.73805
C07  36032872.800 6 187632581.63806  36032862.856 7 145089407.00607  36032860.457 6 152466822.43406
C09  38675590.536 5 201393942.29205  38675592.930 6 155730544.31206
C10  36886238.731 6 192076252.37106  36886231.651 7 148525572.28507  36886229.035 6 156077704.26706
C12  22365224.213 7 116461649.78107  22365217.793 8  90055468.96808  22365215.839 6  94634551.97106
C16  39737667.725 5 206924451.46705  39737692.571 6 160007099.69206
C19  26531775.173 5                                                  26531773.859 5 112264619.45605
C21  25403492.809 6 132282677.06406                                  25403498.605 5 107490584.90305
C22  24270353.365 6 126382084.82706                                  24270345.944 6 102695786.97806
C24  22569969.519 7 117527771.02007                                  22569964.660 6  95500885.69406
C25  23824155.329 6 124058570.59506                                  23824153.171 6 100807797.74606
C26  25358838.260 5                                                  25358853.124 5
C34  23024356.874 7 119893862.20507                                  23024355.205 6  97423585.33506
C35  25184110.878 6 131140259.88206                                  25184108.883 5 106562193.82705
C38  37199496.295 6 193707633.55906                                  37199492.147 6 157403236.35706
C40  36346569.578 7 189266142.68507                                  36346563.874 6 153794208.50206
C44  22209199.772 7 115649146.27707                                  22209194.274 6  93974366.56906
E13  23459792.376 7 123282056.42007  23459796.525 7  92061292.26707  23459793.275 7  94462847.12107
E15  26322358.506 6 138324897.32206  26322366.528 6 103294604.94906  26322362.540 7 105989216.45107
E21  23726410.437 7 124683146.05207  23726413.756 7  93107555.68107  23726410.711 7  95536421.36807
E23  27019226.097 6 141987021.15306  27019238.486 6 106029357.48406  27019234.332 7 108795290.27707
E26  25143545.966 6 132130240.44506  25143552.805 6  98668741.53806  25143549.243 7 101242673.89707
E27  24501315.748 6 128755277.10006  24501322.424 6  96148434.51406  24501318.614 7  98656626.20507
E30                                                                  29001485.486 4
G01  22749788.389 6 119550949.30506  22749789.946 4  93156600.19504  22749788.937 7  93156581.21407
G02  25025905.073 6 131512005.78106  25025907.949 3 102476919.44403
G03  21104615.435 7 110905535.55307  21104617.463 7  86419897.61607  21104617.025 6  86419872.64706
G06  22792655.681 6 119776256.35306  22792663.949 6  93332157.79806  22792663.002 6  93332145.84306
G14  19974627.003 7 104967394.47207  19974626.774 6  81792767.09206  19974625.554 7  81792751.12307
G17  21273498.133 7 111793020.85407  21273496.050 7  87111421.65107  21273495.198 6  87111399.68106
G19  22263995.519 6 116998104.05506  22263994.921 5  91167349.01705
G22  20978140.680 7 110240867.44907  20978138.500 5  85901970.66305
G30  23970459.842 5 125965497.35905  23970484.170 4  98155113.39204  23970483.846 6  98155122.35206
I02  38858403.640 6 152488734.67706
I03  39656733.384 6 155621545.38506
I10  36524141.003 7 143328577.85207
J02  37354728.850 6 196300424.60206  37354729.454 7 152961368.30807
J03  38987898.207 7 204882792.82407  38987896.780 7 159648915.30107
R01  22487318.965 5 120207754.13205  22487322.267 6  93494879.57806
R08  23605652.683 5 126407170.60805  23605639.064 6  98316664.73006
R13  23193326.460 4
R14  19692061.863 6 104969737.68006  19692060.986 8  81643133.71308
R15  20929471.354 7 111840787.27807  20929466.826 7  86987255.40107
R17  20929060.148 7 111995651.09807  20929050.782 7  87107684.82507
R18  23960488.057 5 127902767.44405  23960507.308 6  99480001.05006
R23  24595716.759 4 131570483.08004
R24  20712564.576 7 110759401.86107  20712557.614 7  86146152.65307
S30  37295856.983 6 195991032.07506
S43  36916264.284 7 193996259.96707
S44  38337131.877 6 201462947.14206
> 2025 03 17 06 42 18.0000000  0 52
C03  36666329.294 6 190931187.65606  36666322.070 7 147640085.59107  36666323.016 5 155147210.52805
C04                                  38430126.924 6 154742187.45906  38430127.942 5 162610448.89805
C06  39420922.359 4                  39420930.314 5 158731672.02705
C07  36032866.382 6 187632545.14206  36032855.679 7 145089378.67907  36032853.383 6 152466792.68306
C09  38675990.207 5 201396019.38305  38675991.660 6 155732150.31006
C10  36886204.309 6 192076071.06606  36886196.718 7 148525431.96907  36886194.266 6 156077556.83306
C12  22365287.136 6 116461974.85006  22365280.076 7  90055720.22107  22365278.205 6  94634816.01606
C16  39738058.176 5 206926481.62505  39738082.340 6 160008669.35906
C19  26532035.169 5                                                  26532032.914 5 112265715.85505
C21  25403009.892 5 132280159.67205                                  25403014.953 5 107488539.27505
C22  24270162.251 6 126381086.80506                                  24270154.293 6 102694975.90306
C24  22570367.049 7 117529838.68107                                  22570361.769 6  95502565.73806
C25  23823998.993 6 124057753.67206                                  23823996.325 6 100807133.82306
C26  25359516.525 5                                                  25359530.316 5
C34  23024196.645 6 119893025.36006                                  23024194.468 6  97422905.22106
C35  25184549.070 6 131142541.05106                                  25184546.860 5 106564047.34705
C38  37199286.632 6 193706540.06406                                  37199282.085 6 157402347.71506
C40  36346562.788 7 189266105.17807                                  36346556.667 6 153794177.94006
C44  22209419.597 7 115650288.29507                                  22209413.688 6  93975294.45006
E13  23459984.216 7 123283064.56007  23459988.427 6  92062045.05606  23459985.022 7  94463619.54007
E15  26322868.491 6 138327577.69406  26322876.684 6 103296606.48206  26322872.487 6 105991270.18606
E21  23726311.174 7 124682624.65707  23726314.706 6  93107166.28906  23726311.387 7  95536021.80007
E23  27018781.261 5 141984682.98805  27018793.635 6 106027611.40206  27018789.316 6 108793498.63506
E26  25143305.803 6 132128978.02906  25143312.693 6  98667798.80306  25143308.921 7 101241706.54407
E27  24501723.498 6 128757419.69406  24501730.261 6  96150034.45606  24501726.232 7  98658267.87707
E30                                                                  29002084.325 3
G01  22750392.614 6 119554123.44906  22750393.884 4  93159073.54604  22750392.719 6  93159054.53706
G02  25026499.745 6 131515131.28306  25026502.666 3 102479354.88103
G03  21104762.635 7 110906307.86407  21104764.329 7  86420499.41007  21104763.611 6  86420474.39806
G06  22792279.179 6 119774276.64306  22792287.103 6  93330615.16806  22792285.982 6  93330603.17106
G14  19974730.958 7 104967939.73207  19974730.427 6  81793191.96106  19974729.015 7  81793175.94907
G17  21273409.222 7 111792553.41007  21273406.984 7  87111057.40407  21273405.958 6  87111035.40006
G19  22263656.278 6 116996320.20306  22263655.368 5  91165959.00105
G22  20977963.163 7 110239934.22507  20977960.802 5  85901243.46805
G30  23971036.310 5 125968526.22005  23971060.504 4  98157473.48804  23971060.042 5  98157482.38605
I02  38858397.814 6 152488711.35006
I03  39656452.417 6 155620441.85906
I10  36524213.231 6 143328860.53306
J02  37354636.209 6 196299937.34306  37354636.361 7 152960988.57807
J03  38988055.509 7 204883618.55007  38988053.771 7 159649558.69007
R01  22486929.358 5 120205670.64105  22486932.653 6  93493259.08106
R08  23605804.851 5 126407987.39205  23605791.867 6  98317299.95606
R13  23194214.434 4
R14  19692448.753 6 104971798.89706  19692447.960 8  81644736.88408
R15  20929090.464 7 111838754.30407  20929086.747 7  86985674.18707
R17  20928956.099 7 111995095.06107  20928946.996 7  87107252.33607
R18  23960113.149 5 127900761.80005  23960131.843 6  99478441.13206
R23  24596285.334 4 131573531.67104
R24  20712921.530 7 110761312.84107  20712915.362 7  86147638.95107
S30  37295902.298 6 195991282.57006
S43  36916314.577 7 193996537.54707
S44  38337179.147 6 201463201.99106
> 2025 03 17 06 42 19.0000000  0 52
C03  36666380.932 6 190931455.34606  36666373.390 7 147640292.74607  36666374.297 5 155147428.20205
C04                                  38430173.912 7 154742376.97507  38430175.113 5 162610648.03505
C06  39421328.561 4                  39421336.536 5 158733307.37805
C07  36032859.654 6 187632508.45006  36032848.542 7 145089350.43807  36032846.488 6 152466762.99406
C09  38676389.435 5 201398096.33505  38676390.376 6 155733756.47506
C10  36886169.874 6 192075889.55206  36886161.678 7 148525291.75807  36886159.771 6 156077409.47206
C12  22365350.016 6 116462299.84706  22365342.341 8  90055971.66208  22365340.651 6  94635080.24206
C16  39738448.376 5 206928511.47305  39738471.984 6 160010239.09106
C19  26532295.161 5                                                  26532291.959 5 112266812.73205
C21  25402526.957 5 132277642.14005                                  25402531.608 5 107486493.73105
C22  24269971.257 6 126380089.02506                                  24269962.807 6 102694165.27606
C24  22570764.744 6 117531906.59406                                  22570758.981 6  95504246.23006
C25  23823843.110 6 124056937.04206                                  23823839.632 6 100806470.39706
C26  25360193.949 5                                                  25360207.579 5
C34  23024036.626 6 119892188.44006                                  23024033.829 6  97422225.29406
C35  25184987.724 6 131144822.02106                                  25184985.179 5 106565900.96505
C38  37199077.174 6 193705446.49906                                  37199072.109 6 157401459.25906
C40  36346556.224 7 189266067.46507                                  36346549.667 6 153794147.42706
C44  22209639.687 7 115651430.20707                                  22209633.159 6  93976222.49906
E13  23460175.737 7 123284072.91107  23460180.491 6  92062798.08806  23460176.801 7  94464392.27207
E15  26323378.030 6 138330258.03706  26323386.865 6 103298608.06506  26323382.451 7 105993324.05507
E21  23726211.659 7 124682103.58407  23726215.685 6  93106777.21906  23726212.163 7  95535622.65107
E23  27018336.034 5 141982344.84505  27018348.818 6 106025865.46006  27018344.244 6 108791707.18506
E26  25143065.200 6 132127715.86006  25143072.710 6  98666856.30406  25143068.657 7 101240739.52607
E27  24502130.989 6 128759562.58106  24502138.258 6  96151634.71106  24502133.938 7  98659909.92207
E30                                                                  29002683.706 3
G01  22750996.310 6 119557297.65706  22750997.839 4  93161546.95304  22750996.809 6  93161528.05306
G02  25027095.030 5 131518256.62005  25027097.347 3 102481790.22203
G03  21104909.583 7 110907080.82707  21104911.307 7  86421101.72407  21104910.593 6  86421076.83106
G06  22791902.042 6 119772297.17906  22791910.302 6  93329072.73806  22791909.121 6  93329060.87306
G14  19974834.759 7 104968485.56807  19974834.182 6  81793617.29406  19974832.772 7  81793601.40007
G17  21273320.020 7 111792086.00507  21273317.927 7  87110693.19307  21273316.765 6  87110671.31906
G19  22263316.505 6 116994536.33606  22263315.798 5  91164568.98105
G22  20977785.493 7 110239001.41407  20977783.189 5  85900516.60905
G30  23971612.064 5 125971554.99805  23971636.847 4  98159833.51604  23971636.110 5  98159842.55805
I02  38858392.002 6 152488688.07906
I03  39656171.637 6 155619338.34806
I10  36524285.197 6 143329143.24706
J02  37354543.442 6 196299450.09206  37354543.479 7 152960609.01607
J03  38988212.409 7 204884444.17907  38988210.794 7 159650202.15107
R01  22486540.804 5 120203587.63705  22486542.827 6  93491639.03406
R08  23605956.637 5 126408804.90905  23605944.275 6  98317935.86606
R13  23195101.765 4
R14  19692835.543 6 104973861.00306  19692835.142 7  81646340.80607
R15  20928710.552 6 111836722.06306  20928706.577 7  86984093.61807
R17  20928851.852 7 111994539.29607  20928843.054 7  87106820.15707
R18  23959737.355 5 127898756.40205  23959756.283 6  99476881.46606
R23  24596856.206 4 131576580.20704
R24  20713278.851 7 110763223.87707  20713272.793 7  86149125.40007
S30  37295947.989 6 195991533.04906
S43  36916366.470 7 193996815.09707
S44  38337223.219 6 201463456.79206
> 2025 03 17 06 42 20.0000000  0 51
C03  36666432.284 6 190931723.26006  36666424.814 7 147640499.83707  36666425.309 6 155147645.87506
C04  38430226.559 5 200116274.41015  38430221.002 6 154742566.44406  38430221.739 5 162610847.14605
C06  39421734.432 4                  39421742.497 4 158734942.63504
C07  36032852.864 6 187632471.92706  36032841.559 7 145089322.13107  36032839.214 6 152466733.27606
C09  38676788.399 5 201400173.51105  38676789.260 6 155735362.60306
C10  36886135.176 6 192075708.21206  36886126.980 6 148525151.46206  36886124.820 6 156077262.08206
C12  22365412.773 7 116462625.14707  22365404.789 7  90056223.14207  22365403.085 6  94635344.54006
C16  39738838.647 5 206930541.51105  39738861.768 6 160011808.73306
C19  26532554.788 5                                                  26532551.253 5 112267910.00505
C21  25402043.487 6 132275124.82206                                  25402047.802 5 107484448.18505
C22  24269780.114 6 126379091.87406                                  24269771.249 6 102693354.97606
C24  22571162.267 7 117533975.13907                                  22571156.108 6  95505927.03706
C25  23823686.691 6 124056121.14506                                  23823682.849 6 100805807.36906
C26  25360870.984 5                                                  25360884.855 5
C34  23023876.392 7 119891351.83707                                  23023873.128 6  97421545.44306
C35  25185425.828 6 131147103.20406                                  25185423.228 6 106567754.55706
C38  37198867.581 6 193704353.29806                                  37198862.103 6 157400570.89506
C40  36346549.393 7 189266029.90607                                  36346542.449 6 153794116.86106
C44  22209859.192 7 115652572.43507                                  22209852.439 6  93977150.59106
E13  23460367.714 7 123285081.65307  23460372.521 6  92063551.33506  23460368.782 7  94465165.14107
E15  26323888.100 6 138332938.49706  26323897.051 6 103300609.69506  26323892.555 6 105995377.84406
E21  23726112.695 7 124681583.02907  23726116.586 6  93106388.46406  23726113.154 7  95535223.71807
E23  27017891.287 6 141980006.94006  27017904.060 5 106024119.59505  27017899.387 6 108789915.74906
E26  25142825.144 6 132126454.06906  25142832.584 6  98665914.04606  25142828.616 7 101239772.64907
E27  24502538.931 7 128761705.93107  24502546.170 6  96153235.21306  24502541.868 7  98661552.16307
E30                                                                  29003283.024 3
G01  22751600.408 6 119560472.07806  22751601.772 4  93164020.54704  22751600.409 6  93164001.49506
G02  25027689.712 6 131521381.97706  25027691.880 3 102484225.58303
G03  21105056.850 7 110907854.62607  21105058.419 7  86421704.69907  21105057.634 6  86421679.65606
G06  22791525.204 6 119770318.23306  22791533.585 6  93327530.73106  22791532.111 6  93327518.69506
G14  19974938.749 7 104969032.18007  19974938.057 6  81794043.23706  19974936.232 7  81794027.19407
G17  21273230.930 7 111791618.83107  21273228.875 7  87110329.18207  21273227.570 6  87110307.14606
G19  22262976.920 6 116992752.63806  22262976.218 4  91163179.11204
G22  20977607.916 7 110238069.22007  20977605.706 5  85899790.24605
G30  23972187.788 5 125974583.88905  23972213.207 4  98162193.67304  23972212.537 5  98162202.54805
I02  38858386.097 6 152488664.87106
I03  39655890.554 6 155618234.85506
I10  36524356.803 6 143329425.99306
J02  37354450.430 7 196298963.00407  37354450.339 7 152960229.33307
J03  38988369.255 7 204885269.87507  38988367.554 7 159650845.42907
R01  22486151.551 5 120201505.27305  22486152.969 6  93490019.34006
R08  23606108.998 6 126409623.26606  23606097.060 6  98318572.31906
R14  19693222.413 7 104975924.06207  19693221.880 7  81647945.32807
R15  20928330.058 7 111834690.67507  20928326.205 7  86982513.58607
R17  20928747.948 7 111993984.01807  20928739.119 7  87106388.19407
R18  23959361.595 5 127896751.27405  23959381.081 6  99475321.90806
R23  24597425.819 5 131579628.68305
R24  20713635.618 7 110765135.22707  20713630.304 7  86150611.92807
S30  37295996.439 6 195991783.63606
S43  36916420.210 7 193997092.77107
S44  38337269.787 6 201463711.73306
> 2025 03 17 06 42 21.0000000  0 52
C03  36666483.283 6 190931991.32506  36666476.036 7 147640707.07807  36666476.706 5 155147863.61705
C04  38430273.001 5 200116519.66905  38430267.570 6 154742756.05106  38430268.432 5 162611046.37905
C06  39422140.728 4                  39422148.815 4 158736578.03004
C07  36032845.615 6 187632435.54206  36032834.297 7 145089293.96907  36032832.199 6 152466703.64506
C09  38677186.947 5 201402250.87305  38677187.996 6 155736968.90106
C10  36886099.997 6 192075526.95906  36886092.103 6 148525011.28106  36886090.188 6 156077114.70006
C12  22365475.219 6 116462950.71906  22365467.094 7  90056474.86507  22365465.711 6  94635609.00706
C16  39739228.025 5 206932571.61405  39739251.497 6 160013378.48606
C19  26532814.183 5                                                  26532810.607 5 112269007.75705
C21  25401559.669 5 132272607.66905                                  25401564.490 5 107482402.76505
C22  24269588.521 6 126378095.27506                                  24269579.868 5 102692545.07505
C24  22571559.498 6 117536044.24206                                  22571553.450 6  95507608.27306
C25  23823530.012 6 124055305.88706                                  23823526.446 6 100805144.82906
C26  25361547.755 5                                                  25361562.391 4
C34  23023715.505 6 119890515.47606                                  23023712.528 6  97420865.78106
C35  25185863.916 6 131149384.46406                                  25185861.322 5 106569608.20605
C38  37198657.431 6 193703260.37306                                  37198652.341 6 157399682.72806
C40  36346541.876 7 189265992.46707                                  36346535.305 6 153794086.36306
C44  22210078.253 7 115653714.86707                                  22210071.870 6  93978078.84706
E13  23460559.836 7 123286090.81407  23460564.376 6  92064304.86806  23460560.565 7  94465938.36007
E15  26324398.282 6 138335619.13506  26324407.057 6 103302611.39806  26324402.391 6 105997431.81106
E21  23726013.873 7 124681063.00507  23726017.516 6  93106000.06906  23726014.054 7  95534825.23007
E23  27017446.494 6 141977669.29906  27017458.869 5 106022373.89405  27017454.340 6 108788124.52906
E26  25142585.193 6 132125192.72206  25142592.322 6  98664972.06206  25142588.374 7 101238806.14207
E27  24502946.878 6 128763849.76406  24502953.840 6  96154836.07306  24502949.590 7  98663194.81207
E30                                                                  29003881.377 3
G01  22752204.641 6 119563646.76006  22752205.727 4  93166494.29404  22752204.452 6  93166475.31006
G02  25028284.257 6 131524507.38806  25028286.450 2 102486660.92902
G03  21105204.404 7 110908629.29207  21105205.624 7  86422308.31407  21105204.861 6  86422283.34806
G06  22791148.912 6 119768339.74706  22791156.878 6  93325989.04406  22791155.438 6  93325977.09106
G14  19975042.760 7 104969579.59007  19975042.009 6  81794469.76706  19975040.086 7  81794453.79807
G17  21273142.141 7 111791151.92307  21273139.778 6  87109965.33606  21273138.642 6  87109943.36206
G19  22262637.349 6 116990969.15306  22262636.625 4  91161789.36404
G22  20977430.481 7 110237137.66807  20977428.303 5  85899064.33505
G30  23972764.528 5 125977612.95205  23972789.519 4  98164553.91204  23972789.212 5  98164562.86905
I02  38858379.926 6 152488641.70106
I03  39655608.920 6 155617131.47106
I10  36524428.599 6 143329708.82606
J02  37354357.875 7 196298476.13907  37354357.574 7 152959850.01407
J03  38988526.232 7 204886095.67707  38988524.574 7 159651488.96407
R01  22485762.109 5 120199423.43805  22485763.768 6  93488400.14306
R08  23606261.554 5 126410442.45205  23606250.407 6  98319209.44806
R13  23196877.509 4
R14  19693609.658 6 104977988.07006  19693609.373 7  81649550.65507
R15  20927950.115 7 111832660.10407  20927946.424 7  86980934.23007
R17  20928644.173 7 111993429.11807  20928635.443 7  87105956.58007
R18  23958985.931 5 127894746.55505  23959005.728 6  99473762.67206
R23  24597994.494 4 131582677.02904
R24  20713992.933 7 110767046.76607  20713987.898 7  86152098.67407
S30  37296042.309 6 195992034.37806
S43  36916472.398 7 193997370.60807
S44  38337317.865 6 201463966.82106
> 2025 03 17 06 42 22.0000000  0 52
C03  36666534.756 6 190932259.42606  36666527.505 7 147640914.34707  36666528.156 5 155148081.46305
C04  38430320.293 6 200116764.94206  38430314.571 6 154742945.68606  38430315.527 5 162611245.69805
C06  39422547.914 5                  39422554.669 4 158738213.41104
C07  36032838.310 7 187632399.18607  36032827.191 7 145089265.81507  36032825.318 6 152466674.11906
C09  38677584.860 6 201404328.30906  38677586.991 6 155738575.25706
C10  36886064.680 7 192075345.72907  36886057.302 6 148524871.08806  36886055.355 6 156076967.45506
C12  22365537.374 7 116463276.46307  22365529.589 7  90056726.70507  22365528.268 6  94635873.70606
C16  39739617.411 6 206934601.72006  39739641.440 6 160014948.20506
C19  26533073.611 6                                                  26533070.363 5 112270105.99005
C21  25401076.011 6 132270090.56106                                  25401081.332 5 107480357.46105
C22  24269396.742 6 126377099.12506                                  24269388.530 5 102691735.63605
C24  22571956.524 7 117538113.81507                                  22571950.892 6  95509289.97206
C25  23823373.047 7 124054491.16207                                  23823370.122 6 100804482.81506
C26  25362224.186 5                                                  25362239.547 4
C34  23023554.459 7 119889679.30007                                  23023552.008 6  97420186.31206
C35  25186301.960 6 131151665.79506                                  25186299.494 5 106571461.95305
C38  37198447.125 7 193702167.62807                                  37198442.516 6 157398794.79406
C40  36346534.277 7 189265955.04107                                  36346528.167 6 153794055.94806
C44  22210297.200 7 115654857.45707                                  22210291.240 6  93979007.30406
E13  23460751.859 7 123287100.30907  23460756.527 6  92065058.68306  23460752.646 7  94466711.80007
E15  26324908.504 6 138338299.86106  26324917.328 5 103304613.19305  26324912.588 6 105999485.79506
E21  23725914.899 7 124680543.44207  23725918.650 6  93105612.03706  23725915.186 7  95534427.04807
E23  27017001.604 6 141975331.82406  27017014.293 5 106020628.34805  27017009.553 6 108786333.44006
E26  25142345.245 6 132123931.73606  25142352.575 6  98664030.39706  25142348.368 7 101237839.85607
E27  24503354.876 7 128765994.04607  24503361.942 6  96156437.26606  24503357.606 7  98664837.74207
E30                                                                  29004480.087 3
G01  22752808.661 6 119566821.62006  22752809.673 4  93168968.22004  22752808.240 6  93168949.15306
G02  25028878.387 6 131527632.76906  25028881.073 2 102489096.28902
G03  21105351.809 7 110909404.73907  21105353.014 6  86422912.57006  21105352.030 5  86422887.51405
G06  22790772.255 6 119766361.70506  22790780.269 5  93324447.73005  22790778.471 6  93324435.71106
G14  19975146.894 7 104970127.72507  19975146.126 6  81794896.89806  19975143.852 6  81794880.85006
G17  21273053.119 7 111790685.18907  21273050.743 6  87109601.65906  21273049.344 5  87109579.61205
G19  22262297.859 6 116989185.79006  22262297.068 4  91160399.74704
G22  20977253.087 7 110236206.66907  20977250.914 5  85898338.89305
G30  23973340.773 5 125980642.10405  23973365.858 4  98166914.26004  23973364.545 5  98166923.14205
I02  38858374.559 5 152488618.66805
I03  39655327.863 6 155616028.15506
I10  36524501.141 6 143329991.76606
J02  37354265.001 7 196297989.41407  37354264.512 6 152959470.66406
J03  38988683.276 7 204886921.52807  38988681.282 6 159652132.40906
R01  22485371.685 5 120197342.23805  22485373.851 5  93486781.40705
R08  23606413.925 5 126411262.52605  23606403.999 6  98319847.26306
R13  23197766.137 4
R14  19693997.007 7 104980052.96307  19693996.175 7  81651156.68407
R15  20927570.039 7 111830630.35507  20927566.128 7  86979355.53907
R17  20928540.401 7 111992874.60407  20928531.771 7  87105525.26307
R18  23958610.724 5 127892742.07605  23958629.634 5  99472203.67105
R23  24598564.190 4 131585725.32804
R24  20714350.341 7 110768958.54607  20714345.083 7  86153585.58207
S30  37296091.493 6 195992285.22506
S43  36916526.590 7 193997648.54007
S44  38337369.920 6 201464222.00906
> 2025 03 17 06 42 23.0000000  0 52
C03  36666586.229 6 190932527.57306  36666578.996 7 147641121.83207  36666579.839 5 155148299.48005
C04  38430367.482 5 200117010.30805  38430361.796 6 154743135.53406  38430363.092 5 162611445.16805
C06  39422954.282 4                  39422960.852 4 158739848.99204
C07  36032831.234 6 187632362.87606  36032820.294 7 145089237.87107  36032818.487 5 152466644.72005
C09  38677983.942 5 201406405.86605  38677986.351 6 155740181.85406
C10  36886029.548 6 192075164.52706  36886022.659 6 148524731.09806  36886020.581 5 156076820.30205
C12  22365599.753 6 116463602.37006  22365592.375 7  90056978.85207  22365590.726 6  94636138.62706
C16  39740006.934 5 206936631.83805  39740031.155 6 160016518.11006
C19  26533333.018 5                                                  26533330.052 5 112271204.76705
C21  25400592.578 5 132267573.55905                                  25400597.814 5 107478312.28705
C22  24269205.589 6 126376103.46606                                  24269197.431 5 102690926.67905
C24  22572354.288 6 117540183.87806                                  22572348.453 6  95510972.15406
C25  23823216.846 6 124053676.99406                                  23823213.899 6 100803821.34806
C26  25362901.360 5                                                  25362916.993 4
C34  23023393.783 6 119888843.29706                                  23023391.546 6  97419507.09106
C35  25186740.376 5 131153947.14305                                  25186737.753 5 106573315.84405
C38  37198237.356 6 193701075.09806                                  37198232.831 6 157397907.10506
C40  36346527.205 6 189265917.63006                                  36346521.026 6 153794025.65406
C44  22210516.481 6 115656000.19906                                  22210510.749 6  93979935.96806
E13  23460943.778 7 123288110.08507  23460948.863 6  92065812.83306  23460944.974 7  94467485.64607
E15  26325418.327 6 138340980.60606  26325427.636 5 103306615.12105  26325422.950 6 106001539.99706
E21  23725815.717 7 124680024.26007  23725820.110 6  93105224.42906  23725816.564 7  95534029.36507
E23  27016556.397 5 141972994.45305  27016569.632 5 106018883.04305  27016565.026 6 108784542.60606
E26  25142105.125 6 132122671.02606  25142112.853 6  98663089.07206  25142108.637 7 101236873.99307
E27  24503762.632 6 128768138.64406  24503770.253 6  96158038.85506  24503765.894 7  98666481.13907
E30  29005058.635 3                                                  29005079.177 3
G01  22753412.387 6 119569996.56906  22753413.628 4  93171442.22104  22753413.115 6  93171423.25306
G02  25029472.535 5 131530758.06605  25029475.669 2 102491531.60302
G03  21105499.271 6 110910180.90106  21105500.389 6  86423517.39506  21105500.215 6  86423492.43406
G06  22790395.702 6 119764383.97106  22790403.535 5  93322906.67805  22790402.532 6  93322894.75006
G14  19975251.060 7 104970676.49807  19975250.230 6  81795324.53606  19975248.586 7  81795308.57207
G17  21272964.280 7 111790218.54807  21272961.655 6  87109238.06706  21272960.917 6  87109216.12306
G19  22261957.846 6 116987402.47206  22261957.390 4  91159010.17504
G22  20977075.958 7 110235276.14307  20977073.596 5  85897613.83205
G30  23973917.173 5 125983671.25205  23973942.218 4  98169274.60604  23973941.305 5  98169283.57505
I02  38858369.007 5 152488595.79705
I03  39655047.217 6 155614924.96606
I10  36524573.635 6 143330274.82106
J02  37354171.888 6 196297502.72106  37354171.963 6 152959091.54206
J03  38988840.227 6 204887747.31206  38988838.665 6 159652775.98006
R01  22484982.180 5 120195261.58905  22484984.661 5  93485163.16805
R08  23606566.203 5 126412083.51505  23606556.820 5  98320485.83105
R13  23198655.780 4
R14  19694384.405 6 104982118.79006  19694383.239 7  81652763.45707
R15  20927190.223 6 111828601.47606  20927185.770 6  86977777.55506
R17  20928436.646 7 111992320.42707  20928427.847 7  87105094.29807
R18  23958235.379 5 127890737.96005  23958254.150 5  99470645.00705
R23  24599133.493 4 131588773.54204
R24  20714707.807 7 110770870.53007  20714701.846 6  86155072.71406
S30  37296138.369 6 195992536.06806
S43  36916579.806 7 193997926.48007
S44  38337417.900 6 201464477.20106
> 2025 03 17 06 42 24.0000000  0 52
C03  36666637.331 6 190932796.17506  36666630.258 7 147641329.46507  36666631.366 5 155148517.65305
C04  38430414.023 5 200117256.10805  38430408.587 6 154743325.52606  38430410.169 5 162611644.81305
C06  39423360.091 4                  39423366.739 4 158741484.67904
C07  36032823.763 6 187632326.97706  36032813.469 7 145089210.06907  36032811.699 5 152466615.49205
C09  38678382.557 5 201408483.86105  38678385.360 6 155741788.64406
C10  36885994.115 6 192074983.68306  36885987.838 6 148524591.23206  36885985.899 5 156076673.32205
C12  22365661.523 6 116463928.80606  22365655.050 7  90057231.23107  22365653.591 6  94636403.84806
C16  39740396.086 5 206938662.28905  39740421.330 6 160018088.11906
C19  26533591.709 5                                                  26533589.692 5 112272304.16405
C21  25400108.890 5 132265056.96205                                  25400114.949 5 107476267.35205
C22  24269013.423 6 126375108.63406                                  24269006.519 5 102690118.25705
C24  22572750.888 6 117542254.76906                                  22572746.226 6  95512654.87506
C25  23823059.494 6 124052863.77306                                  23823057.771 6 100803160.49906
C26  25363578.060 4                                                  25363594.448 4
C34  23023232.509 6 119888007.81406                                  23023231.084 6  97418828.14806
C35  25187177.518 5 131156228.90805                                  25187176.030 5 106575169.89405
C38  37198026.475 6 193699983.09606                                  37198023.174 6 157397019.72706
C40  36346519.182 6 189265880.58106                                  36346514.020 6 153793995.50806
C44  22210735.013 6 115657143.43406                                  22210730.373 6  93980864.89206
E13  23461136.069 6 123289120.48706  23461141.489 6  92066567.31606  23461137.170 7  94468259.84907
E15  26325928.639 5 138343661.71705  26325938.262 5 103308617.24605  26325933.114 6 106003594.35706
E21  23725717.032 6 124679505.83106  23725721.656 6  93104837.28106  23725717.837 7  95533632.12707
E23  27016111.740 5 141970657.58305  27016125.175 5 106017137.93305  27016120.244 6 108782752.01006
E26  25141865.584 6 132121410.96006  25141873.224 6  98662148.06506  25141868.808 7 101235908.49807
E27  24504171.037 6 128770283.96306  24504178.634 6  96159640.83306  24504174.056 7  98668124.94607
E30                                                                  29005678.508 3
G01  22754017.187 6 119573171.99106  22754017.646 4  93173916.59004  22754017.446 6  93173897.58106
G02  25030067.528 5 131533883.61605  25030070.332 2 102493967.10302
G03  21105647.188 6 110910958.14606  21105648.221 6  86424123.06206  21105648.498 6  86424098.05906
G06  22790020.128 5 119762406.97605  22790027.225 5  93321366.19305  22790026.363 6  93321354.22706
G14  19975355.845 6 104971226.29706  19975354.665 5  81795752.97205  19975353.492 7  81795736.97607
G17  21272875.701 6 111789752.39806  21272872.768 6  87108874.85706  21272872.668 6  87108852.88006
G19  22261618.788 6 116985619.57506  22261618.025 4  91157620.93404
G22  20976899.309 6 110234346.47006  20976896.556 5  85896889.43605
G30  23974493.898 5 125986700.80805  23974518.687 4  98171635.27604  23974518.084 5  98171644.18605
I02  38858362.903 5 152488573.08505
I03  39654766.527 6 155613821.92306
I10  36524645.966 6 143330558.06806
J02  37354079.613 6 196297016.48306  37354079.707 7 152958712.63307
J03  38988997.570 6 204888573.43306  38988995.931 6 159653419.70106
R01  22484593.183 5 120193181.72905  22484595.447 5  93483545.57705
R08  23606719.463 5 126412905.56305  23606710.484 6  98321125.22106
R13  23199546.916 4
R14  19694771.928 6 104984185.74506  19694770.654 7  81654371.09707
R15  20926810.791 7 111826573.66307  20926806.042 7  86976200.39007
R17  20928333.497 7 111991766.82407  20928324.213 7  87104663.72307
R18  23957859.716 5 127888734.43405  23957878.813 5  99469086.69705
R23  24599704.575 4 131591821.80704
R24  20715065.455 7 110772782.96507  20715058.849 7  86156560.18107
S30  37296185.196 6 195992787.27906
S43  36916631.811 6 193998204.78406
S44  38337465.049 5 201464732.77605
> 2025 03 17 06 42 25.0000000  0 52
C03  36666687.069 5 190933064.84205  36666681.534 6 147641537.18006  36666682.696 5 155148735.87805
C04  38430459.513 5 200117501.97405  38430455.593 6 154743515.60506  38430456.866 4 162611844.56904
C06  39423765.546 4                  39423773.604 4 158743120.44504
C07  36032816.075 6 187632291.18206  36032806.366 7 145089182.33707  36032804.736 5 152466586.33605
C09  38678781.105 5 201410562.01605  38678784.367 5 155743395.52505
C10  36885958.432 6 192074802.95306  36885953.030 6 148524451.40906  36885951.067 5 156076526.39705
C12  22365723.381 6 116464255.49206  22365717.740 7  90057483.78407  22365716.348 5  94636669.21005
C16  39740785.467 5 206940692.81905  39740810.985 6 160019658.15806
C19  26533851.399 5                                                  26533849.386 4 112273404.00804
C21  25399624.935 5 132262540.48105                                  25399631.339 4 107474222.47304
C22  24268821.880 6 126374114.32206                                  24268815.498 5 102689310.21905
C24  22573147.974 6 117544326.22206                                  22573143.930 5  95514337.98605
C25  23822902.633 6 124052051.14506                                  23822901.687 5 100802500.11205
C26  25364254.656 4                                                  25364272.440 4
C34  23023071.129 6 119887172.56606                                  23023070.565 5  97418149.36905
C35  25187614.816 5 131158510.75005                                  25187614.063 5 106577024.00905
C38  37197816.378 6 193698891.35106                                  37197813.413 5 157396132.50605
C40  36346511.427 6 189265843.64906                                  36346506.844 5 153793965.40305
C44  22210954.087 6 115658286.87806                                  22210949.871 6  93981793.95806
E13  23461328.431 6 123290131.20306  23461334.126 6  92067322.13706  23461329.438 7  94469034.33307
E15  26326438.486 5 138346342.89705  26326448.819 5 103310619.48905  26326443.243 6 106005648.78906
E21  23725618.423 6 124678987.84306  23725623.418 6  93104450.54106  23725619.145 7  95533235.25107
E23  27015666.996 5 141968320.82405  27015680.768 5 106015393.07105  27015675.424 6 108780961.55806
E26  25141626.034 5 132120151.24005  25141633.756 6  98661207.46106  25141628.994 7 101234943.28207
E27  24504579.148 6 128772429.66806  24504587.279 6  96161243.22006  24504582.320 7  98669769.08807
E30                                                                  29006277.035 3
G01  22754621.537 6 119576347.55906  22754621.789 4  93176391.05204  22754621.630 6  93176372.08306
G02  25030662.986 5 131537009.07505  25030664.964 2 102496402.54802
G03  21105795.480 6 110911736.13506  21105796.084 6  86424729.28206  21105796.569 6  86424704.31706
G06  22789643.971 5 119760430.36505  22789651.001 5  93319825.97805  22789650.091 6  93319814.04106
G14  19975460.837 6 104971776.78106  19975459.252 5  81796181.91405  19975457.939 7  81796165.95307
G17  21272787.083 6 111789286.39606  21272783.962 6  87108511.74206  21272783.580 6  87108489.79406
G19  22261279.589 6 116983836.76406  22261278.687 4  91156231.72904
G22  20976722.226 6 110233417.33806  20976719.600 5  85896165.43405
G30  23975070.595 4 125989730.36204  23975095.146 4  98173995.92104  23975093.294 5  98174004.88605
I02  38858357.195 5 152488550.56705
I03  39654485.374 6 155612719.02406
I10  36524718.515 6 143330841.44406
J02  37353987.404 6 196296530.33606  37353986.949 6 152958333.84406
J03  38989154.780 6 204889399.53106  38989152.979 6 159654063.44906
R01  22484205.276 5 120191102.45705  22484206.058 5  93481928.40305
R08  23606873.111 6 126413728.43206  23606864.455 5  98321765.31705
R13  23200438.030 4
R14  19695159.800 6 104986253.55806  19695158.762 7  81655979.45307
R15  20926431.803 7 111824546.66507  20926427.074 7  86974623.87907
R17  20928230.464 7 111991213.59707  20928220.769 7  87104233.49107
R18  23957483.748 5 127886731.14505  23957503.822 5  99467528.69705
R23  24600274.495 4 131594870.03404
R24  20715423.547 7 110774695.58907  20715416.736 7  86158047.82107
S30  37296232.800 6 195993038.53506
S43  36916682.681 6 193998483.14106
S44  38337513.365 5 201464988.37305
> 2025 03 17 06 42 26.0000000  0 52
C03  36666738.510 6 190933333.70806  36666733.141 7 147641745.04107  36666734.352 5 155148954.40505
C04  38430507.377 5 200117748.02905  38430502.809 6 154743705.84406  38430503.576 5 162612044.48105
C06  39424171.301 4                  39424180.335 4 158744756.35004
C07  36032808.417 7 187632255.53807  36032799.237 7 145089154.76107  36032797.330 5 152466557.38405
C09  38679179.606 5 201412640.33205  38679183.646 6 155745002.64906
C10  36885922.885 6 192074622.32306  36885918.197 6 148524311.73706  36885916.131 5 156076379.65005
C12  22365785.254 7 116464582.44507  22365780.261 7  90057736.60407  22365778.745 6  94636934.92206
C16  39741174.811 5 206942723.42105  39741200.954 6 160021228.31406
C19  26534110.813 5                                                  26534109.400 5 112274504.43105
C21  25399140.634 6 132260024.17206                                  25399147.972 5 107472177.84905
C22  24268630.151 6 126373120.58406                                  24268624.439 5 102688502.75705
C24  22573544.901 7 117546398.20407                                  22573541.476 6  95516021.69606
C25  23822745.916 6 124051239.19706                                  23822745.305 5 100801840.31305
C26  25364932.443 5                                                  25364949.377 4
C34  23022910.052 7 119886337.57107                                  23022909.863 5  97417470.90205
C35  25188052.273 6 131160792.70806                                  25188051.881 5 106578878.33005
C38  37197605.698 6 193697799.87706                                  37197603.483 5 157395245.64005
C40  36346503.442 7 189265806.80107                                  36346499.347 6 153793935.48306
C44  22211172.849 7 115659430.54407                                  22211169.151 6  93982723.31906
E13  23461520.594 6 123291142.51806  23461526.469 6  92068077.28806  23461521.719 7  94469809.16007
E15  26326948.625 5 138349024.43005  26326958.804 6 103312621.86706  26326953.302 6 106007703.40406
E21  23725519.733 6 124678470.55806  23725524.793 6  93104064.20606  23725520.533 7  95532838.82607
E23  27015221.846 5 141965984.55005  27015235.964 5 106013648.34105  27015230.745 6 108779171.34506
E26  25141386.186 5 132118892.11905  25141393.979 6  98660267.14406  25141389.111 7 101233978.44007
E27  24504987.288 6 128774576.05406  24504995.535 6  96162845.98306  24504990.606 7  98671413.64407
E30                                                                  29006875.673 3
G01  22755225.872 6 119579523.56606  22755226.031 4  93178865.86104  22755226.238 6  93178846.81906
G02  25031258.218 5 131540134.81005  25031259.757 2 102498838.17902
G03  21105943.305 6 110912515.16906  21105944.064 6  86425336.32606  21105945.015 6  86425311.30606
G06  22789267.896 5 119758454.42205  22789274.727 5  93318286.30205  22789274.443 6  93318274.30406
G14  19975565.882 6 104972328.24106  19975563.933 5  81796611.62905  19975563.358 7  81796595.60907
G17  21272698.329 6 111788820.82506  21272695.151 6  87108148.95806  21272695.130 6  87108126.94706
G19  22260940.435 6 116982054.33306  22260939.144 4  91154842.82404
G22  20976545.536 6 110232489.01206  20976542.752 4  85895442.06404
G30  23975646.400 4 125992760.28504  23975671.677 4  98176356.86104  23975670.595 5  98176365.73605
I02  38858351.243 6 152488528.13206
I03  39654203.968 6 155611616.25606
I10  36524790.784 6 143331124.96406
J02  37353894.723 6 196296044.56206  37353894.810 7 152957955.27407
J03  38989312.016 6 204890225.93906  38989310.617 7 159654707.33607
R01  22483816.927 5 120189023.94705  22483816.122 5  93480311.71105
R08  23607027.146 6 126414552.32006  23607017.658 5  98322406.04505
R13  23201329.935 4
R14  19695547.925 7 104988322.54807  19695547.250 7  81657588.62607
R15  20926053.084 7 111822520.65807  20926047.657 7  86973048.03507
R17  20928127.873 7 111990660.93107  20928117.323 7  87103803.59707
R18  23957108.690 5 127884728.37705  23957129.145 5  99465970.94305
R23  24600844.265 5 131597918.45105
R24  20715782.248 7 110776608.58807  20715774.649 7  86159535.63407
S30  37296279.623 6 195993290.12506
S43  36916733.478 6 193998761.84606
S44  38337561.971 5 201465244.31705
> 2025 03 17 06 42 27.0000000  0 52
C03  36666790.287 6 190933602.56106  36666784.865 7 147641952.93507  36666785.798 5 155149172.86605
C04  38430554.673 5 200117994.03405  38430550.083 6 154743896.11106  38430550.783 5 162612244.43005
C06  39424577.924 4                  39424587.040 5 158746392.22805
C07  36032801.345 6 187632219.86406  36032792.190 7 145089127.18307  36032790.362 5 152466528.42805
C09  38679578.264 5 201414718.72405  38679582.484 6 155746609.78306
C10  36885887.923 6 192074441.68006  36885883.215 7 148524172.06207  36885881.244 5 156076232.87805
C12  22365847.834 6 116464909.50306  22365842.933 7  90057989.51707  22365841.373 6  94637200.70106
C16  39741564.571 5 206944754.01405  39741591.065 6 160022798.45506
C19  26534370.538 5 138171435.66405                                  26534369.240 5 112275605.27005
C21  25398657.191 5 132257507.87005                                  25398664.381 5 107470133.22705
C22  24268438.945 6 126372127.26406                                  24268433.615 5 102687695.64605
C24  22573942.661 6 117548470.61906                                  22573939.331 6  95517705.72806
C25  23822589.788 6 124050427.73606                                  23822589.386 5 100801180.97905
C26  25365612.827 5 132085394.49715                                  25365626.519 4
C34  23022749.622 6 119885502.69706                                  23022749.352 6  97416792.52506
C35  25188490.172 6 131163074.68306                                  25188489.777 5 106580732.62505
C38  37197395.804 6 193696708.55106                                  37197393.557 5 157394358.90005
C40  36346496.229 6 189265769.90706                                  36346492.085 6 153793905.55006
C44  22211392.409 7 115660574.31507                                  22211388.669 6  93983652.73906
E13  23461712.911 6 123292154.07306  23461718.708 6  92068832.65706  23461714.000 7  94470584.22307
E15  26327458.374 5 138351705.94505  26327468.898 6 103314624.27406  26327463.451 6 106009758.02806
E21  23725421.140 6 124677953.63006  23725426.266 6  93103678.18306  23725421.921 7  95532442.71207
E23  27014776.940 5 141963648.31305  27014791.197 5 106011903.78005  27014785.963 6 108777381.22106
E26  25141146.296 5 132117633.24305  25141154.191 6  98659327.07906  25141149.371 7 101233013.82407
E27  24505395.576 6 128776722.75006  24505403.891 6  96164449.01806  24505398.941 7  98673058.47907
E30                                                                  29007475.559 4
G01  22755829.697 6 119582699.61606  22755830.424 3  93181340.68803  22755831.157 6  93181321.63806
G02  25031853.105 5 131543260.37905  25031854.496 2 102501273.65002
G03  21106091.331 6 110913294.88806  21106092.405 6  86425943.89006  21106093.736 6  86425918.83906
G06  22788892.004 5 119756478.80205  22788898.695 5  93316746.85505  22788899.079 6  93316734.83606
G14  19975670.196 6 104972880.32606  19975668.962 5  81797041.81405  19975668.992 7  81797025.76707
G17  21272609.236 6 111788355.34106  21272606.483 6  87107786.23506  21272607.084 6  87107764.19006
G19  22260600.978 6 116980271.94906  22260599.868 4  91153453.95004
G22  20976368.233 6 110231561.14206  20976366.101 4  85894719.04004
G30  23976222.914 5 125995790.16505  23976248.158 3  98178717.74103  23976247.648 6  98178726.62006
I02  38858345.510 6 152488505.75406
I03  39653922.577 6 155610513.49906
I10  36524862.970 6 143331408.50806
J02  37353801.674 6 196295558.82106  37353802.870 7 152957576.74807
J03  38989468.844 6 204891052.24606  38989468.287 7 159655351.19607
R01  22483428.538 5 120186945.89205  22483427.100 5  93478695.48205
R08  23607181.614 5 126415376.93405  23607171.295 6  98323047.39306
R13  23202221.527 4
R14  19695936.300 6 104990392.31806  19695935.186 7  81659198.43507
R15  20925674.490 6 111820495.32606  20925668.734 7  86971472.78207
R17  20928024.771 6 111990108.53406  20928013.873 7  87103373.96607
R18  23956733.640 5 127882725.84705  23956752.787 5  99464413.42205
R23  24601415.300 4 131600966.60604
R24  20716140.087 7 110778521.64407  20716132.299 7  86161023.58307
S30  37296327.979 6 195993541.70606
S43  36916788.989 6 193999040.52106
S44  38337610.712 5 201465500.25105
> 2025 03 17 06 42 28.0000000  0 52
C03  36666841.281 5 190933871.60505  36666836.919 7 147642160.96907  36666837.351 5 155149391.47305
C04  38430602.238 5 200118240.28705  38430597.723 6 154744086.49306  38430598.057 5 162612444.51505
C06  39424983.227 4                  39424993.570 5 158748028.27505
C07  36032794.407 6 187632184.36206  36032785.509 7 145089099.73907  36032783.641 5 152466499.58405
C09  38679976.973 4 201416797.38404  38679981.589 6 155748217.09806
C10  36885852.938 5 192074261.18605  36885848.678 7 148524032.50107  36885846.439 5 156076086.19905
C12  22365910.475 6 116465236.85406  22365905.859 7  90058242.65007  22365904.243 6  94637466.71806
C16  39741954.346 5 206946784.72005  39741981.364 6 160024368.72006
C19  26534630.933 4 138172791.02804                                  26534629.515 5 112276706.64405
C21  25398173.748 5 132254991.80305                                  25398180.965 5 107468088.69205
C22  24268248.338 5 126371134.53305                                  24268242.809 5 102686888.98205
C24  22574340.573 6 117550543.61806                                  22574337.543 6  95519390.22706
C25  23822433.789 5 124049616.94305                                  23822433.641 6 100800522.16506
C26  25366290.266 4 132088922.46304                                  25366304.037 4
C34  23022589.066 6 119884668.11906                                  23022589.222 6  97416114.38406
C35  25188928.343 5 131165356.80305                                  25188928.206 5 106582587.03605
C38  37197186.134 5 193695617.55305                                  37197184.008 6 157393472.37506
C40  36346489.096 6 189265733.16506                                  36346485.038 6 153793875.71206
C44  22211611.981 6 115661718.35606                                  22211608.370 6  93984582.36606
E13  23461905.369 6 123293165.90706  23461910.949 6  92069588.29506  23461906.674 7  94471359.59107
E15  26327968.799 5 138354387.50405  26327978.698 6 103316626.78006  26327973.844 6 106011812.78506
E21  23725323.069 6 124677437.11806  23725327.675 6  93103292.50206  23725323.696 7  95532047.00407
E23  27014332.249 5 141961312.20105  27014346.367 5 106010159.33205  27014341.540 6 108775591.29506
E26  25140906.748 5 132116374.68505  25140914.281 6  98658387.29306  25140909.990 7 101232049.55107
E27  24505804.272 6 128778869.83406  24505812.152 6  96166052.38606  24505807.642 7  98674703.69907
E30                                                                  29008075.589 3
G01  22756433.422 6 119585875.82406  22756434.862 4  93183815.64204  22756436.011 7  93183796.63007
G02  25032447.509 5 131546385.90605  25032449.182 2 102503709.11002
G03  21106239.183 6 110914075.36006  21106240.908 6  86426552.04206  21106242.503 7  86426527.02507
G06  22788515.888 5 119754503.55505  22788522.748 5  93315207.70605  22788523.564 7  93315195.71807
G14  19975775.115 6 104973433.08506  19975774.117 5  81797472.52205  19975774.797 7  81797456.51907
G17  21272520.264 6 111787889.99106  21272517.887 6  87107423.61606  21272519.100 6  87107401.60306
G19  22260261.386 6 116978489.62806  22260260.647 4  91152065.12604
G22  20976191.624 6 110230633.78506  20976189.628 4  85893996.40904
G30  23976798.720 5 125998820.11605  23976824.720 4  98181078.67604  23976824.943 6  98181087.58206
I02  38858339.639 6 152488483.46206
I03  39653641.170 6 155609410.78006
I10  36524935.165 6 143331692.11706
J02  37353708.984 6 196295073.17906  37353711.148 7 152957198.34907
J03  38989626.057 6 204891878.55306  38989626.100 7 159655995.09607
R01  22483040.401 5 120184868.45705  22483038.805 5  93477079.73705
R08  23607335.760 5 126416202.43105  23607325.569 6  98323689.48206
R13  23203110.070 4
R14  19696324.999 6 104992463.04206  19696323.663 7  81660809.02507
R15  20925295.752 7 111818470.87207  20925289.932 7  86969898.25107
R17  20927921.524 6 111989556.57306  20927910.713 7  87102944.68807
R18  23956358.830 5 127880723.60405  23956377.177 5  99462856.20005
R23  24601987.925 4 131604014.81204
R24  20716498.196 7 110780434.99307  20716490.228 7  86162511.76607
S30  37296380.060 6 195993793.31506
S43  36916843.426 6 193999319.24806
S44  38337659.851 5 201465756.22105
> 2025 03 17 06 42 29.0000000  0 52
C03                                  36666888.709 7 147642369.02307  36666889.083 5 155149610.10105
C04                                  38430645.158 6 154744276.92606  38430645.680 5 162612644.64005
C06  39425389.291 3                  39425400.466 5 158749664.28005
C07  36032786.219 5 187632148.87005  36032778.756 7 145089072.30207  36032776.965 5 152466470.71405
C09  38680373.469 4 201418876.03004  38680380.544 6 155749824.46906
C10  36885817.974 5 192074080.66405  36885814.011 7 148523892.93707  36885811.871 5 156075939.52705
C12  22365973.238 5 116465564.31205  22365968.766 7  90058495.89407  22365967.218 6  94637732.83206
C16  39742344.859 4                  39742371.524 6 160025938.92006
C19                                                                  26534890.254 5 112277808.39605
C21  25397690.387 4 132252475.68204                                  25397697.817 5 107466044.26005
C22  24268057.879 5 126370142.26705                                  24268052.379 5 102686082.67105
C24  22574738.526 5 117552617.10205                                  22574735.956 6  95521075.12006
C25  23822277.834 5 124048806.66905                                  23822278.094 5 100799863.78205
C26  25366963.342 3                                                  25366981.881 4
C34  23022427.374 5 119883833.69705                                  23022429.181 6  97415436.34406
C35  25189366.363 4 131167638.87804                                  25189366.425 5 106584441.46005
C38  37196975.667 5 193694526.72705                                  37196974.659 6 157392585.97406
C40  36346480.644 5 189265696.43905                                  36346477.979 6 153793845.85806
C44  22211831.222 5 115662862.50705                                  22211828.289 6  93985512.10406
E13  23462098.089 6 123294178.14906  23462103.276 6  92070344.18906  23462099.310 7  94472135.19707
E15  26328479.286 5 138357069.19905  26328488.815 6 103318629.33306  26328484.101 7 106013867.57907
E21  23725225.021 6 124676921.13606  23725229.216 6  93102907.18406  23725225.576 7  95531651.62507
E23  27013887.991 4 141958976.34504  27013901.512 5 106008415.02105  27013897.065 6 108773801.48206
E26  25140667.376 5 132115116.53805  25140674.521 6  98657447.77406  25140670.640 7 101231085.51607
E27  24506213.231 5 128781017.37405  24506220.560 6  96167656.05806  24506216.342 7  98676349.21007
E30                                                                  29008675.086 3
G01  22757037.681 5 119589052.23705  22757039.300 3  93186290.78103  22757040.986 6  93186271.80206
G02  25033042.271 4 131549511.45704  25033043.956 2 102506144.62202
G03  21106387.545 5 110914856.64305  21106389.612 6  86427160.84506  21106391.678 6  86427135.86106
G06  22788140.608 5 119752528.79905  22788146.953 5  93313668.94405  22788148.395 6  93313656.97606
G14  19975880.483 6 104973986.62506  19975879.459 5  81797903.86205  19975880.770 7  81797887.87807
G17  21272432.170 6 111787424.86406  21272429.380 6  87107061.19306  21272431.077 6  87107039.21106
G19  22259922.181 5 116976707.49605  22259921.537 4  91150676.46204
G22  20976015.650 6 110229707.03006  20976013.263 4  85893274.27204
G30  23977376.308 4 126001850.16204  23977401.336 3  98183439.71803  23977402.236 6  98183448.65706
I02  38858333.608 6 152488461.23606
I03  39653360.062 6 155608308.14106
I10  36525007.081 6 143331975.78106
J02  37353617.221 5 196294587.69205  37353619.294 7 152956820.09907
J03  38989783.027 5 204892704.94605  38989783.929 7 159656639.06707
R01  22482651.177 4 120182791.63104  22482650.293 5  93475464.37905
R08  23607491.455 5 126417028.75405  23607479.289 5  98324332.17605
R13  23203999.789 4
R14  19696713.533 6 104994534.70206  19696712.099 7  81662420.27407
R15  20924917.650 6 111816447.24506  20924910.725 6  86968324.28606
R17  20927818.405 6 111989004.95306  20927807.564 7  87102515.63707
R18  23955984.068 4 127878721.65604  23956002.048 5  99461299.14705
R23  24602560.989 4 131607062.87904
R24  20716856.488 6 110782348.54506  20716848.072 6  86164000.05306
S30  37296429.543 5 195994045.09605
S43  36916899.094 6 193999598.13806
S44  38337713.295 5 201466012.32205
> 2025 03 17 06 42 30.0000000  0 52
C03                                  36666940.714 7 147642576.99307  36666940.766 5 155149828.68105
C04                                  38430692.763 6 154744467.26206  38430692.874 5 162612844.66105
C06  39425795.386 4                  39425806.492 5 158751300.16905
C07  36032778.798 6 187632113.27206  36032772.087 7 145089044.77407  36032770.047 5 152466441.84205
C09  38680772.039 4 201420954.66104  38680779.642 6 155751431.76106
C10  36885782.638 5 192073900.05805  36885779.398 7 148523753.25307  36885777.196 5 156075792.78105
C12  22366035.256 6 116465891.85406  22366031.793 7  90058749.15807  22366030.294 6  94637998.99106
C16  39742733.841 5                  39742761.605 6 160027509.01206
C19  26535149.121 4 138175503.24504                                  26535150.908 5 112278910.47905
C21  25397206.418 5 132249959.60805                                  25397214.739 5 107463999.76805
C22  24267867.309 5 126369150.28605                                  24267861.977 5 102685276.62805
C24  22575136.826 6 117554690.94606                                  22575134.357 6  95522760.25706
C25  23822122.630 5 124047996.89105                                  23822122.514 6 100799205.73106
C26  25367641.463 4                                                  25367659.247 4
C34  23022267.252 6 119882999.31106                                  23022268.964 6  97414758.32606
C35  25189804.828 5 131169920.98505                                  25189804.740 5 106586295.78405
C38  37196766.483 5 193693435.94705                                  37196765.388 6 157391699.66906
C40  36346473.625 6 189265659.58706                                  36346470.988 6 153793815.90306
C44  22212051.157 6 115664006.68806                                  22212048.149 6  93986441.83106
E13  23462290.723 6 123295190.57106  23462295.705 6  92071100.20706  23462292.106 7  94472910.91207
E15  26328989.779 5 138359750.81205  26328999.017 6 103320631.84106  26328994.574 7 106015922.29407
E21  23725126.859 6 124676405.42606  23725130.795 6  93102522.08806  23725127.594 7  95531256.44707
E23  27013444.005 5 141956640.49205  27013456.952 5 106006670.73005  27013452.642 6 108772011.65206
E26  25140428.238 5 132113858.57705  25140435.088 6  98656508.40406  25140431.350 7 101230121.60807
E27  24506621.884 5 128783165.16405  24506629.030 6  96169259.93706  24506625.185 7  98677994.89007
E30                                                                  29009274.189 4
G01  22757642.646 5 119592228.68205  22757643.636 3  93188765.92603  22757645.682 6  93188746.90906
G02  25033637.963 5 131552636.81305  25033638.651 2 102508579.95802
G03  21106536.619 6 110915638.56806  21106538.414 6  86427770.12706  21106540.761 6  86427745.11706
G06  22787764.080 5 119750554.26405  22787771.189 5  93312130.36205  22787773.068 6  93312118.38606
G14  19975986.152 6 104974540.70906  19975984.936 5  81798335.60905  19975986.576 7  81798319.60907
G17  21272344.092 6 111786959.76106  21272340.878 6  87106698.76706  21272342.733 6  87106676.76806
G19  22259583.572 5 116974925.30805  22259582.400 4  91149287.74404
G22  20975839.626 6 110228780.67806  20975836.992 4  85892552.43704
G30  23977953.770 4 126004880.11204  23977977.943 3  98185800.67103  23977979.610 6  98185809.61606
I02  38858327.973 6 152488439.01606
I03  39653079.155 6 155607205.44306
I10  36525079.274 6 143332259.43006
J02  37353524.861 5 196294102.21805  37353527.131 7 152956441.76207
J03  38989940.318 6 204893531.20606  38989941.443 7 159657282.87007
R01  22482262.831 5 120180715.13005  22482262.430 5  93473849.35205
R08  23607646.153 5 126417855.71505  23607634.109 5  98324975.41905
R13  23204890.831 4
R14  19697102.240 6 104996607.06206  19697100.770 7  81664032.11407
R15  20924539.242 6 111814424.27606  20924532.249 7  86966750.86707
R17  20927715.359 6 111988453.54406  20927704.435 7  87102086.77707
R18  23955610.731 4 127876719.81304  23955626.724 5  99459742.22705
R23  24603133.911 4 131610110.69604
R24  20717214.941 6 110784262.10806  20717206.059 7  86165488.38707
S30  37296475.704 5 195994296.75305
S43  36916949.793 6 193999876.90606
S44  38337760.646 5 201466268.35005
> 2025 03 17 06 42 31.0000000  0 52
C03                                  36666992.410 7 147642785.09007  36666992.593 5 155150047.32605
C04                                  38430740.350 6 154744657.72706  38430740.304 5 162613044.79305
C06  39426201.203 4                  39426212.404 5 158752936.16905
C07  36032771.412 6 187632077.83406  36032765.525 7 145089017.36507  36032763.361 5 152466412.99105
C09  38681170.852 5 201423033.46005  38681178.835 6 155753039.22106
C10  36885747.460 6 192073719.55206  36885744.863 7 148523613.67707  36885742.624 5 156075646.09205
C12  22366097.794 6 116466219.66606  22366094.981 7  90059002.63707  22366093.369 6  94638265.31606
C16  39743123.008 5                  39743151.546 6 160029079.19506
C19  26535410.112 5 138176860.10205                                  26535411.475 5 112280013.03805
C21  25396723.311 5 132247443.67705                                  25396731.598 5 107461955.32505
C22  24267677.198 6 126368158.92706                                  24267671.499 5 102684471.02905
C24  22575535.435 6 117556765.33806                                  22575532.860 6  95524445.83906
C25  23821967.623 6 124047187.71706                                  23821967.195 6 100798548.17206
C26  25368320.551 5                                                  25368336.600 4
C34  23022107.427 6 119882165.17806                                  23022108.871 6  97414080.48806
C35  25190243.455 6 131172203.13106                                  25190243.014 5 106588150.19005
C38  37196557.919 6 193692345.45806                                  37196556.125 6 157390813.47306
C40  36346467.320 6 189265622.85306                                  36346463.901 6 153793786.00406
C44  22212271.527 7 115665151.09607                                  22212267.909 6  93987371.71106
E13  23462483.533 6 123296203.36406  23462488.422 6  92071856.50306  23462484.942 7  94473686.95207
E15  26329500.357 5 138362432.58305  26329509.363 6 103322634.44206  26329505.032 6 106017977.14206
E21  23725028.925 6 124675890.19306  23725032.753 6  93102137.33006  23725029.659 7  95530861.67207
E23  27012999.471 5 141954304.87105  27013012.470 5 106004926.60005  27013008.348 6 108770222.02406
E26  25140189.222 5 132112601.01305  25140195.715 6  98655569.30206  25140192.135 7 101229158.02507
E27  24507030.871 5 128785313.39505  24507037.783 6  96170864.14306  24507034.072 7  98679640.94607
E30                                                                  29009873.954 3
G01  22758247.548 5 119595405.30405  22758247.993 3  93191241.21103  22758250.169 6  93191222.19106
G02  25034232.159 4 131555762.16204  25034233.319 2 102511015.27402
G03  21106686.045 6 110916421.29606  21106687.377 6  86428380.04606  21106689.605 6  86428355.04106
G06  22787388.264 5 119748580.16605  22787395.519 5  93310592.10705  22787397.699 6  93310580.13306
G14  19976092.408 6 104975095.55406  19976090.538 5  81798767.95305  19976092.241 7  81798751.93607
G17  21272256.262 6 111786494.84806  21272252.407 6  87106336.49906  21272254.302 6  87106314.50106
G19  22259244.726 5 116973143.26005  22259243.272 4  91147899.13704
G22  20975663.549 6 110227854.91606  20975660.801 4  85891831.06804
G30  23978530.411 4 126007910.22204  23978554.554 3  98188161.74003  23978556.239 5  98188170.63505
I02  38858322.424 6 152488416.88706
I03  39652798.087 6 155606102.80006
I10  36525151.373 6 143332543.13206
J02  37353433.002 5 196293616.85505  37353434.888 7 152956063.56007
J03  38990098.142 6 204894357.49906  38990098.878 7 159657926.73207
R01  22481874.991 5 120178639.23705  22481875.118 5  93472234.76405
R08  23607802.005 5 126418683.58005  23607788.329 5  98325619.31105
R13  23205782.477 4
R14  19697491.004 6 104998680.34506  19697489.880 7  81665644.69107
R15  20924160.633 6 111812402.08206  20924154.021 7  86965178.09407
R17  20927611.782 6 111987902.50206  20927602.143 7  87101658.21007
R18  23955235.846 4 127874718.32504  23955252.078 5  99458185.55705
R23  24603703.249 4 131613158.41004
R24  20717572.833 6 110786175.84806  20717564.227 7  86166976.87407
S30  37296523.299 5 195994548.52105
S43  36917002.343 6 194000155.78706
S44  38337809.096 5 201466524.50005
> 2025 03 17 06 42 32.0000000  0 52
C03                                  36667043.959 7 147642993.19907  36667044.124 5 155150266.01005
C04                                  38430787.557 6 154744848.19506  38430787.686 5 162613244.95005
C06  39426608.608 4                  39426618.812 5 158754572.19805
C07  36032764.848 6 187632042.38506  36032758.855 7 145088989.95507  36032756.562 5 152466384.20205
C09  38681570.619 5 201425112.34205  38681578.371 6 155754646.72006
C10  36885713.114 6 192073539.03106  36885710.169 7 148523474.09007  36885708.117 5 156075499.38705
C12  22366161.063 6 116466547.60106  22366158.057 7  90059256.21207  22366156.395 6  94638531.78606
C16  39743513.127 5                  39743541.445 6 160030649.33206
C19  26535671.559 5 138178217.51005                                  26535671.947 5 112281116.05305
C21  25396240.472 5 132244927.75605                                  25396248.334 5 107459911.00905
C22  24267487.448 6 126367167.94206                                  24267481.183 5 102683665.79205
C24  22575934.604 6 117558840.15106                                  22575931.451 6  95526131.79006
C25  23821813.050 6 124046379.04006                                  23821811.952 6 100797891.07406
C26  25368998.619 5                                                  25369014.462 4
C34  23021948.093 6 119881331.14906                                  23021948.721 6  97413402.78306
C35  25190682.516 6 131174485.27506                                  25190681.364 5 106590004.63205
C38  37196349.291 6 193691255.10306                                  37196346.656 6 157389927.50406
C40  36346460.988 7 189265586.05107                                  36346456.869 6 153793756.12206
C44  22212491.973 7 115666295.58807                                  22212487.815 6  93988301.73806
E13  23462676.249 6 123297216.47406  23462681.226 6  92072613.02206  23462677.716 7  94474463.19607
E15  26330010.271 5 138365114.37905  26330019.747 6 103324637.03706  26330015.290 6 106020031.99106
E21  23724930.734 6 124675375.45006  23724934.796 6  93101752.89006  23724931.679 7  95530467.20507
E23  27012554.854 5 141951969.41505  27012567.936 5 106003182.54405  27012563.927 6 108768432.47806
E26  25139949.222 5 132111343.79005  25139956.556 6  98654630.43606  25139952.909 7 101228194.65407
E27  24507439.511 6 128787462.05606  24507446.694 6  96172468.60206  24507442.943 7  98681287.26907
E30                                                                  29010473.720 3
G01  22758851.976 5 119598582.09705  22758852.445 3  93193716.62403  22758854.550 6  93193697.57106
G02  25034826.247 5 131558887.45105  25034828.053 2 102513450.55902
G03  21106835.194 6 110917204.79306  21106836.448 6  86428990.55906  21106838.652 6  86428965.50806
G06  22787012.328 5 119746606.54705  22787019.889 5  93309054.21605  22787021.891 6  93309042.17606
G14  19976198.004 6 104975651.11206  19976196.202 5  81799200.84205  19976197.740 7  81799184.78607
G17  21272167.351 6 111786030.12906  21272163.940 6  87105974.37306  21272165.844 6  87105952.33506
G19  22258905.272 6 116971361.34206  22258904.184 4  91146510.63004
G22  20975487.192 6 110226929.69106  20975484.677 4  85891110.10904
G30  23979106.973 4 126010940.38804  23979131.143 3  98190522.85003  23979132.571 5  98190531.71805
I02  38858316.868 6 152488394.76906
I03  39652517.252 6 155605000.19306
I10  36525223.614 6 143332826.87206
J02  37353340.274 6 196293131.66406  37353342.357 7 152955685.43007
J03  38990254.906 6 204895183.83206  38990255.955 7 159658570.57707
R01  22481487.151 5 120176563.83005  22481486.599 5  93470620.57305
R08  23607958.035 5 126419512.24405  23607942.194 5  98326263.82205
R13  23206673.278 4
R14  19697879.597 6 105000754.48506  19697879.188 7  81667257.88807
R15  20923782.163 6 111810380.72906  20923776.066 7  86963605.89007
R17  20927508.383 6 111987351.76706  20927499.647 7  87101229.83307
R18  23954861.250 4 127872717.11504  23954877.319 5  99456629.04205
R23  24604273.057 4 131616205.94004
R24  20717931.064 6 110788089.80206  20717922.483 7  86168465.46407
S30  37296570.511 6 195994800.37906
S43  36917056.982 6 194000434.76106
S44  38337855.726 5 201466780.70905
> 2025 03 17 06 42 33.0000000  0 51
C03                                  36667095.785 7 147643201.31607  36667095.869 5 155150484.73105
C04                                  38430835.117 6 154745038.68206  38430835.161 5 162613445.10205
C06  39427014.645 4                  39427024.990 5 158756208.16105
C07  36032758.584 6 187632006.94006  36032752.170 7 145088962.54607  36032749.829 5 152466355.42305
C09  38681971.000 5 201427191.23705  38681977.680 6 155756254.24206
C10  36885679.008 6 192073358.48506  36885675.545 7 148523334.46607  36885673.449 5 156075352.67705
C12  22366224.490 6 116466875.66706  22366221.152 7  90059509.89407  22366219.557 6  94638798.38506
C16  39743903.873 5                  39743931.374 6 160032219.44206
C19  26535933.158 5 138179575.38905                                  26535932.709 5 112282219.47505
C21  25395757.870 5 132242411.84905                                  25395765.336 5 107457866.64205
C22  24267297.799 6 126366177.41806                                  24267291.062 5 102682860.93805
C24  22576333.741 6 117560915.40006                                  22576329.953 6  95527818.09706
C25  23821658.706 6 124045570.87706                                  23821656.757 6 100797234.38706
C26  25369676.736 5                                                  25369692.092 4
C34  23021788.772 6 119880497.26806                                  23021788.506 6  97412725.21106
C35  25191121.251 6 131176767.42706                                  25191119.556 5 106591859.06305
C38  37196140.596 6 193690164.90306                                  37196137.321 6 157389041.64106
C40  36346454.856 7 189265549.24507                                  36346449.710 6 153793726.24006
C44  22212712.415 7 115667440.18807                                  22212707.557 6  93989231.80906
E13  23462869.014 6 123298229.78906  23462874.094 6  92073369.73506  23462870.644 7  94475239.65107
E15  26330521.127 5 138367796.12505  26330530.123 6 103326639.67106  26330525.732 7 106022086.85507
E21  23724832.929 6 124674860.97906  23724836.975 6  93101368.75106  23724833.854 7  95530073.02507
E23  27012110.547 5 141949633.96005  27012123.517 5 106001438.57705  27012119.522 6 108766643.01306
E26  25139710.339 5 132110086.78005  25139717.478 6  98653691.78106  25139713.800 7 101227231.51707
E27  24507848.280 6 128789610.97506  24507855.667 6  96174073.34106  24507851.968 7  98682933.86507
E30                                                                  29011073.525 4
G01  22759456.106 6 119601758.94406  22759456.937 3  93196192.07203  22759458.667 6  93196173.03906
G02  25035420.419 5 131562012.54805  25035422.717 2 102515885.68902
G03  21106984.171 6 110917988.94306  21106985.652 6  86429601.57306  21106987.765 6  86429576.57506
G06  22786636.560 5 119744633.13405  22786644.313 5  93307516.48105  22786646.189 6  93307504.50006
G14  19976303.846 6 104976207.22206  19976302.010 5  81799634.16805  19976303.316 7  81799618.15707
G17  21272078.566 6 111785565.42806  21272075.456 6  87105612.25706  21272077.365 6  87105590.26306
G19  22258566.124 6 116969579.39806  22258565.061 4  91145122.09504
G22  20975311.167 6 110226004.88506  20975308.629 4  85890389.47004
G30  23979682.968 5 126013970.43905  23979707.669 3  98192883.86203  23979709.412 5  98192892.78805
I02  38858311.287 6 152488372.68706
I03  39652236.233 6 155603897.58706
I10  36525296.033 6 143333110.62706
J02  37353248.028 6 196292646.40506  37353249.715 7 152955307.34807
J03  38990412.009 6 204896010.03106  38990412.939 7 159659214.40207
R01  22481098.067 5 120174488.97105  22481099.716 5  93469006.78605
R08  23608112.715 5 126420341.68205  23608096.853 5  98326908.90705
R13  23207564.043 4
R14  19698268.975 6 105002829.47506  19698268.515 7  81668871.75807
R15  20923404.364 6 111808360.07706  20923398.259 7  86962034.28307
R17  20927404.871 6 111986801.32606  20927396.605 7  87100801.71007
R18  23954486.747 4 127870716.15604  23954502.277 5  99455072.74205
R24  20718289.030 6 110790003.87206  20718280.224 7  86169954.19607
S30  37296622.265 6 195995052.14206
S43  36917112.153 6 194000713.66006
S44  38337902.843 5 201467036.84205
> 2025 03 17 06 42 34.0000000  0 52
C03                                  36667147.647 7 147643409.56907  36667147.727 5 155150703.58105
C04  38430887.407 5 200119715.20815  38430882.566 6 154745229.30806  38430882.564 5 162613645.44705
C06  39427421.478 4                  39427430.909 5 158757844.22205
C07  36032752.737 6 187631971.67306  36032745.583 7 145088935.26707  36032743.140 6 152466326.73906
C09  38682371.702 5 201429270.39605  38682377.138 6 155757861.96506
C10  36885645.472 6 192073178.06806  36885640.964 7 148523194.95907  36885638.807 6 156075206.07706
C12  22366288.553 6 116467204.03206  22366284.374 7  90059763.79007  22366282.591 6  94639065.18606
C16  39744294.701 5                  39744321.414 6 160033789.63006
C19  26536195.051 5 138180933.99705                                  26536194.005 5 112283323.43105
C21  25395275.797 5 132239896.16805                                  25395282.545 5 107455822.49105
C22  24267108.166 6 126365187.49406                                  24267101.048 5 102682056.52405
C24  22576733.084 7 117562991.25507                                  22576728.683 6  95529504.90606
C25  23821504.378 6 124044763.42106                                  23821501.839 6 100796578.24706
C26  25370355.117 5                                                  25370369.891 4
C34  23021629.516 6 119879663.69106                                  23021628.574 6  97412047.84006
C35  25191560.335 6 131179049.74206                                  25191558.168 5 106593713.61905
C38  37195932.015 6 193689075.03306                                  37195928.213 6 157388156.03506
C40  36346448.529 7 189265512.60707                                  36346442.824 6 153793696.45706
C44  22212932.851 7 115668585.06107                                  22212927.541 6  93990162.11706
E13  23463062.024 6 123299243.56406  23463067.149 6  92074126.77206  23463063.625 7  94476016.44107
E15  26331031.590 5 138370478.10605  26331040.515 6 103328642.42106  26331036.172 7 106024141.88007
E21  23724735.288 6 124674347.10006  23724739.296 6  93100985.00306  23724736.166 7  95529679.28507
E23  27011666.533 5 141947298.84405  27011679.234 5 105999694.80805  27011675.254 6 108764853.76406
E26  25139471.188 6 132108830.23106  25139478.611 6  98652753.45106  25139474.750 7 101226268.71607
E27  24508257.314 6 128791760.46006  24508264.769 6  96175678.44606  24508261.127 7  98684580.84407
E30                                                                  29011673.331 3
G01  22760060.901 6 119604936.07106  22760061.456 3  93198667.74303  22760063.262 6  93198648.72406
G02  25036015.042 5 131565137.76705  25036017.425 2 102518320.91402
G03  21107133.448 6 110918774.00306  21107135.022 6  86430213.29906  21107137.007 6  86430188.29706
G06  22786261.052 5 119742660.28805  22786268.818 5  93305979.20605  22786270.709 6  93305967.21306
G14  19976409.747 7 104976764.19907  19976407.965 5  81800068.16705  19976409.107 7  81800052.15607
G17  21271990.208 6 111785101.04606  21271987.038 6  87105250.39506  21271988.832 6  87105228.39506
G19  22258227.144 6 116967797.69906  22258226.014 4  91143733.75704
G22  20975135.150 6 110225080.76306  20975132.725 4  85889669.36504
G30  23980260.222 5 126017000.73305  23980284.316 3  98195245.08903  23980286.079 5  98195254.02005
I02  38858305.704 6 152488350.73406
I03  39651955.222 6 155602795.07306
I10  36525368.196 6 143333394.51006
J02  37353155.791 6 196292161.43006  37353157.231 7 152954929.43807
J03  38990569.249 6 204896836.39406  38990570.016 7 159659858.31807
R01  22480709.731 5 120172414.71105  22480711.289 5  93467393.53905
R08  23608266.964 6 126421172.00206  23608252.104 6  98327554.71906
R13  23208453.445 4
R14  19698658.229 6 105004905.42306  19698658.139 7  81670486.41707
R15  20923026.371 7 111806340.29307  20923020.447 7  86960463.35007
R17  20927302.163 7 111986251.31807  20927293.836 7  87100373.94207
R18  23954111.825 5 127868715.44605  23954126.989 5  99453516.71505
R23  24605410.401 4 131622300.80004
R24  20718647.207 7 110791918.20207  20718638.173 7  86171443.12407
S30  37296670.483 6 195995304.15506
S43  36917167.919 6 194000992.77206
S44  38337951.740 5 201467293.19205
> 2025 03 17 06 42 35.0000000  0 52
C03  36667205.643 6 190935751.74016  36667199.442 7 147643617.91007  36667199.477 5 155150922.50705
C04  38430934.694 5 200119961.84705  38430929.925 6 154745420.01506  38430929.794 5 162613845.84705
C06  39427828.440 4                  39427836.924 5 158759480.38805
C07  36032747.144 6 187631936.48806  36032738.974 7 145088908.06107  36032736.568 6 152466298.14606
C09  38682772.050 5 201431349.65805  38682776.576 6 155759469.78706
C10  36885611.639 6 192072997.73906  36885606.485 7 148523055.53007  36885604.324 6 156075059.55106
C12  22366352.490 7 116467532.59307  22366347.472 7  90060017.86507  22366345.698 6  94639332.17706
C16  39744686.005 6                  39744711.569 6 160035359.89306
C19  26536457.199 5 138182293.12805                                  26536455.070 5 112284427.86005
C21  25394793.327 6 132237380.57206                                  25394799.582 5 107453778.43205
C22  24266918.309 6 126364198.08006                                  24266911.040 5 102681252.55205
C24  22577132.343 7 117565067.63807                                  22577127.351 6  95531192.13806
C25  23821349.781 6 124043956.55806                                  23821346.946 6 100795922.62606
C26  25371032.983 5                                                  25371047.440 4
C34  23021470.030 7 119878830.31907                                  23021468.653 6  97411370.67406
C35  25191998.795 6 131181332.12006                                  25191996.654 5 106595568.27205
C38  37195723.040 6 193687985.37706                                  37195719.043 6 157387270.61506
C40  36346441.989 7 189265476.01407                                  36346435.971 6 153793666.73706
C44  22213153.056 7 115669730.13507                                  22213147.485 6  93991092.59006
E13  23463255.213 7 123300257.71607  23463260.222 6  92074884.08706  23463256.597 7  94476793.50907
E15  26331542.101 6 138373160.19406  26331550.939 6 103330645.27706  26331546.547 7 106026196.95907
E21  23724637.701 7 124673833.71207  23724641.717 6  93100601.63306  23724638.472 7  95529285.90307
E23  27011222.596 5 141944963.88105  27011235.100 5 105997951.22705  27011230.912 6 108763064.67106
E26  25139232.566 6 132107574.08806  25139239.725 6  98651815.42906  25139235.721 7 101225306.20707
E27  24508666.740 6 128793910.35506  24508673.982 6  96177283.88406  24508670.226 7  98686228.17207
E30                                                                  29012272.770 3
G01  22760665.854 6 119608113.40706  22760666.099 3  93201143.57503  22760667.608 6  93201124.54706
G02  25036610.193 5 131568262.99905  25036612.115 2 102520756.14002
G03  21107283.072 6 110919559.87106  21107284.558 6  86430825.66506  21107286.422 6  86430800.65306
G06  22785886.203 6 119740687.87606  22785893.420 5  93304442.26505  22785895.202 6  93304430.27006
G14  19976515.822 7 104977321.91307  19976514.050 5  81800502.74405  19976515.091 7  81800486.73807
G17  21271902.152 7 111784636.86207  21271898.657 6  87104888.69206  21271900.278 6  87104866.68906
G19  22257888.457 6 116966016.15706  22257886.966 4  91142345.54904
G22  20974959.630 7 110224157.22307  20974956.945 4  85888949.72304
G30  23980837.056 5 126020031.13805  23980860.968 3  98197606.38303  23980862.544 6  98197615.30206
I02  38858300.102 6 152488328.91906
I03  39651674.333 6 155601692.68706
I10  36525440.614 6 143333678.48406
J02  37353063.382 6 196291676.61306  37353064.841 7 152954551.64807
J03  38990726.861 7 204897662.80107  38990727.090 7 159660502.27307
R01  22480321.896 5 120170341.13105  22480324.185 5  93465780.76605
R08  23608421.733 6 126422003.25906  23608407.709 6  98328201.25406
R13  23209344.764 4
R14  19699048.091 6 105006982.37206  19699047.834 7  81672101.79107
R15  20922648.483 7 111804321.40907  20922642.568 7  86958893.09707
R17  20927199.251 7 111985701.75507  20927191.123 7  87099946.50907
R18  23953736.384 5 127866715.23805  23953753.218 5  99451960.97905
R23  24605980.240 4 131625348.16504
R24  20719005.140 7 110793832.75707  20718996.064 7  86172932.20707
S30  37296718.705 6 195995556.26606
S43  36917221.256 7 194001271.99607
S44  38338002.372 6 201467549.66306
> 2025 03 17 06 42 36.0000000  0 52
C03  36667257.621 6 190936021.46506  36667251.210 7 147643826.46607  36667251.258 5 155151141.68505
C04  38430982.062 5 200120208.76405  38430977.364 6 154745610.93906  38430977.171 5 162614046.49405
C06  39428234.964 4                  39428243.650 5 158761116.72405
C07  36032741.251 6 187631901.58006  36032732.333 7 145088881.07407  36032729.946 6 152466269.78806
C09  38683171.902 5 201433429.27205  38683176.084 6 155761077.85306
C10  36885577.850 6 192072817.68106  36885571.865 7 148522916.29107  36885569.742 6 156074913.24906
C12  22366416.464 7 116467861.58707  22366410.734 7  90060272.26307  22366408.852 6  94639599.51706
C16  39745076.914 6                  39745101.655 6 160036930.31306
C19  26536718.709 5 138183653.06205                                  26536716.163 5 112285532.91805
C21  25394310.216 6 132234865.30706                                  25394316.413 5 107451734.58605
C22  24266728.345 6 126363209.37806                                  24266721.192 5 102680449.14405
C24  22577531.368 7 117567144.72807                                  22577526.307 6  95532879.94006
C25  23821195.337 6 124043150.49806                                  23821192.096 6 100795267.63306
C26  25371711.118 5                                                  25371724.985 4
C34  23021310.356 7 119877997.35207                                  23021308.663 6  97410693.81906
C35  25192437.266 6 131183614.78306                                  25192434.951 5 106597423.10605
C38  37195513.907 6 193686896.17006                                  37195510.003 6 157386385.53706
C40  36346435.170 7 189265439.67807                                  36346428.984 6 153793637.22206
C44  22213372.915 7 115670875.57207                                  22213367.392 6  93992023.35006
E13  23463448.490 7 123301272.39307  23463453.422 6  92075641.81806  23463449.751 7  94477570.99607
E15  26332052.358 5 138375842.54705  26332061.557 6 103332648.32906  26332056.958 6 106028252.28706
E21  23724540.266 7 124673320.97507  23724544.320 6  93100218.75006  23724540.853 7  95528893.03207
E23  27010778.354 5 141942629.36905  27010790.815 5 105996207.86605  27010786.602 6 108761275.86406
E26  25138993.759 6 132106318.46206  25139000.863 6  98650877.79806  25138996.769 7 101224344.12807
E27  24509076.051 6 128796060.87106  24509083.330 6  96178889.79206  24509079.501 7  98687875.97107
E30                                                                  29012872.669 3
G01  22761270.998 6 119611291.11106  22761270.819 3  93203619.70403  22761272.321 7  93203600.69307
G02  25037205.575 5 131571388.38305  25037206.769 2 102523191.51602
G03  21107433.510 6 110920346.72006  21107434.263 6  86431438.79306  21107436.118 6  86431413.80006
G06  22785511.084 6 119738716.06006  22785518.149 5  93302905.79805  22785519.990 6  93302893.82806
G14  19976622.242 7 104977880.54707  19976620.340 5  81800938.04205  19976621.348 7  81800922.05207
G17  21271814.084 7 111784173.05607  21271810.360 6  87104527.28506  21271811.965 6  87104505.29106
G19  22257549.704 6 116964234.95006  22257547.986 4  91140957.59604
G22  20974784.601 7 110223234.43807  20974781.327 4  85888230.67104
G30  23981414.148 5 126023061.79205  23981437.668 4  98199967.88404  23981439.019 6  98199976.80406
I02  38858294.570 6 152488307.29106
I03  39651393.577 6 155600590.46906
I10  36525513.227 6 143333962.67806
J02  37352971.476 6 196291192.11606  37352972.553 7 152954174.13307
J03  38990884.543 6 204898489.43506  38990884.341 7 159661146.42107
R01  22479934.544 5 120168268.30305  22479935.892 5  93464168.54205
R08  23608576.720 6 126422835.54106  23608563.369 6  98328848.58006
R13  23210236.419 4
R14  19699437.907 7 105009060.38007  19699437.720 7  81673718.00907
R15  20922270.783 7 111802303.54307  20922264.995 7  86957323.64007
R17  20927096.541 7 111985152.71407  20927088.473 7  87099519.47607
R18  23953362.136 5 127864715.46005  23953378.943 5  99450405.62705
R23  24606549.942 5 131628395.65905
R24  20719362.797 7 110795747.68507  20719354.284 7  86174421.58407
S30  37296766.368 6 195995808.62406
S43  36917273.802 7 194001551.50607
S44  38338051.033 6 201467806.38406
> 2025 03 17 06 42 37.0000000  0 52
C03  36667309.738 6 190936291.33106  36667303.027 7 147644035.16707  36667303.241 5 155151360.97105
C04  38431029.475 5 200120455.84805  38431024.701 6 154745802.00206  38431024.860 5 162614247.29505
C06  39428641.967 4                  39428649.437 5 158762753.15505
C07  36032735.347 7 187631866.79807  36032725.527 7 145088854.19107  36032723.125 6 152466241.51906
C09  38683572.172 5 201435509.06505  38683575.486 6 155762686.08306
C10  36885544.050 6 192072637.72306  36885537.256 7 148522777.15607  36885535.124 6 156074767.02206
C12  22366480.320 7 116468190.83907  22366473.916 7  90060526.87307  22366472.089 6  94639867.06306
C16  39745467.754 6                  39745491.746 6 160038500.81806
C19  26536980.537 5 138185013.60905                                  26536977.124 5 112286638.47405
C21  25393827.416 6 132232350.21406                                  25393833.229 5 107449690.90605
C22  24266538.813 6 126362221.21606                                  24266531.471 5 102679646.21905
C24  22577930.510 7 117569222.39207                                  22577925.226 6  95534568.19506
C25  23821040.901 6 124042345.06406                                  23821037.417 6 100794613.17106
C26  25372389.231 5                                                  25372402.771 5
C34  23021150.745 7 119877164.64407                                  23021148.751 6  97410017.18406
C35  25192875.373 6 131185897.58206                                  25192873.216 5 106599278.04205
C38  37195304.729 6 193685807.22806                                  37195300.860 6 157385500.71106
C40  36346428.320 7 189265403.45207                                  36346422.074 6 153793607.77806
C44  22213592.948 7 115672021.26107                                  22213587.449 6  93992954.31806
E13  23463641.572 7 123302287.48307  23463646.713 6  92076399.84906  23463642.844 7  94478348.80607
E15  26332562.875 5 138378525.07705  26332572.086 6 103334651.53706  26332567.401 6 106030307.72906
E21  23724442.683 7 124672808.78207  23724446.859 6  93099836.26106  23724443.355 7  95528500.58207
E23  27010334.257 5 141940295.07105  27010346.758 5 105994464.76005  27010342.300 6 108759487.26806
E26  25138754.736 6 132105063.30306  25138761.997 6  98649940.50706  25138757.865 7 101223382.38907
E27  24509485.351 6 128798211.89106  24509492.791 6  96180496.07906  24509488.775 7  98689524.16107
E30                                                                  29013472.104 3
G01  22761875.762 6 119614469.03906  22761875.553 3  93206096.00403  22761877.003 6  93206077.00006
G02  25037800.366 5 131574513.81205  25037801.454 2 102525626.90502
G03  21107583.662 6 110921134.41706  21107584.152 6  86432052.58206  21107585.807 6  86432027.57606
G06  22785136.046 5 119736744.74805  22785142.988 5  93301369.72305  22785144.743 6  93301357.75206
G14  19976728.720 7 104978439.97207  19976726.787 5  81801373.95505  19976727.865 7  81801357.95707
G17  21271725.958 6 111783709.49006  21271722.117 6  87104166.06306  21271723.753 6  87104144.07406
G19  22257211.170 6 116962453.90506  22257209.023 4  91139569.76804
G22  20974609.286 6 110222312.27306  20974605.806 4  85887512.10004
G30  23981990.925 5 126026092.59605  23982014.450 4  98202329.50404  23982015.674 5  98202338.43405
I02  38858289.043 6 152488285.82306
I03  39651112.734 6 155599488.37306
I10  36525585.674 6 143334246.98806
J02  37352879.616 6 196290707.81606  37352880.443 7 152953796.75507
J03  38991042.006 6 204899316.17106  38991041.535 7 159661790.62207
R01  22479546.490 5 120166196.07405  22479547.583 5  93462556.83305
R08  23608732.042 6 126423668.69106  23608719.105 6  98329496.60006
R13  23211128.593 4
R14  19699828.130 7 105011139.35307  19699827.710 7  81675334.99107
R15  20921893.043 7 111800286.57807  20921887.746 7  86955754.88807
R17  20926994.074 7 111984604.10207  20926985.927 7  87099092.77807
R18  23952987.754 5 127862716.06005  23953004.456 5  99448850.56005
R23  24607118.186 4 131631443.11404
R24  20719720.584 7 110797662.93407  20719712.251 7  86175911.21707
S30  37296812.546 6 195996061.13806
S43  36917324.171 6 194001831.15806
S44  38338101.025 5 201468063.27305
> 2025 03 17 06 42 38.0000000  0 52
C03  36667361.590 6 190936561.21106  36667354.853 7 147644243.86607  36667355.067 5 155151580.27105
C04  38431077.294 6 200120702.90206  38431072.136 6 154745993.07206  38431072.215 5 162614448.04105
C06  39429048.571 4                  39429056.418 5 158764389.59105
C07  36032729.405 7 187631832.03207  36032718.759 7 145088827.30507  36032716.557 6 152466213.28206
C09  38683972.423 5 201437588.90505  38683974.869 6 155764294.33606
C10  36885510.189 6 192072457.76306  36885502.742 7 148522637.99307  36885500.719 6 156074620.77006
C12  22366544.188 7 116468520.21007  22366537.200 7  90060781.57807  22366535.335 6  94640134.71906
C16  39745858.312 6                  39745881.805 6 160040071.27006
C19  26537241.982 5 138186374.66405                                  26537238.492 5 112287744.42205
C21  25393344.659 6 132229835.12806                                  25393350.225 5 107447647.23805
C22  24266349.204 6 126361233.51806                                  24266341.624 6 102678843.62906
C24  22578329.697 7 117571300.48507                                  22578324.291 6  95536256.83906
C25  23820886.526 6 124041540.14706                                  23820882.804 6 100793959.11006
C26  25373066.950 5                                                  25373080.437 5
C34  23020991.017 7 119876332.06707                                  23020988.881 6  97409340.65906
C35  25193313.954 6 131188180.36706                                  25193311.732 5 106601132.99605
C38  37195095.833 6 193684718.44606                                  37195091.776 6 157384615.98706
C40  36346421.631 7 189265367.20407                                  36346415.309 6 153793578.32506
C44  22213812.938 7 115673167.03707                                  22213807.492 6  93993885.35606
E13  23463834.754 6 123303302.86006  23463839.912 6  92077158.06706  23463836.023 7  94479126.81707
E15  26333073.191 5 138381207.64805  26333082.641 6 103336654.72306  26333077.828 6 106032363.19306
E21  23724345.277 6 124672296.96906  23724349.518 6  93099454.07406  23724345.894 7  95528108.41307
E23  27009889.567 5 141937960.88805  27009902.401 5 105992721.72705  27009898.131 6 108757698.74906
E26  25138515.608 6 132103808.41506  25138523.239 6  98649003.43806  25138519.050 7 101222420.85607
E27  24509894.594 6 128800363.24806  24509902.184 6  96182102.60506  24509898.164 7  98691172.60007
E30                                                                  29014070.697 3
G01  22762480.749 6 119617647.10006  22762480.331 3  93208572.41103  22762481.732 6  93208553.40506
G02  25038395.005 5 131577639.14905  25038396.086 2 102528062.22202
G03  21107733.790 6 110921922.84406  21107734.166 6  86432666.94006  21107735.648 6  86432641.95006
G06  22784761.132 5 119734773.81705  22784767.886 5  93299833.93605  22784769.466 6  93299821.97106
G14  19976835.153 6 104979000.07206  19976833.341 5  81801810.39605  19976834.381 7  81801794.39907
G17  21271637.581 6 111783246.05806  21271633.914 6  87103804.94706  21271635.511 6  87103782.96106
G19  22256872.045 6 116960672.94206  22256870.057 4  91138182.00704
G22  20974433.846 6 110221390.62606  20974430.385 4  85886793.93104
G30  23982567.616 5 126029123.46305  23982591.249 4  98204691.15904  23982592.489 6  98204700.10606
I02  38858283.514 6 152488264.36006
I03  39650832.021 6 155598386.28006
I10  36525658.177 6 143334531.31506
J02  37352787.764 6 196290223.60906  37352788.394 7 152953419.44907
J03  38991199.405 6 204900142.88506  38991198.793 7 159662434.81307
R01  22479157.792 5 120164124.35705  22479159.835 5  93460945.51605
R08  23608887.753 6 126424502.58306  23608874.868 6  98330145.21306
R13  23212019.778 4
R14  19700218.387 7 105013219.17107  19700217.649 7  81676952.62207
R15  20921515.781 7 111798270.35407  20921510.232 7  86954186.72407
R17  20926891.625 7 111984055.79707  20926883.565 7  87098666.31707
R18  23952614.137 5 127860716.86905  23952629.540 5  99447295.65505
R23  24607685.404 4 131634490.41404
R24  20720078.557 7 110799578.34807  20720070.406 7  86177400.97107
S30  37296859.606 6 195996313.67706
S43  36917376.985 6 194002110.83506
S44  38338147.772 5 201468320.17905
> 2025 03 17 06 42 39.0000000  0 52
C03  36667413.381 6 190936831.19206  36667406.679 7 147644452.63707  36667407.027 5 155151799.64605
C04  38431125.091 5 200120950.06605  38431119.392 6 154746184.20006  38431119.744 5 162614648.88205
C06  39429455.248 4                  39429462.686 5 158766026.01305
C07  36032723.373 6 187631797.38606  36032711.995 7 145088800.50807  36032709.854 6 152466185.13206
C09  38684372.766 5 201439668.86505  38684374.191 6 155765902.68806
C10  36885476.261 6 192072277.88006  36885468.122 7 148522498.89707  36885466.186 6 156074474.61706
C12  22366607.961 7 116468849.81607  22366600.379 7  90061036.44307  22366598.758 6  94640402.55206
C16  39746248.628 5 206969122.99805  39746271.786 6 160041641.77706
C19  26537503.230 5 138187736.26905                                  26537499.990 5 112288850.88805
C21  25392861.995 5 132227320.14605                                  25392867.219 5 107445603.67105
C22  24266159.846 6 126360246.31506                                  24266151.972 6 102678041.45906
C24  22578729.170 7 117573379.09107                                  22578723.516 6  95537945.88706
C25  23820732.132 6 124040735.85706                                  23820728.313 6 100793305.57406
C26  25373744.495 5                                                  25373758.205 5
C34  23020831.526 7 119875499.70307                                  23020828.898 6  97408664.28406
C35  25193752.419 6 131190463.23906                                  25193750.236 5 106602988.02105
C38  37194886.881 6 193683629.92006                                  37194882.777 6 157383731.47306
C40  36346414.723 7 189265331.03207                                  36346408.373 6 153793548.94106
C44  22214033.217 7 115674313.01707                                  22214027.663 6  93994816.57306
E13  23464027.828 6 123304318.57906  23464033.223 6  92077916.56206  23464029.268 7  94479905.09907
E15  26333583.376 5 138383890.28805  26333593.139 6 103338658.00006  26333588.292 7 106034418.72107
E21  23724247.796 7 124671785.65307  23724252.267 6  93099072.23806  23724248.541 7  95527716.61607
E23  27009445.400 5 141935626.90505  27009458.150 5 105990978.81405  27009453.883 6 108755910.36806
E26  25138276.639 6 132102553.89206  25138284.462 6  98648066.62106  25138280.292 7 101221459.61107
E27  24510303.914 6 128802515.05006  24510311.746 6  96183709.44806  24510307.642 7  98692821.37407
E30                                                                  29014670.883 3
G01  22763085.102 6 119620825.33806  22763085.162 3  93211048.95303  22763086.619 7  93211029.95507
G02  25038989.465 5 131580764.44605  25038990.781 2 102530497.51102
G03  21107884.204 6 110922712.06706  21107884.332 6  86433281.91406  21107885.787 6  86433256.92606
G06  22784385.459 5 119732803.29705  22784392.874 5  93298298.47505  22784394.470 6  93298286.50506
G14  19976941.662 7 104979560.88907  19976940.012 5  81802247.39005  19976941.158 7  81802231.40107
G17  21271549.439 6 111782782.80406  21271545.738 6  87103443.97306  21271547.143 6  87103422.00206
G19  22256532.828 6 116958892.11306  22256531.121 4  91136794.35504
G22  20974258.458 6 110220469.53006  20974255.084 4  85886076.18704
G30  23983144.398 5 126032154.36605  23983167.990 4  98207052.84004  23983169.583 6  98207061.78906
I02  38858278.377 6 152488242.93706
I03  39650551.054 6 155597284.24706
I10  36525730.593 6 143334815.71106
J02  37352695.492 6 196289739.52406  37352696.279 7 152953042.24607
J03  38991356.712 6 204900969.61806  38991356.134 7 159663079.03407
R01  22478770.357 5 120162053.21205  22478773.281 5  93459334.61505
R08  23609044.179 6 126425337.38506  23609031.284 6  98330794.49706
R13  23212910.955 4
R14  19700608.741 7 105015299.91707  19700607.886 7  81678570.96907
R15  20921138.642 7 111796254.93707  20921132.929 7  86952619.18407
R17  20926789.294 7 111983507.86307  20926780.805 7  87098240.15907
R18  23952240.114 5 127858717.98405  23952254.834 5  99445741.01205
R23  24608253.510 4 131637537.73604
R24  20720436.550 7 110801493.96507  20720428.388 7  86178890.91307
S30  37296905.650 6 195996566.32506
S43  36917427.689 6 194002390.59706
S44  38338196.079 5 201468577.16605
> 2025 03 17 06 42 40.0000000  0 52
C03  36667465.314 6 190937101.18506  36667458.528 7 147644661.40007  36667458.750 5 155152019.03305
C04  38431172.392 5 200121197.25705  38431166.831 6 154746375.34206  38431167.259 5 162614849.75905
C06  39429861.884 4                  39429868.704 5 158767662.47505
C07  36032717.093 6 187631762.70006  36032705.147 7 145088773.69707  36032703.185 6 152466156.94506
C09  38684772.284 5 201441748.91705  38684773.644 6 155767511.11006
C10  36885441.989 6 192072097.96406  36885433.544 7 148522359.76307  36885431.596 6 156074328.41406
C12  22366671.469 7 116469179.54207  22366663.594 7  90061291.40907  22366662.051 6  94640670.48106
C16  39746638.990 5 206971153.97005  39746661.714 6 160043212.25106
C19  26537765.085 5 138189098.40205                                  26537761.801 5 112289957.71505
C21  25392378.904 5 132224805.20405                                  25392384.043 5 107443560.10005
C22  24265970.220 6 126359259.54406                                  24265962.496 5 102677239.64005
C24  22579128.332 7 117575458.15307                                  22579122.762 6  95539635.27706
C25  23820577.652 6 124039932.07206                                  23820574.020 6 100792652.41506
C26  25374421.758 5                                                  25374436.094 5
C34  23020671.682 7 119874667.46007                                  23020669.058 6  97407988.03806
C35  25194190.864 6 131192746.09106                                  25194188.598 5 106604843.02805
C38  37194677.672 6 193682541.52306                                  37194673.713 6 157382847.04206
C40  36346407.602 7 189265294.82607                                  36346401.333 6 153793519.52106
C44  22214253.204 7 115675459.09307                                  22214247.806 6  93995747.83306
E13  23464221.277 6 123305334.57206  23464226.468 6  92078675.25406  23464222.586 7  94480683.57907
E15  26334093.756 5 138386572.96405  26334103.522 6 103340661.29506  26334098.786 7 106036474.26407
E21  23724150.487 6 124671274.70306  23724155.131 6  93098690.69006  23724151.244 7  95527325.10907
E23  27009001.141 5 141933293.00205  27009014.029 5 105989235.96305  27009009.722 6 108754122.07506
E26  25138038.019 6 132101299.67806  25138045.751 6  98647130.02206  25138041.605 7 101220498.58407
E27  24510713.518 6 128804667.19206  24510721.321 6  96185316.57906  24510717.126 7  98694470.41007
E30                                                                  29015270.572 3
G01  22763689.902 6 119624003.70306  22763689.940 3  93213525.59103  22763691.365 6  93213506.57206
G02  25039584.001 5 131583889.68305  25039585.489 2 102532932.74702
G03  21108034.146 6 110923502.00806  21108034.632 6  86433897.45006  21108036.034 6  86433872.45106
G06  22784010.462 5 119730833.12705  22784017.955 5  93296763.28905  22784019.545 6  93296751.30806
G14  19977048.335 7 104980122.36607  19977046.866 5  81802684.89605  19977047.960 7  81802668.90707
G17  21271461.053 6 111782319.68306  21271457.598 6  87103083.09906  21271458.991 6  87103061.11106
G19  22256193.551 6 116957111.32406  22256192.221 4  91135406.73504
G22  20974083.234 6 110219548.92306  20974079.899 4  85885358.83004
G30  23983721.136 5 126035185.31605  23983744.807 4  98209414.58004  23983746.485 6  98209423.51406
I02  38858273.282 6 152488221.56506
I03  39650270.418 6 155596182.22606
I10  36525802.797 6 143335100.12106
J02  37352603.080 6 196289255.51506  37352604.153 7 152952665.07407
J03  38991514.098 6 204901796.33106  38991513.499 7 159663723.20507
R01  22478383.216 5 120159982.51605  22478385.734 5  93457724.09305
R08  23609199.691 6 126426172.89206  23609187.383 6  98331444.33006
R13  23213802.100 4
R14  19700999.638 7 105017381.52107  19700998.567 7  81680190.00007
R15  20920761.905 7 111794240.25107  20920756.103 7  86951052.20407
R17  20926687.273 7 111982960.19907  20926678.687 7  87097814.20907
R18  23951866.353 5 127856719.36605  23951880.915 5  99444186.54705
R23  24608822.120 4 131640584.77304
R24  20720794.220 7 110803409.65907  20720786.793 7  86180380.91707
S30  37296953.961 6 195996818.98306
S43  36917482.555 6 194002670.39206
S44  38338246.934 5 201468834.20105
> 2025 03 17 06 42 41.0000000  0 52
C03  36667517.489 6 190937371.09606  36667510.171 7 147644870.13207  36667510.469 5 155152238.38405
C04  38431220.069 5 200121444.39205  38431214.190 6 154746566.44006  38431214.627 5 162615050.56405
C06  39430268.555 4                  39430275.728 5 158769298.88205
C07  36032710.672 6 187631727.94406  36032698.292 7 145088746.81307  36032696.496 6 152466128.70406
C09  38685172.273 5 201443828.94205  38685173.230 6 155769119.49306
C10  36885407.584 6 192071917.94006  36885398.889 7 148522220.56807  36885397.077 6 156074182.12906
C12  22366735.130 7 116469509.31807  22366726.816 7  90061546.40707  22366725.432 6  94640938.44706
C16  39747029.572 5 206973184.85905  39747051.880 6 160044782.61906
C19  26538026.557 5 138190460.96105                                  26538023.488 5 112291064.89605
C21  25391895.987 6 132222290.23306                                  25391900.903 5 107441516.50705
C22  24265780.770 6 126358273.14106                                  24265772.959 5 102676438.07705
C24  22579527.635 7 117577537.55507                                  22579522.068 6  95541324.96006
C25  23820423.294 6 124039128.71506                                  23820419.660 6 100791999.62706
C26  25375099.539 5                                                  25375113.845 4
C34  23020511.990 7 119873835.29007                                  23020509.194 6  97407311.82906
C35  25194629.358 6 131195028.87906                                  25194627.038 5 106606697.99305
C38  37194468.619 6 193681453.20106                                  37194464.629 6 157381962.71606
C40  36346400.680 7 189265258.52107                                  36346394.368 6 153793490.00906
C44  22214473.290 7 115676605.20507                                  22214467.823 6  93996679.13506
E13  23464414.459 6 123306350.75506  23464419.777 6  92079434.10406  23464415.938 7  94481462.21107
E15  26334604.051 5 138389255.55205  26334613.986 6 103342664.51006  26334609.303 7 106038529.76107
E21  23724053.345 6 124670764.06306  23724057.849 6  93098309.35906  23724054.072 7  95526933.84407
E23  27008556.692 5 141930959.16205  27008570.017 5 105987493.15805  27008565.565 6 108752333.80306
E26  25137799.325 5 132100045.64705  25137806.992 6  98646193.58906  25137802.917 7 101219537.70907
E27  24511123.088 6 128806819.60106  24511130.858 6  96186923.88306  24511126.665 7  98696119.65107
E30                                                                  29015870.302 3
G01  22764294.947 6 119627182.04606  22764294.767 3  93216002.21303  22764296.211 6  93215983.20606
G02  25040178.547 5 131587014.70005  25040180.156 2 102535367.80502
G03  21108184.630 6 110924292.57206  21108185.071 6  86434513.47306  21108186.574 6  86434488.49106
G06  22783635.908 5 119728863.22405  22783643.076 5  93295228.30605  22783644.738 6  93295216.32706
G14  19977155.622 6 104980684.41506  19977153.822 5  81803122.85205  19977154.866 7  81803106.85707
G17  21271373.125 6 111781856.56506  21271369.458 6  87102722.22806  21271370.710 6  87102700.24906
G19  22255854.217 6 116955330.52206  22255853.317 4  91134019.10304
G22  20973908.380 6 110218628.72006  20973904.763 4  85884641.79404
G30  23984297.689 5 126038216.16005  23984321.664 4  98211776.22104  23984323.302 6  98211785.15006
I02  38858267.942 6 152488200.18006
I03  39649989.407 6 155595080.12906
I10  36525875.179 6 143335384.46906
J02  37352510.848 6 196288771.47206  37352512.131 7 152952287.89907
J03  38991671.378 6 204902622.91206  38991670.787 7 159664367.29007
R01  22477996.005 5 120157912.24405  22477998.718 5  93456113.90005
R08  23609356.243 6 126427009.12706  23609342.877 6  98332094.75006
R13  23214692.065 4
R14  19701390.433 7 105019463.91307  19701389.479 7  81681809.64107
R15  20920385.190 7 111792226.21507  20920379.174 7  86949485.75207
R17  20926585.310 7 111982412.76607  20926576.609 7  87097388.41707
R18  23951491.525 5 127854720.90705  23951506.062 5  99442632.22805
R23  24609390.557 4 131643631.63104
R24  20721152.139 7 110805325.38707  20721145.172 7  86181870.91407
S30  37297002.268 6 195997071.56306
S43  36917536.067 6 194002950.11806
S44  38338294.360 5 201469091.12005
> 2025 03 17 06 42 42.0000000  0 52
C03  36667569.262 6 190937641.01706  36667561.854 7 147645078.84007  36667562.219 5 155152457.71405
C04  38431267.656 5 200121691.50905  38431261.616 6 154746757.52406  38431261.995 5 162615251.37005
C06  39430673.912 4                  39430682.609 5 158770935.21505
C07  36032703.967 6 187631693.13506  36032691.606 7 145088719.89707  36032689.853 6 152466100.41306
C09  38685571.676 5 201445908.95205  38685572.612 6 155770727.89606
C10  36885373.059 6 192071737.87806  36885364.329 7 148522081.33007  36885362.362 6 156074035.82806
C12  22366798.520 7 116469839.19807  22366790.071 7  90061801.48707  22366788.663 6  94641206.50606
C16  39747419.006 5 206975215.64205  39747441.747 6 160046352.95006
C19  26538288.245 5 138191823.96805                                  26538285.029 5 112292172.43205
C21  25391412.954 5 132219775.24405                                  25391417.759 5 107439472.92705
C22  24265591.262 6 126357287.11506                                  24265583.675 5 102675636.86105
C24  22579927.089 7 117579617.37507                                  22579921.385 6  95543014.97406
C25  23820268.929 6 124038325.86306                                  23820265.494 6 100791347.25806
C26  25375776.825 5                                                  25375791.479 5
C34  23020352.204 7 119873003.20207                                  23020349.384 6  97406635.67306
C35  25195067.592 6 131197311.62206                                  25195065.312 5 106608552.89305
C38  37194259.653 6 193680365.01906                                  37194255.590 6 157381078.46106
C40  36346393.817 7 189265222.16207                                  36346387.288 6 153793460.46306
C44  22214693.390 7 115677751.37307                                  22214687.933 6  93997610.49306
E13  23464607.810 6 123307367.18006  23464613.229 6  92080193.12906  23464609.309 7  94482241.03407
E15  26335114.633 5 138391938.14605  26335124.546 6 103344667.74506  26335119.740 6 106040585.25206
E21  23723955.988 6 124670253.77806  23723960.674 6  93097928.31806  23723956.958 7  95526542.85307
E23  27008112.629 5 141928625.34205  27008125.928 5 105985750.42405  27008121.460 6 108750545.61006
E26  25137560.403 5 132098791.87905  25137568.287 6  98645257.32306  25137564.272 7 101218577.03407
E27  24511532.615 6 128808972.31206  24511540.499 6  96188531.44106  24511536.245 7  98697769.13607
E30                                                                  29016469.629 3
G01  22764899.791 6 119630360.46406  22764899.671 3  93218478.90403  22764900.979 6  93218459.91606
G02  25040772.617 5 131590139.63905  25040774.837 2 102537802.82402
G03  21108335.009 6 110925083.83506  21108335.640 6  86435130.04106  21108337.164 6  86435105.05006
G06  22783261.090 5 119726893.63905  22783268.261 5  93293693.57405  22783269.766 6  93293681.59706
G14  19977262.494 6 104981247.06306  19977260.887 5  81803561.28205  19977261.889 7  81803545.29607
G17  21271284.879 6 111781393.54006  21271281.336 6  87102361.42906  21271282.729 6  87102339.44106
G19  22255515.247 6 116953549.74506  22255514.440 4  91132631.48104
G22  20973733.031 6 110217708.97206  20973729.740 4  85883925.10704
G30  23984874.025 5 126041246.98505  23984898.485 4  98214137.86804  23984899.907 6  98214146.82306
I02  38858262.384 6 152488178.80306
I03  39649708.895 6 155593978.03106
I10  36525947.725 6 143335668.84306
J02  37352418.431 6 196288287.46106  37352419.959 7 152951910.75407
J03  38991828.364 6 204903449.41006  38991828.028 7 159665011.32607
R01  22477608.267 5 120155842.50705  22477611.030 5  93454504.09205
R08  23609512.597 6 126427846.06206  23609499.152 5  98332745.69405
R13  23215583.214 4
R14  19701781.632 7 105021547.12907  19701780.343 7  81683429.90307
R15  20920008.476 7 111790212.91007  20920002.341 7  86947919.84007
R17  20926483.173 7 111981865.58207  20926474.182 7  87096962.83107
R18  23951116.696 5 127852722.60405  23951131.980 5  99441078.04405
R23  24609959.246 4 131646678.22804
R24  20721510.485 7 110807241.20807  20721503.644 7  86183361.00507
S30  37297051.394 6 195997324.10106
S43  36917589.356 6 194003229.82706
S44  38338342.520 5 201469348.07305
> 2025 03 17 06 42 43.0000000  0 52
C03  36667621.298 6 190937911.06206  36667613.720 7 147645287.68607  36667614.215 5 155152677.15505
C04  38431315.229 5 200121938.76005  38431309.082 6 154746948.73406  38431309.519 5 162615452.26405
C06  39431080.785 4                  39431089.089 5 158772571.61005
C07  36032697.288 6 187631658.46706  36032684.943 7 145088693.10907  36032683.315 6 152466072.23606
C09  38685971.264 5 201447989.17105  38685971.890 6 155772336.45806
C10  36885338.576 6 192071557.93106  36885329.703 7 148521942.19207  36885327.785 6 156073889.59806
C12  22366861.749 6 116470169.33506  22366853.398 7  90062056.79607  22366851.940 6  94641474.76306
C16  39747809.030 5 206977246.55005  39747831.769 6 160047923.32906
C19  26538549.676 5 138193187.60105                                  26538546.716 5 112293280.51805
C21  25390930.301 5 132217260.43305                                  25390934.597 5 107437429.43805
C22  24265402.091 6 126356301.64106                                  24265394.431 6 102674836.09706
C24  22580326.457 7 117581697.75207                                  22580320.974 6  95544705.44706
C25  23820114.612 6 124037523.64606                                  23820111.560 6 100790695.38606
C26  25376454.522 5                                                  25376469.260 5
C34  23020192.386 6 119872171.35906                                  23020189.626 6  97405959.75106
C35  25195505.894 6 131199594.49206                                  25195503.606 5 106610407.90105
C38  37194050.748 6 193679277.10006                                  37194046.592 6 157380194.45306
C40  36346386.756 7 189265185.91607                                  36346380.247 6 153793431.01006
C44  22214913.425 7 115678897.77907                                  22214908.056 6  93998542.04606
E13  23464801.297 6 123308384.00206  23464806.821 6  92080952.43506  23464802.715 7  94483020.16507
E15  26335625.167 5 138394620.87205  26335635.144 6 103346671.09306  26335630.232 6 106042640.86406
E21  23723858.964 6 124669744.02506  23723863.635 6  93097547.66406  23723859.922 7  95526152.26707
E23  27007668.357 5 141926291.83805  27007681.941 5 105984007.86605  27007677.338 6 108748757.58406
E26  25137321.633 5 132097538.51505  25137329.922 6  98644321.39706  25137325.734 7 101217616.69007
E27  24511942.284 6 128811125.52406  24511950.255 6  96190139.34406  24511945.915 7  98699419.00407
E30                                                                  29017069.376 4
G01  22765504.385 6 119633539.14306  22765504.583 3  93220955.79703  22765505.810 6  93220936.81506
G02  25041366.855 5 131593264.58305  25041369.469 2 102540237.84102
G03  21108485.466 6 110925875.92906  21108486.351 6  86435747.25706  21108487.993 6  86435722.28706
G06  22782885.960 5 119724924.52805  22782893.525 5  93292159.21605  22782895.032 6  93292147.24806
G14  19977369.826 6 104981810.50206  19977368.089 5  81804000.32505  19977369.002 7  81803984.35707
G17  21271196.449 6 111780930.75606  21271193.249 6  87102000.81506  21271194.594 6  87101978.83706
G19  22255175.985 6 116951769.15006  22255175.567 4  91131243.99704
G22  20973558.147 6 110216789.83306  20973554.814 4  85883208.89304
G30  23985451.930 4 126044277.93604  23985475.275 4  98216499.61204  23985476.283 6  98216508.55206
I02  38858256.838 6 152488157.54006
I03  39649427.973 6 155592876.02606
I10  36526020.256 6 143335953.30506
J02  37352326.115 6 196287803.65406  37352327.882 7 152951533.76107
J03  38991985.483 6 204904276.00206  38991985.177 7 159665655.43307
R01  22477220.947 5 120153773.34605  22477223.464 5  93452894.78605
R08  23609668.874 6 126428683.87706  23609655.669 6  98333397.33706
R13  23216474.762 4
R14  19702172.598 6 105023631.27106  19702171.429 7  81685050.89807
R15  20919631.974 7 111788200.46507  20919625.848 7  86946354.61207
R17  20926380.705 7 111981318.78507  20926372.106 7  87096537.55907
R18  23950742.217 5 127850724.68105  23950757.925 5  99439524.14405
R23  24610528.118 4 131649724.76504
R24  20721868.894 7 110809157.29907  20721861.993 7  86184851.29907
S30  37297100.358 6 195997576.80706
S43  36917640.717 6 194003509.65706
S44  38338392.374 5 201469605.12205
> 2025 03 17 06 42 44.0000000  0 52
C03  36667673.249 6 190938181.08006  36667665.479 7 147645496.45207  36667666.126 5 155152896.55705
C04  38431363.116 5 200122185.99305  38431356.200 6 154747139.87306  38431357.138 5 162615653.16705
C06  39431486.804 4                  39431495.079 5 158774207.98805
C07  36032690.272 6 187631623.74706  36032678.195 7 145088666.24207  36032676.718 6 152466044.02406
C09  38686370.456 5 201450069.40105  38686371.165 6 155773944.97106
C10  36885304.089 6 192071377.89606  36885295.056 7 148521802.96507  36885293.277 6 156073743.29706
C12  22366925.038 7 116470499.54207  22366916.696 7  90062312.10607  22366915.568 6  94641743.08106
C16  39748198.786 5 206979277.35605  39748221.645 6 160049493.61406
C19  26538811.196 5 138194551.67905                                  26538808.730 5 112294388.91805
C21  25390447.519 5 132214745.54905                                  25390451.694 5 107435385.96305
C22  24265212.849 6 126355316.55706                                  24265205.248 6 102674035.65206
C24  22580726.015 7 117583778.50907                                  22580720.633 6  95546396.23006
C25  23819960.816 6 124036721.88806                                  23819957.637 6 100790043.88606
C26  25377132.487 5                                                  25377147.382 5
C34  23020032.732 7 119871339.58707                                  23020029.978 6  97405283.86106
C35  25195944.437 6 131201877.30106                                  25195942.092 5 106612262.86505
C38  37193841.805 6 193678189.26406                                  37193837.784 6 157379310.49406
C40  36346379.642 7 189265149.57907                                  36346373.346 6 153793401.47906
C44  22215133.507 7 115680044.22507                                  22215128.306 6  93999473.61706
E13  23464994.792 6 123309401.03706  23465000.421 6  92081711.91806  23464996.188 7  94483799.44407
E15  26336135.819 5 138397303.57205  26336145.689 6 103348674.40706  26336140.696 6 106044696.42106
E21  23723761.937 6 124669234.59006  23723766.717 6  93097167.22806  23723762.897 7  95525761.91007
E23  27007224.212 5 141923958.36805  27007237.951 5 105982265.34005  27007233.145 6 108746969.58706
E26  25137083.236 6 132096285.40006  25137091.381 6  98643385.61406  25137087.205 7 101216656.48907
E27  24512352.046 6 128813279.01706  24512360.008 6  96191747.45506  24512355.638 7  98701069.06107
E30                                                                  29017668.516 3
G01  22766109.347 6 119636717.87006  22766109.477 3  93223432.71903  22766110.664 6  93223413.72106
G02  25041961.769 5 131596389.35905  25041964.043 2 102542672.72302
G03  21108636.440 6 110926668.67906  21108637.188 6  86436364.98106  21108638.759 6  86436340.00206
G06  22782511.632 5 119722955.70105  22782518.821 5  93290625.07405  22782520.364 6  93290613.10906
G14  19977477.154 6 104982374.54806  19977475.408 5  81804439.84405  19977476.223 7  81804423.85507
G17  21271108.562 6 111780468.00906  21271105.163 6  87101640.23606  21271106.685 6  87101618.26506
G19  22254837.467 6 116949988.54906  22254836.644 4  91129856.52204
G22  20973383.085 6 110215871.14306  20973379.938 4  85882493.03804
G30  23986028.670 5 126047308.87105  23986052.034 4  98218861.34104  23986053.114 6  98218870.28006
I02  38858251.496 6 152488136.26806
I03  39649147.126 6 155591773.97706
I10  36526092.971 6 143336237.72806
J02  37352233.732 6 196287319.83706  37352235.693 7 152951156.74707
J03  38992142.351 6 204905102.49906  38992142.414 7 159666299.44107
R01  22476833.366 5 120151704.67005  22476836.273 5  93451285.82405
R08  23609824.619 6 126429522.42006  23609812.270 6  98334049.54006
R13  23217367.602 4
R14  19702563.764 7 105025716.12507  19702562.553 7  81686672.44507
R15  20919255.608 7 111786188.70707  20919249.552 7  86944789.89907
R17  20926278.660 7 111980772.24907  20926270.003 7  87096112.46407
R18  23950368.968 5 127848726.94405  23950383.584 5  99437970.35105
R23  24611097.026 4 131652771.21304
R24  20722227.341 7 110811073.47807  20722220.664 7  86186341.63607
S30  37297146.666 6 195997829.43906
S43  36917695.096 6 194003789.45006
S44  38338442.130 5 201469862.15105
> 2025 03 17 06 42 45.0000000  0 52
C03  36667725.312 6 190938451.09606  36667717.305 7 147645705.25007  36667718.002 5 155153115.98405
C04  38431410.667 5 200122433.23105  38431403.550 6 154747331.04306  38431404.756 5 162615854.03805
C06  39431893.297 4                  39431901.540 5 158775844.30405
C07  36032683.421 6 187631589.02606  36032671.526 7 145088639.39907  36032670.113 6 152466015.80806
C09  38686769.508 5 201452149.64205  38686770.536 6 155775553.56006
C10  36885269.302 6 192071197.82506  36885260.470 7 148521663.72807  36885258.784 6 156073596.96806
C12  22366988.222 7 116470829.84607  22366980.040 7  90062567.53307  22366979.030 6  94642011.49306
C16  39748588.535 5 206981308.08105  39748611.775 6 160051063.88106
C19  26539072.757 5 138195916.21005                                  26539070.845 5 112295497.74205
C21  25389964.170 5 132212230.72205                                  25389968.722 5 107433342.48605
C22  24265023.581 6 126354331.89206                                  24265016.168 6 102673235.53906
C24  22581125.555 7 117585859.69107                                  22581120.356 6  95548087.35006
C25  23819807.057 6 124035920.63906                                  23819803.835 6 100789392.81006
C26  25377810.510 5                                                  25377825.249 5
C34  23019872.899 7 119870507.96407                                  23019870.284 6  97404608.10406
C35  25196382.586 6 131204160.07506                                  25196380.369 5 106614117.82905
C38  37193632.920 6 193677101.57606                                  37193628.751 6 157378426.65906
C40  36346372.555 7 189265113.21307                                  36346366.505 6 153793371.93206
C44  22215353.590 7 115681190.76807                                  22215348.456 6  94000405.28606
E13  23465188.455 6 123310418.33606  23465194.064 6  92082471.58306  23465189.726 7  94484578.93107
E15  26336646.591 5 138399986.31405  26336656.177 6 103350677.70506  26336651.169 6 106046752.00606
E21  23723665.045 6 124668725.54706  23723669.907 6  93096787.11506  23723666.013 7  95525371.86807
E23  27006780.296 5 141921624.99905  27006793.880 5 105980522.88105  27006789.092 6 108745181.68606
E26  25136844.943 5 132095032.58405  25136852.935 6  98642450.05706  25136848.772 7 101215696.51607
E27  24512762.074 6 128815432.85206  24512769.893 6  96193355.83406  24512765.432 7  98702719.39207
E30                                                                  29018268.469 3
G01  22766714.442 6 119639896.68906  22766714.255 3  93225909.71803  22766715.641 6  93225890.73006
G02  25042556.690 5 131599514.04105  25042558.648 2 102545107.54702
G03  21108787.379 6 110927462.16406  21108788.172 6  86436983.28406  21108789.633 6  86436958.29406
G06  22782137.357 5 119720987.26405  22782144.193 5  93289091.22705  22782145.698 6  93289079.24406
G14  19977584.550 6 104982939.23606  19977582.875 5  81804879.86005  19977583.808 7  81804863.86707
G17  21271020.573 6 111780005.38006  21271017.103 6  87101279.74806  21271018.715 6  87101257.77806
G19  22254498.829 6 116948208.00806  22254497.776 4  91128469.08904
G22  20973208.168 6 110214952.93706  20973205.169 4  85881777.55104
G30  23986604.835 5 126050339.79305  23986628.811 4  98221223.04804  23986629.868 5  98221231.98305
I02  38858245.938 6 152488114.99506
I03  39648866.338 6 155590671.93306
I10  36526165.481 6 143336522.17706
J02  37352141.601 6 196286836.08906  37352143.666 7 152950779.80407
J03  38992299.306 6 204905928.95006  38992299.678 7 159666943.43107
R01  22476446.382 5 120149636.47905  22476448.994 5  93449677.27505
R08  23609980.856 5 126430361.81205  23609968.706 5  98334702.37205
R13  23218258.358 4
R14  19702955.143 6 105027801.80506  19702953.754 7  81688294.63007
R15  20918879.192 7 111784177.72707  20918873.229 7  86943225.80607
R17  20926176.517 6 111980226.00706  20926168.077 7  87095687.61407
R18  23949994.656 5 127846729.41905  23950010.259 5  99436416.76105
R23  24611667.517 4 131655817.34704
R24  20722585.960 7 110812989.75507  20722579.156 7  86187832.08807
S30  37297194.101 6 195998082.12706
S43  36917747.495 6 194004069.27506
S44  38338491.192 5 201470119.18305
> 2025 03 17 06 42 46.0000000  0 52
C03  36667777.469 6 190938721.24506  36667769.172 7 147645914.15707  36667770.083 5 155153335.50505
C04  38431458.107 5 200122680.56005  38431451.132 6 154747522.32806  38431452.267 5 162616055.04805
C06  39432300.197 4                  39432307.329 5 158777480.79205
C07  36032676.591 6 187631554.44006  36032664.867 7 145088612.65607  36032663.409 6 152465987.72406
C09  38687168.320 5 201454230.08205  38687170.059 6 155777162.25906
C10  36885234.633 6 192071017.87906  36885225.984 7 148521524.58807  36885224.185 6 156073450.78206
C12  22367051.688 7 116471160.44407  22367043.445 7  90062823.17007  22367042.514 6  94642280.13206
C16  39748978.719 5 206983338.93005  39749001.819 6 160052634.22106
C19  26539335.172 5 138197281.42505                                  26539333.162 5 112296607.06105
C21  25389481.352 6 132209716.07006                                  25389485.807 5 107431299.14505
C22  24264834.672 6 126353347.79506                                  24264827.254 6 102672435.86006
C24  22581525.262 7 117587941.42607                                  22581520.111 6  95549778.93806
C25  23819653.297 6 124035120.01806                                  23819650.074 6 100788742.25106
C26  25378488.157 5                                                  25378502.928 5
C34  23019713.059 7 119869676.57307                                  23019710.620 6  97403932.54106
C35  25196820.899 6 131206443.00306                                  25196818.820 5 106615972.86405
C38  37193424.149 6 193676014.18506                                  37193419.928 6 157377543.07106
C40  36346365.629 7 189265076.96707                                  36346359.544 6 153793342.47206
C44  22215573.741 7 115682337.54107                                  22215568.652 6  94001337.13506
E13  23465382.202 6 123311436.04506  23465387.678 6  92083231.55806  23465383.393 7  94485358.73307
E15  26337157.252 5 138402669.16205  26337166.647 6 103352681.15806  26337161.700 7 106048807.69707
E21  23723568.274 6 124668217.03506  23723573.052 6  93096407.36606  23723569.261 7  95524982.22107
E23  27006336.212 5 141919291.84805  27006349.919 5 105978780.60505  27006345.125 6 108743393.96106
E26  25136607.005 5 132093780.12105  25136614.608 6  98641514.80106  25136610.429 7 101214736.86507
E27  24513171.933 6 128817587.17706  24513179.897 6  96194964.57406  24513175.401 7  98704370.09707
E30                                                                  29018867.644 3
G01  22767319.411 6 119643075.74106  22767319.136 3  93228386.89503  22767320.747 6  93228367.89006
G02  25043151.679 5 131602638.75305  25043153.262 2 102547542.36702
G03  21108938.878 6 110928256.47806  21108939.313 6  86437602.23106  21108940.961 6  86437577.23306
G06  22781762.701 5 119719019.24505  22781769.668 5  93287557.71405  22781771.263 6  93287545.74406
G14  19977692.240 6 104983504.70506  19977690.484 5  81805320.47905  19977691.511 7  81805304.48507
G17  21270932.502 6 111779543.01006  21270929.093 6  87100919.46106  21270930.826 6  87100897.46306
G19  22254160.013 6 116946427.63306  22254158.903 4  91127081.78904
G22  20973033.655 6 110214035.33806  20973030.512 4  85881062.53704
G30  23987182.157 5 126053370.86305  23987205.565 4  98223584.87204  23987206.907 6  98223593.81906
I02  38858240.610 6 152488093.89406
I03  39648585.552 6 155589569.98306
I10  36526238.067 6 143336806.73906
J02  37352049.839 6 196286352.52706  37352051.598 7 152950402.99407
J03  38992456.704 6 204906755.48206  38992457.052 7 159667587.48707
R01  22476058.892 5 120147568.90605  22476062.335 5  93448069.19005
R08  23610137.646 6 126431202.07306  23610125.325 6  98335355.91206
R13  23219148.569 4
R14  19703346.909 6 105029888.45106  19703345.110 7  81689917.58707
R15  20918503.193 7 111782167.63107  20918496.993 7  86941662.41907
R17  20926074.296 6 111979680.18006  20926066.179 7  87095263.08207
R18  23949619.455 5 127844732.31205  23949635.797 5  99434863.46305
R23  24612238.529 4 131658863.65904
R24  20722944.492 7 110814906.28907  20722937.530 7  86189322.72507
S30  37297243.387 6 195998334.91706
S43  36917803.345 6 194004349.22606
S44  38338538.766 5 201470376.34505
> 2025 03 17 06 42 47.0000000  0 52
C03  36667829.510 6 190938991.44806  36667820.975 7 147646123.08507  36667821.891 5 155153555.04305
C04  38431505.220 5 200122927.97205  38431498.585 6 154747713.61906  38431499.832 5 162616256.06505
C06  39432706.296 4                  39432713.599 5 158779117.18205
C07  36032669.937 6 187631519.86406  36032658.218 7 145088585.90607  36032656.775 6 152465959.60806
C09  38687567.480 5 201456310.59405  38687569.692 6 155778771.02706
C10  36885200.005 6 192070837.93706  36885191.369 7 148521385.43207  36885189.564 6 156073304.52406
C12  22367115.048 7 116471491.20407  22367106.993 7  90063078.92307  22367106.044 6  94642548.89006
C16  39749368.688 5 206985369.72505  39749391.836 6 160054204.54806
C19  26539596.991 5 138198647.09905                                  26539595.111 5 112297716.80505
C21  25388998.310 5 132207201.45005                                  25389002.966 5 107429255.83905
C22  24264645.665 6 126352364.12906                                  24264638.254 6 102671636.55906
C24  22581925.117 7 117590023.63007                                  22581920.031 6  95551470.87206
C25  23819499.729 6 124034319.95806                                  23819496.524 6 100788092.11906
C26  25379166.234 5                                                  25379180.870 4
C34  23019553.378 7 119868845.33907                                  23019551.076 6  97403257.09006
C35  25197259.291 6 131208725.93306                                  25197257.238 5 106617827.93105
C38  37193215.336 6 193674926.94306                                  37193211.161 6 157376659.61106
C40  36346358.723 7 189265040.70107                                  36346352.644 6 153793313.01206
C44  22215794.199 7 115683484.44107                                  22215788.857 6  94002269.07806
E13  23465575.888 6 123312454.02606  23465581.312 6  92083991.71906  23465577.185 7  94486138.74507
E15  26337667.849 5 138405352.03905  26337677.130 6 103354684.59406  26337672.231 6 106050863.41306
E21  23723471.743 6 124667708.91806  23723476.351 6  93096027.92606  23723472.606 7  95524592.89007
E23  27005892.165 5 141916958.85305  27005905.955 5 105977038.43805  27005901.211 6 108741606.33406
E26  25136368.605 5 132092527.99505  25136376.327 6  98640579.77506  25136372.192 7 101213777.45307
E27  24513582.093 6 128819741.84506  24513589.845 6  96196573.56806  24513585.465 7  98706021.08007
E30                                                                  29019467.400 3
G01  22767924.479 5 119646254.91005  22767924.053 3  93230864.16703  22767925.687 6  93230845.15606
G02  25043746.031 5 131605763.38805  25043747.814 2 102549977.15202
G03  21109090.032 6 110929051.50606  21109090.615 6  86438221.74106  21109092.222 6  86438196.75006
G06  22781388.166 5 119717051.62605  22781395.237 5  93286024.51205  22781396.831 6  93286012.53006
G14  19977800.185 6 104984070.84506  19977798.232 5  81805761.62905  19977799.305 7  81805745.62307
G17  21270844.570 6 111779080.74006  21270841.122 6  87100559.25506  21270842.817 6  87100537.26406
G19  22253821.384 6 116944647.33706  22253820.061 4  91125694.55504
G22  20972859.065 6 110213118.24306  20972855.971 4  85880347.92604
G30  23987758.361 4 126056401.96704  23987782.378 4  98225946.73604  23987783.848 6  98225955.63306
I02  38858235.140 6 152488072.79306
I03  39648304.684 6 155588468.03306
I10  36526310.656 6 143337091.31406
J02  37351957.810 6 196285869.03806  37351959.520 7 152950026.24407
J03  38992614.191 6 204907581.99306  38992614.446 7 159668231.51307
R01  22475671.818 5 120145501.89905  22475675.955 5  93446461.49505
R08  23610294.315 6 126432043.10006  23610282.143 5  98336010.06205
R13  23220039.293 4
R14  19703738.444 7 105031975.96707  19703736.829 7  81691541.22707
R15  20918126.868 7 111780158.29407  20918120.999 7  86940099.59807
R17  20925972.116 7 111979134.63707  20925964.188 7  87094838.76607
R18  23949244.810 5 127842735.35705  23949261.737 5  99433310.33105
R23  24612808.271 4 131661909.61304
R24  20723303.118 7 110816822.90607  20723295.919 7  86190813.42507
S30  37297293.702 6 195998587.75706
S43  36917854.295 6 194004629.22806
S44  38338586.483 5 201470633.57505
> 2025 03 17 06 42 48.0000000  0 52
C03  36667881.215 6 190939261.58106  36667872.708 7 147646331.97407  36667873.627 5 155153774.55805
C04  38431552.672 5 200123175.30005  38431545.980 6 154747904.88906  38431547.419 5 162616457.07205
C06  39433112.078 4                  39433119.986 4 158780753.53104
C07  36032663.118 6 187631485.22306  36032651.622 7 145088559.13407  36032649.948 6 152465931.45006
C09  38687966.963 5 201458391.07405  38687969.414 6 155780379.77906
C10  36885164.992 6 192070657.90506  36885156.693 6 148521246.22306  36885155.001 6 156073158.24006
C12  22367178.420 6 116471821.99506  22367170.606 7  90063334.71807  22367169.609 6  94642817.68606
C16  39749758.865 5 206987400.42505  39749781.721 6 160055774.78006
C19  26539859.055 5 138200013.25605                                  26539857.586 5 112298826.87905
C21  25388515.288 5 132204686.79405                                  25388520.114 5 107427212.51705
C22  24264456.801 6 126351380.84606                                  24264449.406 5 102670837.57705
C24  22582324.961 6 117592106.19206                                  22582319.918 6  95553163.13406
C25  23819346.015 6 124033520.33106                                  23819342.843 6 100787442.36506
C26  25379844.079 5                                                  25379859.005 4
C34  23019393.623 6 119868014.16506                                  23019391.347 6  97402581.68906
C35  25197697.527 6 131211008.80606                                  25197695.584 5 106619682.90405
C38  37193006.571 6 193673839.80306                                  37193002.316 6 157375776.20306
C40  36346351.582 7 189265004.35507                                  36346345.534 6 153793283.46306
C44  22216014.333 7 115684631.37707                                  22216009.096 6  94003201.05806
E13  23465769.499 6 123313472.19406  23465775.045 6  92084752.08006  23465770.885 7  94486918.91907
E15  26338178.097 5 138408034.85105  26338187.556 6 103356688.01906  26338182.796 6 106052919.09906
E21  23723374.913 6 124667201.09406  23723379.675 6  93095648.73206  23723375.945 7  95524203.80507
E23  27005448.585 5 141914625.86905  27005462.017 5 105975296.29905  27005457.267 6 108739818.75906
E26  25136130.175 5 132091276.02305  25136138.125 6  98639644.92406  25136133.864 7 101212818.20107
E27  24513991.987 6 128821896.77006  24514000.015 6  96198182.79506  24513995.538 7  98707672.28207
E30                                                                  29020066.924 3
G01  22768529.506 5 119649434.08305  22768529.085 3  93233341.44603  22768530.699 6  93233322.46406
G02  25044341.118 5 131608887.79405  25044342.316 2 102552411.73202
G03  21109241.215 6 110929847.15806  21109242.020 6  86438841.72906  21109243.802 6  86438816.76106
G06  22781013.580 5 119715084.24605  22781020.828 5  93284491.50505  22781022.322 6  93284479.54906
G14  19977908.031 6 104984637.52006  19977906.092 5  81806203.19205  19977907.172 7  81806187.22707
G17  21270756.696 6 111778618.46706  21270753.148 6  87100199.04506  21270754.958 6  87100177.09906
G19  22253482.464 6 116942866.99706  22253481.296 4  91124307.28904
G22  20972684.714 6 110212201.53406  20972681.515 4  85879633.60704
G30  23988335.498 4 126059432.92604  23988359.137 3  98228308.46003  23988360.877 6  98228317.45006
I02  38858229.555 5 152488051.68905
I03  39648024.037 6 155587366.07406
I10  36526383.266 6 143337375.85506
J02  37351866.139 6 196285385.52306  37351867.537 7 152949649.50007
J03  38992771.555 6 204908408.36806  38992771.708 7 159668875.47007
R01  22475286.129 5 120143435.27705  22475289.263 5  93444854.13505
R08  23610451.504 6 126432884.80206  23610439.605 5  98336664.70805
R13  23220931.954 4
R14  19704130.266 6 105034064.29206  19704128.570 7  81693165.46607
R15  20917751.239 7 111778149.62407  20917745.255 7  86938537.29707
R17  20925870.064 6 111978589.35506  20925862.421 7  87094414.66807
R18  23948869.832 5 127840738.56905  23948886.971 5  99431757.32705
R23  24613377.153 4 131664955.48804
R24  20723661.520 7 110818739.63607  20723654.485 7  86192304.19707
S30  37297338.651 6 195998840.48906
S43  36917905.942 6 194004909.12206
S44  38338635.903 5 201470890.66605
> 2025 03 17 06 42 49.0000000  0 52
C03  36667932.863 6 190939531.77806  36667924.551 7 147646540.89707  36667925.346 5 155153994.08805
C04  38431599.718 5 200123422.70005  38431593.442 6 154748096.19106  38431594.778 5 162616658.09105
C06  39433518.128 4                  39433526.492 4 158782389.89604
C07  36032656.270 6 187631450.62306  36032644.903 7 145088532.37907  36032643.244 6 152465903.33406
C09  38688366.478 5 201460471.65405  38688368.950 6 155781988.60906
C10  36885130.216 6 192070477.89706  36885122.156 6 148521107.02106  36885120.340 6 156073011.97306
C12  22367241.682 6 116472152.95606  22367234.011 7  90063590.63907  22367233.046 6  94643086.61806
C16  39750148.299 5 206989431.10105  39750171.719 6 160057345.01406
C19  26540121.332 5 138201379.91105                                  26540119.560 5 112299937.44905
C21  25388032.085 5 132202172.19705                                  25388037.023 5 107425169.25405
C22  24264267.991 6 126350398.00806                                  24264260.584 6 102670038.94806
C24  22582724.846 6 117594189.22106                                  22582719.928 6  95554855.75806
C25  23819192.375 6 124032721.26806                                  23819189.234 6 100786793.05506
C26  25380522.075 5                                                  25380536.545 5
C34  23019233.813 6 119867183.14306                                  23019231.680 6  97401906.42506
C35  25198135.840 6 131213291.67706                                  25198134.055 5 106621537.95105
C38  37192797.534 6 193672752.82406                                  37192793.467 6 157374892.96406
C40  36346344.542 7 189264968.00707                                  36346338.461 6 153793253.93306
C44  22216234.395 7 115685778.43007                                  22216229.363 6  94004133.13606
E13  23465963.365 6 123314490.68806  23465968.955 6  92085512.62706  23465964.656 7  94487699.32307
E15  26338688.666 5 138410717.76505  26338698.165 6 103358691.47206  26338693.320 6 106054974.81706
E21  23723278.217 6 124666693.72206  23723283.173 6  93095269.85006  23723279.320 7  95523815.03807
E23  27005004.947 5 141912293.02305  27005018.043 5 105973554.26205  27005013.237 6 108738031.26706
E26  25135891.866 5 132090024.47905  25135900.041 6  98638710.29606  25135895.610 7 101211859.19607
E27  24514402.128 6 128824052.10806  24514410.129 6  96199792.29306  24514405.665 7  98709323.76207
E30                                                                  29020667.508 3
G01  22769134.073 5 119652613.43205  22769134.042 3  93235818.85303  22769135.712 6  93235799.86506
G02  25044935.109 5 131612012.20305  25044936.778 2 102554846.33202
G03  21109392.847 6 110930643.62806  21109393.585 6  86439462.34906  21109395.133 6  86439437.38406
G06  22780639.365 5 119713117.29105  22780646.463 5  93282958.81905  22780647.975 6  93282946.85706
G14  19978016.095 6 104985204.93306  19978014.064 5  81806645.33005  19978015.094 7  81806629.35707
G17  21270668.757 6 111778156.39406  21270665.209 6  87099838.99406  21270666.987 6  87099817.03306
G19  22253143.816 6 116941086.75706  22253142.508 4  91122920.09704
G22  20972510.507 6 110211285.38306  20972507.171 4  85878919.72504
G30  23988912.699 4 126062463.99404  23988935.904 3  98230670.29003  23988937.854 5  98230679.26705
I02  38858224.143 6 152488030.60906
I03  39647743.160 6 155586264.11106
I10  36526455.447 6 143337660.42406
J02  37351773.734 6 196284902.12306  37351775.545 7 152949272.82207
J03  38992929.004 6 204909234.76006  38992929.024 7 159669519.40907
R01  22474900.379 5 120141369.16705  22474902.483 5  93443247.20405
R08  23610607.719 6 126433727.28106  23610597.530 5  98337319.97505
R13  23221822.514 4
R14  19704522.071 7 105036153.46507  19704520.631 7  81694790.37907
R15  20917375.413 7 111776141.68607  20917369.707 7  86936975.56607
R17  20925768.022 7 111978044.39407  20925760.537 7  87093990.80607
R18  23948494.996 5 127838742.10705  23948513.274 5  99430204.50505
R23  24613945.941 4 131668001.16104
R24  20724020.092 7 110820656.54007  20724013.086 7  86193795.12207
S30  37297383.921 6 195999093.33006
S43  36917958.546 6 194005189.09306
S44  38338682.636 5 201471147.85305
> 2025 03 17 06 42 50.0000000  0 52
C03  36667984.572 6 190939802.03006  36667976.382 7 147646749.88607  36667977.302 5 155154213.71905
C04  38431647.529 5 200123670.14805  38431640.778 6 154748287.55206  38431642.128 5 162616859.17905
C06  39433923.906 4                  39433932.526 4 158784026.28504
C07  36032649.654 6 187631416.07806  36032638.148 7 145088505.67307  36032636.684 6 152465875.27106
C09  38688765.975 5 201462552.34505  38688768.355 6 155783597.51106
C10  36885095.637 6 192070297.90506  36885087.627 6 148520967.85406  36885085.878 6 156072865.71506
C12  22367304.974 6 116472484.10706  22367297.496 7  90063846.70707  22367296.518 6  94643355.69906
C16  39750537.517 5 206991461.81305  39750561.754 6 160058915.24106
C19  26540383.723 5 138202747.16505                                  26540382.252 5 112301048.39705
C21  25387548.889 5 132199657.69205                                  25387553.792 5 107423126.03705
C22  24264078.990 6 126349415.67406                                  24264071.970 5 102669240.71905
C24  22583124.958 6 117596272.75206                                  22583120.023 6  95556548.79306
C25  23819038.990 6 124031922.77806                                  23819036.011 6 100786144.23606
C26  25381199.432 5                                                  25381214.707 4
C34  23019074.393 6 119866352.33406                                  23019072.178 6  97401231.32106
C35  25198574.368 6 131215574.61906                                  25198572.551 5 106623393.04005
C38  37192588.761 6 193671666.06906                                  37192584.738 6 157374009.88606
C40  36346337.498 7 189264931.70507                                  36346331.363 6 153793224.43406
C44  22216454.714 7 115686925.66107                                  22216449.524 6  94005065.35806
E13  23466157.081 6 123315509.51806  23466162.901 6  92086273.44206  23466158.377 7  94488479.97907
E15  26339198.979 5 138413400.74105  26339208.735 6 103360694.98606  26339203.748 6 106057030.59406
E21  23723181.785 6 124666186.81806  23723186.701 6  93094891.31006  23723182.745 7  95523426.61807
E23  27004561.315 5 141909960.36505  27004574.242 5 105971812.36105  27004569.199 6 108736243.93006
E26  25135653.888 5 132088773.21805  25135661.855 6  98637775.91706  25135657.370 7 101210900.45507
E27  24514812.470 6 128826207.85006  24514820.376 6  96201402.10006  24514815.840 7  98710975.56407
E30                                                                  29021267.023 3
G01  22769738.812 5 119655792.93205  22769739.004 3  93238296.38403  22769740.739 6  93238277.39106
G02  25045528.906 5 131615136.57605  25045531.298 2 102557280.91402
G03  21109544.363 6 110931440.84706  21109545.258 6  86440083.56306  21109546.610 6  86440058.57506
G06  22780265.325 5 119711150.73205  22780272.215 5  93281426.45005  22780273.622 6  93281414.48906
G14  19978124.264 6 104985773.05506  19978122.152 5  81807088.02405  19978123.116 7  81807072.04007
G17  21270580.718 6 111777694.49306  21270577.274 6  87099479.07206  21270579.162 6  87099457.08806
G19  22252805.062 6 116939306.66806  22252803.751 4  91121533.02004
G22  20972335.952 6 110210369.79006  20972332.930 4  85878206.27604
G30  23989488.881 4 126065495.15704  23989512.690 3  98233032.17503  23989514.764 5  98233041.12705
I02  38858218.736 6 152488009.60606
I03  39647462.082 6 155585162.21606
I10  36526528.087 6 143337945.06706
J02  37351681.735 6 196284418.85106  37351683.640 7 152948896.24207
J03  38993086.395 6 204910061.16806  38993086.243 7 159670163.35807
R01  22474515.288 5 120139303.62905  22474516.570 5  93441640.67005
R08  23610764.408 6 126434570.59106  23610755.117 5  98337975.85705
R13  23222715.072 4
R14  19704914.030 6 105038243.50806  19704912.681 7  81696415.96507
R15  20916999.691 7 111774134.51707  20916994.205 7  86935414.44707
R17  20925666.202 6 111977499.76406  20925658.989 7  87093567.21007
R18  23948121.448 5 127836745.88705  23948138.377 5  99428651.92805
R23  24614515.319 4 131671046.73404
R24  20724378.675 7 110822573.65007  20724371.833 7  86195286.21807
S30  37297431.571 6 195999346.20206
S43  36918011.727 6 194005469.14406
S44  38338727.853 5 201471405.12005
> 2025 03 17 06 42 51.0000000  0 52
C03  36668036.202 6 190940072.15706  36668028.177 7 147646958.75807  36668029.074 5 155154433.17905
C04  38431694.588 5 200123917.49505  38431688.356 6 154748478.80006  38431689.299 5 162617060.15905
C06  39434329.875 4                  39434338.979 5 158785662.54105
C07  36032642.848 6 187631381.37206  36032631.440 7 145088478.82907  36032629.995 6 152465847.08206
C09  38689165.232 5 201464632.92905  38689167.784 6 155785206.33106
C10  36885060.698 6 192070117.75806  36885052.929 6 148520828.55206  36885051.213 6 156072719.32406
C12  22367368.440 6 116472815.23706  22367361.118 7  90064102.76107  22367359.929 6  94643624.77406
C16  39750926.926 5 206993492.31205  39750951.780 6 160060485.31306
C19  26540646.462 5 138204114.69105                                  26540644.791 5 112302159.63405
C21  25387065.900 5 132197143.06605                                  25387070.711 5 107421082.72405
C22  24263890.327 6 126348433.60406                                  24263883.317 5 102668442.69705
C24  22583524.976 7 117598356.53807                                  22583520.029 6  95558242.03706
C25  23818885.592 6 124031124.64906                                  23818882.555 6 100785495.67606
C26  25381876.986 5                                                  25381892.565 4
C34  23018914.750 6 119865521.46406                                  23018912.522 6  97400556.16406
C35  25199012.766 6 131217857.38506                                  25199010.960 5 106625247.96405
C38  37192380.131 6 193670579.31406                                  37192375.960 6 157373126.78906
C40  36346330.341 7 189264895.21507                                  36346324.293 6 153793194.77206
C44  22216675.089 7 115688072.83207                                  22216669.679 6  94005997.51206
E13  23466350.918 6 123316528.45706  23466356.773 6  92087034.33306  23466352.224 7  94489260.71507
E15  26339709.640 5 138416083.56305  26339719.308 6 103362698.39606  26339714.195 6 106059086.25506
E21  23723085.393 6 124665680.11906  23723090.323 6  93094512.92406  23723086.277 7  95523038.36807
E23  27004117.126 5 141907627.68705  27004130.272 5 105970070.41805  27004125.248 6 108734456.52906
E26  25135415.561 5 132087522.12005  25135423.811 6  98636841.62706  25135419.177 7 101209941.79907
E27  24515222.786 6 128828363.79306  24515230.685 6  96203012.04806  24515226.026 7  98712627.50407
E30                                                                  29021866.627 3
G01  22770343.512 6 119658972.37806  22770344.059 3  93240773.86503  22770345.863 6  93240754.86806
G02  25046123.265 5 131618260.67605  25046125.684 2 102559715.27102
G03  21109695.923 6 110932238.62506  21109697.043 6  86440705.20906  21109698.399 6  86440680.21306
G06  22779890.936 5 119709184.36305  22779897.990 5  93279894.22405  22779899.484 6  93279882.23806
G14  19978232.418 6 104986341.66106  19978230.330 5  81807531.09505  19978231.264 7  81807515.09907
G17  21270492.613 6 111777232.54406  21270489.349 6  87099119.11306  21270491.157 6  87099097.11906
G19  22252466.190 6 116937526.46606  22252465.008 4  91120145.85904
G22  20972161.504 6 110209454.52006  20972158.747 4  85877493.08304
G30  23990064.890 5 126068526.15405  23990089.529 3  98235393.93303  23990091.401 5  98235402.86305
I02  38858213.564 6 152487988.53906
I03  39647181.047 6 155584060.18506
I10  36526600.622 6 143338229.59906
J02  37351589.771 6 196283935.47406  37351591.677 7 152948519.58107
J03  38993243.310 6 204910887.38806  38993243.346 7 159670807.14607
R01  22474129.378 5 120137238.39105  22474130.566 5  93440034.36405
R08  23610922.384 6 126435414.49506  23610912.946 5  98338632.25105
R13  23223604.692 4
R14  19705306.192 7 105040334.18807  19705304.963 7  81698042.02807
R15  20916623.956 7 111772127.95807  20916618.635 7  86933853.78407
R17  20925564.191 7 111976955.23307  20925557.259 7  87093143.69607
R18  23947747.009 5 127834749.78805  23947764.150 5  99427099.42505
R23  24615086.193 4 131674092.05004
R24  20724737.100 7 110824490.68507  20724730.115 7  86196777.24307
S30  37297477.749 6 195999598.93906
S43  36918065.722 6 194005749.04006
S44  38338777.658 5 201471662.22405
> 2025 03 17 06 42 52.0000000  0 52
C03  36668087.818 6 190940342.37506  36668079.905 7 147647167.70807  36668081.124 5 155154652.78305
C04  38431742.238 5 200124164.91805  38431735.885 6 154748670.12106  38431736.837 5 162617261.21405
C06  39434736.256 4                  39434745.486 4 158787298.90704
C07  36032635.758 6 187631346.75406  36032624.817 7 145088452.05707  36032623.177 5 152465818.93905
C09  38689565.045 5 201466713.61605  38689567.361 6 155786815.26306
C10  36885025.864 6 192069937.68906  36885018.105 6 148520689.31406  36885016.520 5 156072573.01905
C12  22367431.872 6 116473146.57206  22367424.780 7  90064358.97207  22367423.452 6  94643894.02406
C16  39751316.622 5 206995522.85105  39751341.537 6 160062055.45406
C19  26540908.748 5 138205482.83205                                  26540907.742 5 112303271.37205
C21  25386582.418 5 132194628.53305                                  25386587.903 5 107419039.52205
C22  24263701.747 6 126347452.06706                                  24263694.632 5 102667645.12705
C24  22583925.120 6 117600440.86606                                  22583920.184 6  95559935.72406
C25  23818732.028 6 124030327.11306                                  23818729.460 6 100784847.62406
C26  25382554.977 5                                                  25382570.083 4
C34  23018755.111 6 119864690.81806                                  23018752.781 6  97399881.20706
C35  25199451.025 6 131220140.25706                                  25199449.315 5 106627102.98205
C38  37192171.525 6 193669492.78906                                  37192167.130 6 157372243.93106
C40  36346323.099 7 189264858.81007                                  36346317.245 6 153793165.20006
C44  22216895.261 7 115689220.19707                                  22216889.890 6  94006929.84606
E13  23466545.026 6 123317547.74906  23466550.827 6  92087795.51706  23466546.150 7  94490041.74507
E15  26340220.439 5 138418766.50205  26340229.895 6 103364701.87106  26340224.663 6 106061142.00506
E21  23722989.181 6 124665173.90206  23722994.068 6  93094134.92106  23722989.906 7  95522650.49407
E23  27003673.092 5 141905295.15605  27003686.416 5 105968328.60005  27003681.309 6 108732669.30406
E26  25135177.544 5 132086271.34905  25135185.885 6  98635907.65306  25135181.094 7 101208983.44707
E27  24515633.368 6 128830520.15606  24515641.050 6  96204622.31306  24515636.297 7  98714279.79607
E30                                                                  29022466.795 3
G01  22770948.646 6 119662152.00806  22770949.145 3  93243251.48903  22770950.785 6  93243232.50106
G02  25046717.209 5 131621384.75705  25046720.191 2 102562149.60802
G03  21109848.245 6 110933037.18906  21109848.984 6  86441327.46206  21109850.604 6  86441302.48406
G06  22779516.358 5 119707218.41605  22779523.862 5  93278362.32405  22779525.478 6  93278350.38006
G14  19978340.650 6 104986911.01106  19978338.659 5  81807974.73905  19978339.577 7  81807958.75307
G17  21270404.533 6 111776770.77906  21270401.459 6  87098759.29006  21270403.230 6  87098737.32106
G19  22252127.321 6 116935746.37206  22252126.313 4  91118758.76904
G22  20971987.623 6 110208539.81706  20971984.675 4  85876780.32104
G30  23990641.503 4 126071557.21904  23990666.333 3  98237755.75703  23990667.693 6  98237764.71406
I02  38858208.320 6 152487967.53106
I03  39646900.239 6 155582958.24506
I10  36526673.551 6 143338514.22506
J02  37351498.646 6 196283452.25306  37351499.705 7 152948143.05007
J03  38993400.615 6 204911713.63306  38993400.483 7 159671450.99507
R01  22473742.675 5 120135173.76605  22473744.498 5  93438428.55505
R08  23611079.676 6 126436259.31706  23611071.300 5  98339289.35405
R13  23224496.231 4
R14  19705698.526 6 105042425.80706  19705697.322 7  81699668.84407
R15  20916248.476 7 111770122.28107  20916243.059 7  86932293.81907
R17  20925462.753 6 111976411.10506  20925455.429 7  87092720.49907
R18  23947374.184 5 127832753.99405  23947390.505 5  99425547.17205
R23  24615656.305 4 131677137.24104
R24  20725095.664 7 110826407.93207  20725088.508 7  86198268.42707
S30  37297529.280 6 195999851.77006
S43  36918120.298 6 194006029.04806
S44  38338828.907 5 201471919.43805
> 2025 03 17 06 42 53.0000000  0 52
C03  36668139.599 6 190940612.69606  36668131.829 7 147647376.74807  36668132.843 5 155154872.44205
C04  38431790.008 5 200124412.44305  38431783.562 6 154748861.52006  38431784.491 5 162617462.33905
C06  39435143.219 4                  39435151.468 5 158788935.23905
C07  36032629.115 6 187631312.23006  36032618.174 7 145088425.35007  36032616.501 6 152465790.89106
C09  38689964.499 5 201468794.49705  38689967.116 6 155788424.32006
C10  36884991.202 6 192069757.67406  36884983.532 7 148520550.10607  36884981.745 6 156072426.74106
C12  22367495.541 7 116473478.13307  22367488.431 7  90064615.34407  22367487.169 6  94644163.43206
C16  39751706.381 5 206997553.45405  39751731.303 6 160063625.59106
C19  26541171.154 5 138206851.51505                                  26541170.542 5 112304383.55705
C21  25386099.389 6 132192114.15306                                  25386104.974 5 107416996.41305
C22  24263513.282 6 126346471.02606                                  24263506.112 5 102666847.96005
C24  22584325.505 7 117602525.70707                                  22584320.635 6  95561629.83006
C25  23818578.902 6 124029530.17206                                  23818576.287 6 100784200.04006
C26  25383232.777 5                                                  25383247.798 5
C34  23018595.607 7 119863860.39807                                  23018593.272 6  97399206.42006
C35  25199889.615 6 131222423.21106                                  25199887.523 5 106628958.07905
C38  37191963.036 6 193668406.50306                                  37191958.625 6 157371361.23306
C40  36346315.921 7 189264822.45207                                  36346310.247 6 153793135.66606
C44  22217115.551 7 115690367.75507                                  22217110.353 6  94007862.34006
E13  23466739.107 6 123318567.41406  23466744.916 6  92088556.91906  23466740.097 7  94490823.02207
E15  26340730.726 5 138421449.55005  26340740.445 6 103366705.42506  26340735.208 6 106063197.83206
E21  23722893.116 6 124664668.19906  23722897.820 6  93093757.25206  23722893.617 7  95522262.98207
E23  27003229.168 5 141902962.89205  27003242.678 5 105966586.97305  27003237.441 6 108730882.22006
E26  25134939.462 5 132085020.99805  25134948.015 6  98634973.93306  25134943.133 7 101208025.36707
E27  24516043.801 6 128832676.98506  24516051.428 6  96206232.91006  24516046.705 7  98715932.39107
E30                                                                  29023066.565 3
G01  22771553.778 6 119665331.87506  22771554.259 3  93245729.30703  22771555.782 6  93245710.28206
G02  25047311.944 5 131624508.86405  25047314.657 2 102564583.96802
G03  21110000.178 6 110933836.59506  21110001.095 6  86441950.37706  21110002.975 6  86441925.37306
G06  22779142.277 5 119705252.95505  22779149.834 5  93276830.80105  22779151.457 6  93276818.82406
G14  19978449.176 6 104987481.12206  19978447.132 5  81808418.98405  19978448.064 7  81808402.97207
G17  21270316.697 6 111776309.23706  21270313.614 6  87098399.65206  21270315.442 6  87098377.65806
G19  22251788.786 6 116933966.48506  22251787.615 4  91117371.84504
G22  20971813.639 6 110207625.71206  20971810.689 4  85876068.03604
G30  23991218.108 5 126074588.39005  23991243.199 3  98240117.68003  23991244.478 6  98240126.60906
I02  38858203.080 6 152487946.64806
I03  39646619.742 6 155581856.35506
I10  36526746.016 6 143338798.89606
J02  37351407.027 6 196282969.19906  37351407.976 7 152947766.62307
J03  38993557.798 6 204912539.96406  38993557.775 7 159672094.87007
R01  22473357.504 5 120133109.73705  22473358.169 5  93436823.18905
R08  23611237.903 6 126437104.97306  23611229.359 6  98339947.06806
R13  23225386.504 4
R14  19706091.017 7 105044518.35907  19706089.937 7  81701296.37807
R15  20915873.557 7 111768117.46807  20915867.791 7  86930734.51107
R17  20925360.842 7 111975867.37507  20925353.977 7  87092297.57707
R18  23947000.930 5 127830758.47205  23947016.813 5  99423995.12005
R23  24616226.862 4 131680182.38904
R24  20725454.205 7 110828325.38707  20725447.030 7  86199759.77407
S30  37297578.969 6 196000104.73106
S43  36918174.834 6 194006309.18006
S44  38338882.057 5 201472176.78305
> 2025 03 17 06 42 54.0000000  0 52
C03  36668191.658 6 190940883.18906  36668183.919 7 147647585.91007  36668184.955 5 155155092.24505
C04  38431837.957 5 200124660.13105  38431831.189 6 154749053.04906  38431831.993 5 162617663.61305
C06  39435549.644 4                  39435557.866 5 158790571.72205
C07  36032622.542 6 187631277.85106  36032611.609 7 145088398.77207  36032609.966 6 152465762.96106
C09  38690364.336 5 201470875.58605  38690366.856 6 155790033.54606
C10  36884956.507 6 192069577.76906  36884949.286 7 148520411.01207  36884947.217 6 156072280.56306
C12  22367559.309 6 116473809.96006  22367552.218 7  90064871.95507  22367550.901 6  94644433.08706
C16  39752096.479 5 206999584.17805  39752121.360 6 160065195.86606
C19  26541433.950 5 138208220.88305                                  26541433.503 5 112305496.28005
C21  25385616.450 5 132189599.93605                                  25385622.055 5 107414953.44305
C22  24263324.861 6 126345490.58906                                  24263317.962 5 102666051.26805
C24  22584726.080 6 117604611.14306                                  22584721.185 6  95563324.40406
C25  23818425.871 6 124028733.91406                                  23818423.384 6 100783553.02806
C26  25383910.697 5                                                  25383925.418 5
C34  23018436.339 6 119863030.24706                                  23018433.890 6  97398531.86406
C35  25200328.234 6 131224706.28506                                  25200326.130 5 106630813.24405
C38  37191754.750 6 193667320.52206                                  37191750.034 6 157370478.78206
C40  36346308.952 7 189264786.22507                                  36346303.335 6 153793106.22806
C44  22217336.170 7 115691515.55607                                  22217330.757 6  94008795.02806
E13  23466933.295 6 123319587.49206  23466939.036 6  92089318.65306  23466934.258 7  94491604.63507
E15  26341241.583 5 138424132.76305  26341251.181 5 103368709.14205  26341245.829 6 106065253.80306
E21  23722797.150 6 124664162.99606  23722801.784 6  93093380.00306  23722797.516 7  95521875.88307
E23  27002785.687 5 141900630.85705  27002798.998 5 105964845.52705  27002793.736 6 108729095.33406
E26  25134701.742 5 132083771.06605  25134710.093 6  98634040.54606  25134705.388 7 101207067.63307
E27  24516454.503 6 128834834.28106  24516462.084 6  96207843.86906  24516457.279 7  98717585.38807
E30                                                                  29023666.616 3
G01  22772159.033 6 119668511.96006  22772159.444 3  93248207.29003  22772160.807 6  93248188.27306
G02  25047906.683 5 131627632.93005  25047909.132 2 102567018.30002
G03  21110152.270 6 110934636.84306  21110153.372 6  86442573.94606  21110155.057 6  86442548.94606
G06  22778768.260 5 119703287.95205  22778775.894 5  93275299.63905  22778777.510 6  93275287.65806
G14  19978557.798 6 104988052.00706  19978555.739 5  81808863.82305  19978556.633 7  81808847.82107
G17  21270229.143 6 111775847.96306  21270225.836 6  87098040.21706  21270227.588 6  87098018.22106
G19  22251450.271 6 116932186.75206  22251448.921 4  91115985.04504
G22  20971640.007 6 110206712.24506  20971636.806 4  85875356.24404
G30  23991795.053 4 126077619.75404  23991820.087 3  98242479.72703  23991821.551 5  98242488.65605
I02  38858197.892 6 152487925.88506
I03  39646338.664 6 155580754.56406
I10  36526818.524 6 143339083.71106
J02  37351315.289 6 196282486.33006  37351316.119 7 152947390.36807
J03  38993714.912 6 204913366.38106  38993715.132 7 159672738.82707
R01  22472971.244 5 120131046.34705  22472971.826 5  93435218.35305
R08  23611395.642 5 126437951.54005  23611387.224 6  98340605.49606
R13  23226277.328 4
R14  19706483.861 6 105046611.91806  19706482.436 7  81702924.69107
R15  20915498.287 6 111766113.53806  20915492.646 7  86929175.90907
R17  20925259.095 6 111975324.06706  20925252.269 7  87091875.02407
R18  23946627.187 5 127828763.34305  23946643.434 5  99422443.38705
R23  24616794.256 4 131683227.42704
R24  20725812.789 7 110830243.12207  20725805.781 7  86201251.35307
S30  37297627.670 6 196000357.83406
S43  36918227.237 6 194006589.46106
S44  38338933.910 5 201472434.26805
> 2025 03 17 06 42 55.0000000  0 52
C03  36668243.685 6 190941153.68906  36668235.969 7 147647795.09707  36668236.835 5 155155312.04905
C04  38431885.705 5 200124907.82905  38431878.807 6 154749244.61606  38431879.593 5 162617864.88205
C06  39435956.763 4                  39435964.639 5 158792208.18205
C07  36032616.181 6 187631243.46906  36032605.100 7 145088372.20507  36032603.255 6 152465735.00806
C09  38690763.876 5 201472956.71205  38690766.733 6 155791642.79006
C10  36884921.844 6 192069397.89106  36884914.829 7 148520271.90907  36884912.867 6 156072134.37806
C12  22367623.355 7 116474141.93807  22367616.099 7  90065128.67807  22367614.724 6  94644702.83406
C16  39752486.659 5 207001614.79905  39752511.535 6 160066766.05406
C19  26541697.452 5 138209590.76005                                  26541696.626 5 112306609.40005
C21  25385133.829 6 132187085.75406                                  25385139.263 5 107412910.49605
C22  24263136.896 6 126344510.56706                                  24263129.761 5 102665254.92105
C24  22585126.718 7 117606697.00107                                  22585121.768 6  95565019.32506
C25  23818273.208 6 124027938.17206                                  23818270.568 6 100782906.40206
C26  25384589.038 5                                                  25384603.374 5
C34  23018276.971 7 119862200.22807                                  23018274.522 6  97397857.37706
C35  25200766.909 6 131226989.35606                                  25200764.615 5 106632668.43205
C38  37191546.205 6 193666234.68006                                  37191541.491 6 157369596.44806
C40  36346302.171 7 189264749.98307                                  36346296.424 6 153793076.77206
C44  22217556.800 7 115692663.46807                                  22217551.280 6  94009727.78406
E13  23467127.313 6 123320607.83406  23467133.219 6  92090080.59806  23467128.535 7  94492386.47207
E15  26341751.987 5 138426816.00405  26341761.942 5 103370712.80805  26341756.474 6 106067309.78606
E21  23722700.998 6 124663658.21406  23722705.758 6  93093003.03206  23722701.545 7  95521489.09507
E23  27002341.728 5 141898298.92405  27002355.260 5 105963104.14305  27002350.082 6 108727308.54606
E26  25134464.059 6 132082521.42206  25134472.284 6  98633107.37306  25134467.705 7 101206110.13207
E27  24516864.929 6 128836991.95306  24516872.664 6  96209455.09706  24516867.946 7  98719238.65607
E30                                                                  29024267.048 3
G01  22772764.260 6 119671692.14306  22772764.606 3  93250685.34503  22772765.918 6  93250666.34106
G02  25048501.257 5 131630756.99605  25048503.657 2 102569452.65402
G03  21110304.243 6 110935437.79806  21110305.792 6  86443198.06806  21110307.475 6  86443173.06106
G06  22778394.963 5 119701323.30605  22778401.999 5  93273768.76405  22778403.630 6  93273756.77906
G14  19978666.429 6 104988623.55006  19978664.475 5  81809309.18505  19978665.351 7  81809293.18507
G17  21270141.239 6 111775386.77806  21270138.080 6  87097680.85306  21270139.794 6  87097658.85906
G19  22251111.524 6 116930407.09106  22251110.289 4  91114598.30204
G22  20971466.046 6 110205799.24506  20971463.061 4  85874644.80904
G30  23992370.862 5 126080651.12305  23992396.940 3  98244841.77203  23992398.505 5  98244850.69605
I02  38858192.475 6 152487905.14506
I03  39646057.945 6 155579652.79906
I10  36526890.876 6 143339368.55306
J02  37351223.055 6 196282003.54106  37351224.033 7 152947014.15907
J03  38993872.119 6 204914192.75406  38993872.314 7 159673382.75107
R01  22472586.305 5 120128983.44705  22472586.166 5  93433613.90805
R08  23611553.229 5 126438798.79805  23611545.585 6  98341264.49606
R13  23227168.710 4
R14  19706876.619 6 105048706.26906  19706875.206 7  81704553.63407
R15  20915122.909 7 111764110.31007  20915117.673 7  86927617.86107
R17  20925157.617 6 111974781.02906  20925150.522 7  87091452.67607
R18  23946253.224 5 127826768.43505  23946269.904 5  99420891.81805
R23  24617364.318 4 131686272.27804
R24  20726171.178 7 110832160.95307  20726164.604 7  86202743.01407
S30  37297678.481 6 196000610.96506
S43  36918282.851 6 194006869.76706
S44  38338982.941 5 201472691.75105
> 2025 03 17 06 42 56.0000000  0 52
C03  36668295.659 6 190941424.09406  36668287.920 7 147648004.19207  36668288.907 5 155155531.78105
C04  38431933.333 5 200125155.48905  38431926.211 6 154749436.09106  38431927.091 5 162618066.08505
C06  39436363.041 4                  39436370.840 5 158793844.55205
C07  36032609.691 6 187631209.00106  36032598.632 7 145088345.55607  36032596.674 5 152465707.01805
C09  38691163.243 5 201475037.74605  38691166.506 6 155793251.97606
C10  36884887.290 6 192069217.86906  36884880.363 6 148520132.71606  36884878.394 5 156071988.08505
C12  22367687.306 6 116474473.94206  22367679.913 7  90065385.39707  22367678.631 6  94644972.61606
C16  39752876.838 5 207003645.34305  39752901.641 6 160068336.16206
C19  26541961.097 5 138210960.98505                                  26541959.885 5 112307722.84505
C21  25384651.269 5 132184571.50405                                  25384656.434 5 107410867.49505
C22  24262948.756 6 126343530.86806                                  24262941.606 5 102664458.85505
C24  22585527.468 6 117608783.17906                                  22585522.475 6  95566714.53106
C25  23818120.620 6 124027142.83106                                  23818117.825 6 100782260.13806
C26  25385266.529 4                                                  25385281.174 4
C34  23018117.610 6 119861370.22006                                  23018115.068 6  97397182.97006
C35  25201205.090 5 131229272.32505                                  25201202.980 5 106634523.54305
C38  37191337.356 6 193665148.88206                                  37191333.012 6 157368714.17606
C40  36346295.433 6 189264713.59606                                  36346289.521 6 153793047.20506
C44  22217777.363 6 115693811.35806                                  22217771.752 6  94010660.55606
E13  23467321.619 6 123321628.32306  23467327.398 6  92090842.66606  23467322.807 7  94493168.42107
E15  26342262.562 5 138429499.11205  26342272.446 5 103372716.45905  26342267.005 6 106069365.68306
E21  23722605.058 6 124663153.66906  23722609.739 6  93092626.28306  23722605.587 7  95521102.52207
E23  27001897.610 5 141895967.00305  27001911.410 5 105961362.76705  27001906.443 6 108725521.75506
E26  25134226.588 5 132081271.93805  25134234.354 6  98632174.34606  25134229.990 7 101205152.75307
E27  24517275.529 6 128839149.82106  24517283.326 6  96211066.50606  24517278.628 7  98720892.10407
E30                                                                  29024866.688 3
G01  22773369.038 5 119674872.31805  22773369.764 3  93253163.40403  22773371.061 6  93253144.39606
G02  25049096.242 5 131633880.76105  25049098.056 2 102571886.77302
G03  21110456.784 6 110936239.35106  21110458.332 6  86443822.65906  21110459.874 6  86443797.67606
G06  22778021.829 5 119699358.87105  22778028.176 5  93272238.04905  22778029.470 6  93272226.09206
G14  19978775.009 6 104989195.60606  19978773.323 5  81809754.94505  19978774.027 7  81809738.96107
G17  21270053.417 6 111774925.57906  21270050.307 6  87097321.47906  21270051.933 6  87097299.49106
G19  22250772.770 6 116928627.36506  22250771.573 4  91113211.51304
G22  20971292.242 6 110204886.61306  20971289.414 4  85873933.67404
G30  23992948.862 4 126083682.33104  23992973.739 3  98247203.72403  23992975.118 5  98247212.64805
I02  38858187.322 5 152487884.37705
I03  39645777.176 6 155578550.96906
I10  36526963.290 6 143339653.31506
J02  37351131.064 6 196281520.67906  37351132.068 7 152946637.91407
J03  38994029.182 6 204915018.94706  38994029.458 7 159674026.56507
R01  22472200.554 5 120126920.92405  22472200.139 5  93432009.75805
R08  23611712.189 5 126439646.75305  23611703.326 5  98341924.02505
R13  23228059.918 4
R14  19707269.717 6 105050801.34706  19707268.143 7  81706183.16207
R15  20914748.010 6 111762107.71306  20914742.862 7  86926060.30007
R17  20925056.126 6 111974238.18006  20925048.826 7  87091030.48207
R18  23945879.420 4 127824773.65604  23945895.920 5  99419340.38505
R23  24617933.276 4 131689316.86704
R24  20726529.750 6 110834078.82506  20726523.177 7  86204234.70007
S30  37297729.131 6 196000863.96906
S43  36918340.441 6 194007149.95606
S44  38339033.412 5 201472949.16405
> 2025 03 17 06 42 57.0000000  0 52
C03  36668347.708 6 190941694.47106  36668339.880 7 147648213.25407  36668340.831 5 155155751.47705
C04  38431980.678 5 200125403.05405  38431973.771 6 154749627.51906  38431974.763 5 162618267.26805
C06  39436769.168 4                  39436777.188 5 158795480.87305
C07  36032602.878 6 187631174.47806  36032592.042 7 145088318.84907  36032590.149 6 152465678.97206
C09  38691562.631 5 201477118.82505  38691566.192 6 155794861.18406
C10  36884852.843 6 192069037.77106  36884845.857 7 148519993.44507  36884843.887 6 156071841.77606
C12  22367750.989 6 116474806.01806  22367743.696 7  90065642.16707  22367742.464 6  94645242.45806
C16  39753266.789 5 207005675.76705  39753291.756 6 160069906.16906
C19  26542224.593 5 138212331.68705                                  26542223.224 5 112308836.66405
C21  25384168.375 5 132182057.23505                                  25384173.772 5 107408824.47705
C22  24262760.628 6 126342551.55106                                  24262753.743 5 102663663.08705
C24  22585928.347 6 117610869.76406                                  22585923.301 6  95568410.04006
C25  23817968.073 6 124026347.97206                                  23817965.210 6 100781614.24706
C26  25385944.476 5                                                  25385959.085 4
C34  23017958.065 6 119860540.29506                                  23017955.714 6  97396508.58706
C35  25201643.562 6 131231555.26306                                  25201641.456 5 106636378.55105
C38  37191128.987 6 193664063.21006                                  37191124.676 6 157367831.93906
C40  36346288.407 7 189264677.15407                                  36346282.470 6 153793017.58106
C44  22217997.821 7 115694959.31807                                  22217992.302 6  94011593.36206
E13  23467515.796 6 123322649.04506  23467521.536 6  92091604.88506  23467517.065 7  94493950.51707
E15  26342773.102 5 138432182.21405  26342783.025 5 103374720.05505  26342777.642 6 106071421.56406
E21  23722508.997 6 124662649.48006  23722513.726 6  93092249.78906  23722509.719 7  95520716.18707
E23  27001453.870 5 141893635.14005  27001467.711 5 105959621.45805  27001462.747 6 108723734.99806
E26  25133988.613 5 132080022.69905  25133996.638 6  98631241.47106  25133992.369 7 101204195.54007
E27  24517685.943 6 128841308.01806  24517694.050 6  96212678.13006  24517689.441 7  98722545.76707
E30                                                                  29025466.873 3
G01  22773974.441 6 119678052.53106  22773974.900 3  93255641.49803  22773976.217 6  93255622.49306
G02  25049691.119 5 131637004.42605  25049692.411 2 102574320.79302
G03  21110609.389 6 110937041.58206  21110610.971 6  86444447.77706  21110612.536 6  86444422.76706
G06  22777648.057 5 119697394.79405  22777654.375 5  93270707.61105  22777655.567 6  93270695.60806
G14  19978883.972 6 104989768.29506  19978882.239 5  81810201.20005  19978883.038 7  81810185.19807
G17  21269965.567 6 111774464.44806  21269962.529 6  87096962.16506  21269964.099 6  87096940.17206
G19  22250434.202 6 116926847.64606  22250432.879 4  91111824.72304
G22  20971118.858 6 110203974.43106  20971115.839 4  85873222.89204
G30  23993525.886 4 126086713.49404  23993550.516 3  98249565.62303  23993552.266 5  98249574.57605
I02  38858181.875 5 152487863.52905
I03  39645496.477 6 155577449.07006
I10  36527035.691 6 143339938.05306
J02  37351039.097 6 196281037.83206  37351040.174 7 152946261.67207
J03  38994186.024 6 204915845.08206  38994186.649 7 159674670.29207
R01  22471814.497 5 120124858.90505  22471813.925 5  93430405.96105
R08  23611871.125 6 126440495.44606  23611862.417 6  98342584.11106
R13  23228952.386 4
R14  19707662.624 6 105052897.24606  19707661.235 7  81707813.29607
R15  20914372.951 7 111760105.79507  20914368.017 7  86924503.24807
R17  20924955.002 6 111973695.60206  20924947.329 7  87090608.46507
R18  23945506.573 5 127822779.06705  23945523.297 5  99417789.05505
R23  24618502.938 4 131692361.39504
R24  20726888.557 7 110835996.81807  20726881.399 7  86205726.44907
S30  37297777.397 6 196001116.95006
S43  36918394.507 6 194007430.10906
S44  38339080.445 5 201473206.54405
> 2025 03 17 06 42 58.0000000  0 52
C03  36668399.628 6 190941964.82706  36668391.876 7 147648422.29207  36668392.631 5 155155971.15005
C04  38432028.252 5 200125650.57705  38432021.497 6 154749818.93506  38432022.663 5 162618468.41305
C06  39437175.741 4                  39437183.597 5 158797117.09305
C07  36032596.043 6 187631139.92306  36032585.484 7 145088292.12507  36032583.567 6 152465650.87406
C09  38691961.835 5 201479199.89905  38691965.802 6 155796470.38306
C10  36884818.021 6 192068857.64006  36884811.340 7 148519854.13507  36884809.328 6 156071695.36806
C12  22367814.683 6 116475138.18206  22367807.548 7  90065899.00807  22367806.205 6  94645512.36006
C16  39753656.967 5 207007706.10905  39753681.863 6 160071476.11806
C19  26542487.860 5 138213702.86805                                  26542486.483 5 112309950.80605
C21  25383685.545 5 132179542.95905                                  25383691.031 5 107406781.44805
C22  24262572.766 6 126341572.65906                                  24262565.714 5 102662867.63605
C24  22586328.978 6 117612956.73206                                  22586324.079 6  95570105.86506
C25  23817815.494 6 124025553.59106                                  23817812.795 6 100780968.73406
C26  25386622.298 5                                                  25386636.715 5
C34  23017798.673 6 119859710.48006                                  23017796.439 6  97395834.28706
C35  25202081.649 6 131233838.13206                                  25202079.783 5 106638233.60005
C38  37190920.390 6 193662977.62806                                  37190916.395 6 157366949.82606
C40  36346281.474 7 189264640.64907                                  36346275.464 6 153792987.91706
C44  22218218.160 7 115696107.35407                                  22218212.856 6  94012526.21706
E13  23467709.925 6 123323669.98806  23467715.663 6  92092367.29506  23467711.511 7  94494732.79807
E15  26343283.624 5 138434865.29205  26343293.493 6 103376723.64806  26343288.323 7 106073477.40907
E21  23722413.037 6 124662145.65106  23722417.648 6  93091873.53906  23722413.967 7  95520330.13407
E23  27001010.402 5 141891303.36205  27001023.830 5 105957880.21105  27001019.146 6 108721948.31006
E26  25133751.004 5 132078773.72205  25133758.841 6  98630308.77806  25133754.832 7 101203238.52807
E27  24518096.498 6 128843466.51306  24518104.760 6  96214289.98506  24518100.366 7  98724199.66807
E30                                                                  29026066.536 3
G01  22774579.809 6 119681232.83506  22774580.067 3  93258119.65503  22774581.597 6  93258100.63806
G02  25050285.376 5 131640127.95805  25050286.757 2 102576754.72302
G03  21110762.183 6 110937844.50206  21110763.771 6  86445073.43406  21110765.345 6  86445048.41806
G06  22777274.301 5 119695430.97305  22777280.655 5  93269177.38205  22777282.051 6  93269165.40106
G14  19978993.027 6 104990341.59706  19978991.355 5  81810647.92805  19978992.225 7  81810631.93207
G17  21269877.601 6 111774003.40806  21269874.782 6  87096602.91806  21269876.577 6  87096580.89906
G19  22250095.894 6 116925067.91406  22250094.216 3  91110437.93403
G22  20970945.435 6 110203062.69106  20970942.327 4  85872512.45804
G30  23994103.438 4 126089744.68504  23994127.324 3  98251927.54903  23994129.694 6  98251936.45806
I02  38858176.415 6 152487842.77006
I03  39645215.685 6 155576347.16106
I10  36527108.417 6 143340222.75706
J02  37350946.499 6 196280555.02406  37350948.400 7 152945885.45307
J03  38994343.167 6 204916671.13306  38994343.746 7 159675313.96207
R01  22471428.022 5 120122797.39405  22471427.564 5  93428802.55305
R08  23612030.702 6 126441344.87806  23612020.850 6  98343244.78806
R13  23229842.405 4
R14  19708055.824 6 105054993.97406  19708054.409 7  81709444.07407
R15  20913998.524 7 111758104.62107  20913993.447 7  86922946.77907
R17  20924853.491 7 111973153.27207  20924846.272 7  87090186.65307
R18  23945132.687 5 127820784.73005  23945149.229 5  99416237.89905
R23  24619072.570 4 131695405.67004
R24  20727247.263 7 110837914.85207  20727240.001 7  86207218.25707
S30  37297826.049 6 196001369.92906
S43  36918448.904 6 194007710.27406
S44  38339131.466 5 201473463.88005
> 2025 03 17 06 42 59.0000000  0 52
C03  36668451.401 6 190942235.18006  36668443.917 7 147648631.35907  36668444.595 5 155156190.84005
C04  38432075.544 5 200125898.15805  38432069.026 6 154750010.36506  38432070.196 5 162618669.58905
C06  39437581.755 4                  39437590.225 5 158798753.36205
C07  36032589.271 6 187631105.38606  36032578.839 7 145088265.40807  36032577.097 6 152465622.80306
C09  38692361.469 5 201481281.03705  38692365.580 6 155798079.64506
C10  36884783.118 6 192068677.49306  36884776.709 7 148519714.83207  36884774.622 6 156071548.99206
C12  22367878.607 6 116475470.47806  22367871.429 7  90066155.96507  22367870.023 6  94645782.38306
C16  39754046.816 5 207009736.41005  39754071.832 6 160073046.03606
C19  26542751.111 5 138215074.54605                                  26542750.510 5 112311065.39105
C21  25383202.577 5 132177028.70805                                  25383208.282 5 107404738.47305
C22  24262384.821 6 126340594.18406                                  24262377.816 5 102662072.55305
C24  22586729.793 6 117615044.14206                                  22586724.931 6  95571802.05106
C25  23817663.193 6 124024759.73406                                  23817660.283 6 100780323.66306
C26  25387300.196 5                                                  25387315.123 5
C34  23017639.226 6 119858880.78306                                  23017637.263 6  97395160.09406
C35  25202520.058 6 131236121.00906                                  25202518.199 5 106640088.59505
C38  37190711.910 6 193661892.22206                                  37190708.018 6 157366067.84206
C40  36346274.398 7 189264604.12007                                  36346268.338 6 153792958.24206
C44  22218438.726 7 115697255.48507                                  22218433.309 6  94013459.16606
E13  23467903.976 6 123324691.23806  23467909.886 6  92093129.88806  23467905.927 7  94495515.29807
E15  26343794.214 5 138437548.39305  26343804.018 6 103378727.27606  26343798.975 6 106075533.30506
E21  23722316.872 6 124661642.22406  23722321.767 6  93091497.61406  23722318.231 7  95519944.39207
E23  27000566.681 5 141888971.67505  27000580.213 5 105956139.01205  27000575.559 6 108720161.70606
E26  25133513.483 5 132077525.05205  25133521.246 6  98629376.33506  25133517.312 7 101202281.73907
E27  24518507.029 6 128845625.37506  24518515.467 6  96215902.10206  24518511.241 7  98725853.84907
E30                                                                  29026666.932 4
G01  22775185.071 6 119684413.24406  22775185.342 3  93260597.90003  22775186.792 6  93260578.87406
G02  25050880.080 5 131643251.40605  25050881.116 1 102579188.56201
G03  21110915.086 6 110938648.13306  21110916.700 5  86445699.64105  21110918.159 6  86445674.61906
G06  22776900.527 5 119693467.52905  22776907.011 5  93267647.43805  22776908.424 6  93267635.44706
G14  19979101.929 6 104990915.57306  19979100.579 5  81811095.18805  19979101.514 7  81811079.16807
G17  21269789.949 6 111773542.48606  21269787.062 5  87096243.76305  21269788.806 6  87096221.74406
G19  22249756.859 6 116923288.27006  22249755.504 3  91109051.20503
G22  20970771.932 6 110202151.46406  20970768.908 4  85871802.41304
G30  23994681.016 5 126092775.85605  23994704.195 3  98254289.45503  23994706.210 5  98254298.35405
I02  38858170.520 6 152487822.03106
I03  39644934.635 6 155575245.26506
I10  36527180.981 6 143340507.49906
J02  37350854.318 6 196280072.29306  37350856.481 7 152945509.29007
J03  38994500.227 6 204917497.14706  38994500.897 7 159675957.60807
R01  22471042.447 5 120120736.34405  22471041.759 5  93427199.52805
R08  23612190.122 6 126442195.09106  23612179.179 6  98343906.05306
R13  23230733.036 4
R14  19708449.344 6 105057091.52706  19708447.964 7  81711075.51107
R15  20913624.347 7 111756104.22607  20913619.069 7  86921390.92707
R17  20924752.739 7 111972611.23607  20924745.005 7  87089765.04707
R18  23944758.961 5 127818790.57405  23944774.499 5  99414686.96105
R23  24619644.468 4 131698449.73904
R24  20727605.980 7 110839833.03007  20727598.802 7  86208710.15807
S30  37297876.363 6 196001622.92006
S43  36918501.102 6 194007990.44206
S44  38339178.288 5 201473721.23405
> 2025 03 17 06 43  0.0000000  0 52
C03  36668503.236 6 190942505.50906  36668495.819 7 147648840.37907  36668496.395 5 155156410.47805
C04  38432123.243 5 200126145.66405  38432116.416 6 154750201.76806  38432117.515 5 162618870.67905
C06  39437988.624 4                  39437996.609 5 158800389.58405
C07  36032582.772 6 187631070.75406  36032572.325 7 145088238.65207  36032570.449 6 152465594.65406
C09  38692761.407 5 201483362.15805  38692765.127 6 155799688.90406
C10  36884748.391 6 192068497.20606  36884742.079 7 148519575.44807  36884739.899 6 156071402.50406
C12  22367942.630 6 116475802.81506  22367935.370 7  90066412.96807  22367933.778 6  94646052.43206
C16  39754436.934 5 207011766.61205  39754461.788 6 160074615.89806
C19  26543014.688 5 138216446.62405                                  26543013.905 5 112312180.32505
C21  25382719.898 5 132174514.42905                                  25382725.397 5 107402695.43905
C22  24262196.849 6 126339616.05206                                  24262190.013 5 102661277.73205
C24  22587130.781 6 117617131.90606                                  22587125.778 6  95573498.52306
C25  23817510.893 6 124023966.30206                                  23817507.970 6 100779678.92606
C26  25387978.103 5                                                  25387993.030 5
C34  23017479.941 6 119858051.13606                                  23017477.927 6  97394485.93106
C35  25202958.386 6 131238403.80706                                  25202956.680 5 106641943.54505
C38  37190503.413 6 193660806.88106                                  37190499.486 6 157365185.90906
C40  36346267.366 7 189264567.49707                                  36346261.293 6 153792928.46306
C44  22218659.157 7 115698403.63707                                  22218653.813 6  94014392.12306
E13  23468098.127 6 123325712.62106  23468104.138 6  92093892.64206  23468100.355 7  94496297.95707
E15  26344304.672 5 138440231.39405  26344314.536 6 103380730.84106  26344309.615 6 106077589.14906
E21  23722220.966 6 124661139.06606  23722226.038 6  93091121.91206  23722222.571 7  95519558.89707
E23  27000123.032 5 141886639.98205  27000136.375 5 105954397.86605  27000131.860 6 108718375.13906
E26  25133276.017 5 132076276.48705  25133283.637 6  98628444.03106  25133279.799 7 101201325.12907
E27  24518917.719 5 128847784.44505  24518926.256 6  96217514.43706  24518922.085 7  98727508.24707
E30                                                                  29027266.733 3
G01  22775790.371 5 119687593.62105  22775790.576 3  93263076.12503  22775791.880 6  93263057.13506
G02  25051473.877 4 131646374.67404  25051475.399 2 102581622.26302
G03  21111068.061 6 110939452.35206  21111069.746 5  86446326.30805  21111071.105 6  86446301.34006
G06  22776526.772 5 119691504.33305  22776533.371 4  93266117.68404  22776534.981 6  93266105.72306
G14  19979211.380 6 104991490.04506  19979209.852 5  81811542.83605  19979210.792 7  81811526.86307
G17  21269702.599 6 111773081.52606  21269699.338 5  87095884.57805  21269700.996 6  87095862.62306
G19  22249418.557 5 116921508.59005  22249416.841 3  91107664.45503
G22  20970598.724 6 110201240.59006  20970595.575 4  85871092.65104
G30  23995258.397 4 126095806.87604  23995280.980 3  98256651.27103  23995283.096 5  98256660.22905
I02  38858164.949 6 152487801.28606
I03  39644653.778 6 155574143.32606
I10  36527253.733 6 143340792.21506
J02  37350762.794 5 196279589.50205  37350764.527 7 152945133.12107
J03  38994657.711 6 204918323.00106  38994658.160 7 159676601.17207
R01  22470657.026 5 120118675.68705  22470656.273 5  93425596.81205
R08  23612349.454 6 126443045.95006  23612338.146 6  98344567.86606
R13  23231623.738 4
R14  19708843.209 6 105059189.77706  19708841.630 7  81712707.45907
R15  20913250.249 7 111754104.47607  20913244.798 7  86919835.54107
R17  20924651.871 7 111972069.37407  20924643.437 7  87089343.61107
R18  23944385.697 5 127816796.57505  23944400.524 5  99413136.06905
R23  24620213.700 4 131701493.63204
R24  20727964.800 7 110841751.22007  20727957.160 7  86210202.09107
S30  37297923.011 5 196001875.79105
S43  36918553.353 6 194008270.52206
S44  38339229.122 5 201473978.48005
> 2025 03 17 06 43  1.0000000  0 52
C03  36668555.348 6 190942775.80006  36668547.694 7 147649049.40007  36668548.283 5 155156630.12605
C04  38432170.883 5 200126393.17705  38432164.025 6 154750393.15206  38432164.892 5 162619071.82205
C06  39438394.553 4                  39438402.863 5 158802025.73005
C07  36032576.071 6 187631036.10606  36032565.725 7 145088211.84307  36032563.632 6 152465566.50706
C09  38693161.544 5 201485443.31405  38693164.881 6 155801298.15806
C10  36884713.884 6 192068316.94306  36884707.365 7 148519436.04507  36884705.106 6 156071255.98806
C12  22368006.599 6 116476135.30306  22367999.142 7  90066670.04607  22367997.520 6  94646322.60006
C16  39754826.960 5 207013796.71805  39754851.895 6 160076185.69006
C19  26543278.141 5 138217819.14005                                  26543277.322 5 112313295.61105
C21  25382237.339 5 132172000.16605                                  25382242.407 5 107400652.41005
C22  24262009.349 6 126338638.33706                                  24262002.279 5 102660483.27405
C24  22587531.783 7 117619220.08507                                  22587526.761 6  95575195.32806
C25  23817358.906 6 124023173.37506                                  23817355.445 6 100779034.60206
C26  25388655.827 5                                                  25388671.160 4
C34  23017320.785 6 119857221.60306                                  23017318.599 6  97393811.84906
C35  25203396.985 6 131240686.56606                                  25203395.132 5 106643798.47905
C38  37190295.295 6 193659721.66406                                  37190290.915 6 157364304.09506
C40  36346260.389 7 189264530.83107                                  36346254.232 6 153792898.66906
C44  22218879.753 7 115699551.86607                                  22218874.335 6  94015325.16306
E13  23468292.270 6 123326734.28606  23468298.510 6  92094655.59606  23468294.803 7  94497080.79707
E15  26344814.238 5 138442914.43305  26344824.976 6 103382734.41306  26344820.188 6 106079644.98006
E21  23722124.638 6 124660636.31906  23722130.306 6  93090746.46606  23722126.895 7  95519173.66607
E23  26999678.034 5 141884308.41405  26999692.536 5 105952656.77905  26999688.187 6 108716588.63506
E26  25133037.648 5 132075028.29105  25133046.120 6  98627511.91706  25133042.206 7 101200368.70007
E27  24519328.453 5 128849943.89205  24519337.129 6  96219127.01106  24519332.953 7  98729162.88407
E30                                                                  29027867.147 3
G01  22776395.728 5 119690774.09805  22776395.703 3  93265554.42703  22776397.114 6  93265535.43806
G02  25052068.021 4 131649497.75404  25052069.615 1 102584055.88201
G03  21111221.250 5 110940257.28705  21111222.895 5  86446953.54805  21111224.287 6  86446928.56206
G06  22776152.422 5 119689541.44605  22776159.798 4  93264588.18204  22776161.350 6  93264576.23006
G14  19979320.450 6 104992065.19406  19979319.264 5  81811991.00205  19979320.247 7  81811975.03107
G17  21269614.558 6 111772620.69506  21269611.641 5  87095525.50505  21269613.222 6  87095503.54206
G19  22249079.480 5 116919728.91905  22249078.129 3  91106277.70203
G22  20970425.540 6 110200330.21006  20970422.273 4  85870383.27504
G30  23995834.387 4 126098837.95004  23995857.752 3  98259013.11103  23995859.681 5  98259022.06805
I02  38858160.101 6 152487780.44206
I03  39644372.929 6 155573041.35906
I10  36527326.252 6 143341076.90106
J02  37350671.031 5 196279106.76705  37350672.572 7 152944756.96607
J03  38994814.658 6 204919148.82106  38994815.155 7 159677244.66007
R01  22470272.107 5 120116615.55605  22470271.566 5  93423994.46705
R08  23612509.159 6 126443897.62006  23612497.244 6  98345230.27206
R13  23232512.777 4
R14  19709236.838 6 105061288.81706  19709235.347 7  81714340.04907
R15  20912876.288 7 111752105.43507  20912870.890 7  86918280.75207
R17  20924550.998 7 111971527.81307  20924542.036 7  87088922.40207
R18  23944012.366 5 127814802.72705  23944027.098 5  99411585.33205
R23  24620784.427 4 131704537.28804
R24  20728323.781 7 110843669.54107  20728315.813 7  86211694.11307
S30  37297967.906 5 196002128.64305
S43  36918604.964 6 194008550.58406
S44  38339275.882 5 201474235.75505
> 2025 03 17 06 43  2.0000000  0 51
C03  36668607.349 6 190943046.14606  36668599.409 7 147649258.46507  36668600.347 5 155156849.80405
C04  38432218.367 5 200126640.74505  38432211.536 6 154750584.59606  38432212.251 5 162619272.98205
C06  39438800.715 4                  39438809.551 5 158803661.87205
C07  36032569.603 6 187631001.48806  36032559.104 7 145088185.09307  36032556.830 6 152465538.36406
C09  38693561.469 5 201487524.54605  38693564.602 6 155802907.49106
C10  36884679.286 6 192068136.67306  36884672.533 7 148519296.65907  36884670.364 6 156071109.51606
C12  22368070.630 6 116476467.91806  22368062.978 7  90066927.27207  22368061.426 6  94646592.88406
C16  39755216.924 5 207015826.84905  39755241.927 6 160077755.47606
C19  26543541.956 5 138219192.23405                                  26543540.740 5 112314411.35105
C21  25381754.579 5 132169485.95605                                  25381759.610 5 107398609.44105
C22  24261821.795 6 126337661.09406                                  24261814.538 5 102659689.17705
C24  22587932.996 7 117621308.73707                                  22587927.903 6  95576892.51906
C25  23817206.605 6 124022380.99306                                  23817203.219 6 100778390.73606
C26  25389333.760 5                                                  25389348.830 4
C34  23017161.789 6 119856392.22506                                  23017159.277 6  97393137.91906
C35  25203835.477 6 131242969.37006                                  25203833.538 5 106645653.43305
C38  37190086.944 6 193658636.63506                                  37190082.466 6 157363422.41806
C40  36346253.503 7 189264494.16607                                  36346247.226 6 153792868.88706
C44  22219100.408 7 115700700.24307                                  22219094.784 6  94016258.31106
E13  23468486.423 6 123327756.30006  23468493.051 6  92095418.75406  23468489.241 7  94497863.87707
E15  26345324.133 5 138445597.56905  26345335.555 6 103384738.01506  26345330.784 6 106081700.85406
E21  23722028.984 6 124660134.02306  23722034.778 6  93090371.37706  23722031.290 7  95518788.78207
E23  26999234.393 4 141881977.02704  26999248.939 5 105950915.80905  26999244.434 6 108714802.25106
E26  25132799.494 5 132073780.41105  25132808.688 6  98626580.07006  25132804.697 7 101199412.52707
E27  24519739.307 5 128852103.75305  24519748.143 6  96220739.87906  24519743.935 7  98730817.82507
E30                                                                  29028467.118 3
G01  22776999.890 5 119693954.79405  22777000.928 3  93268032.86403  22777002.283 6  93268013.87606
G02  25052662.457 4 131652620.89504  25052663.907 1 102586489.49501
G03  21111374.296 6 110941063.05006  21111376.151 5  86447581.41305  21111377.467 6  86447556.40606
G06  22775778.322 5 119687579.04305  22775786.328 4  93263059.04204  22775787.740 6  93263047.05506
G14  19979430.058 6 104992641.07506  19979428.814 5  81812439.74105  19979429.724 7  81812423.75407
G17  21269526.435 6 111772160.06006  21269523.948 5  87095166.56905  21269525.335 6  87095144.59506
G19  22248740.769 5 116917949.40805  22248739.471 3  91104891.07303
G22  20970251.696 6 110199420.42706  20970249.051 4  85869674.35604
G30  23996409.784 4 126101869.17504  23996434.601 3  98261375.02403  23996436.462 5  98261383.95705
I02  38858154.974 6 152487759.66406
I03  39644092.440 6 155571939.43206
I10  36527398.716 6 143341361.66106
J02  37350579.199 5 196278624.18705  37350580.689 7 152944380.90807
J03  38994971.755 6 204919974.65706  38994972.332 7 159677888.17107
R01  22469886.354 5 120114555.94205  22469885.600 5  93422392.52705
R08  23612668.797 6 126444750.07806  23612656.492 6  98345893.27506
R14  19709630.920 6 105063388.74306  19709629.519 7  81715973.32207
R15  20912502.552 7 111750107.17907  20912497.210 7  86916726.55007
R17  20924450.480 7 111970986.56107  20924441.127 7  87088501.41907
R18  23943639.020 5 127812809.25705  23943653.261 5  99410034.83605
R23  24621355.483 4 131707580.89604
R24  20728682.390 7 110845588.03007  20728674.813 7  86213186.26307
S30  37298012.913 5 196002381.60605
S43  36918653.714 6 194008830.74106
S44  38339320.365 5 201474493.10205
> 2025 03 17 06 43  3.0000000  0 51
C03  36668659.322 6 190943316.51606  36668651.038 7 147649467.57007  36668651.985 5 155157069.49405
C04  38432266.147 5 200126888.33005  38432258.927 6 154750776.07506  38432259.596 5 162619474.16105
C06  39439207.333 4                  39439216.268 4 158805298.04404
C07  36032562.688 6 187630966.90006  36032552.445 7 145088158.37007  36032550.259 5 152465510.27905
C09  38693961.219 5 201489605.83305  38693964.181 5 155804516.91905
C10  36884644.975 6 192067956.40106  36884637.948 6 148519157.29706  36884635.777 5 156070963.04805
C12  22368134.561 6 116476800.70906  22368126.906 7  90067184.62707  22368125.330 6  94646863.30406
C16  39755606.469 5 207017856.94005  39755631.737 6 160079325.29706
C19  26543805.501 5 138220565.79705                                  26543804.054 4 112315527.51104
C21  25381271.548 5 132166971.78705                                  25381276.565 5 107396566.52805
C22  24261634.183 6 126336684.28306                                  24261626.970 5 102658895.47605
C24  22588334.213 6 117623397.82806                                  22588328.969 6  95578590.08306
C25  23817054.387 6 124021589.13506                                  23817051.022 6 100777747.30106
C26  25390011.989 4                                                  25390026.540 4
C34  23017002.474 6 119855562.97406                                  23016999.953 6  97392464.10806
C35  25204273.944 6 131245252.16706                                  25204271.966 5 106647508.43305
C38  37189878.448 6 193657551.77406                                  37189873.969 6 157362540.89606
C40  36346246.601 6 189264457.51306                                  36346240.088 6 153792839.10306
C44  22219320.917 7 115701848.74007                                  22219315.170 6  94017191.57706
E13  23468680.931 6 123328778.59406  23468687.618 6  92096182.15206  23468683.669 7  94498647.19307
E15  26345834.036 5 138448280.71405  26345846.363 5 103386741.67105  26345841.341 6 106083756.78206
E21  23721933.330 6 124659632.14506  23721939.309 6  93089996.58306  23721935.731 7  95518404.22107
E23  26998790.488 4 141879645.80704  26998805.311 5 105949174.95905  26998800.716 6 108713015.97706
E26  25132562.275 5 132072532.85305  25132571.236 6  98625648.41806  25132567.199 7 101198456.60207
E27  24520150.688 5 128854263.97405  24520159.230 6  96222353.01006  24520154.942 7  98732473.05407
E30                                                                  29029067.245 3
G01  22777604.452 5 119697135.61605  22777606.189 3  93270511.42603  22777607.676 6  93270492.38706
G02  25053256.357 4 131655743.87104  25053258.159 1 102588922.92501
G03  21111527.495 5 110941869.53005  21111529.585 5  86448209.82605  21111530.628 6  86448184.79906
G06  22775403.895 5 119685616.97805  22775412.925 4  93261530.15404  22775414.303 6  93261518.16906
G14  19979540.158 6 104993217.63606  19979538.503 4  81812889.00304  19979539.528 7  81812872.98807
G17  21269438.919 6 111771699.56406  21269436.268 5  87094807.73605  21269437.681 6  87094785.73306
G19  22248402.101 5 116916169.96705  22248400.821 3  91103504.51003
G22  20970078.790 6 110198511.14706  20970075.928 4  85868965.82604
G30  23996987.289 4 126104900.34004  23997011.458 3  98263736.93903  23997013.415 5  98263745.84405
I02  38858149.763 6 152487738.93606
I03  39643811.765 6 155570837.53506
I10  36527471.235 6 143341646.43306
J02  37350486.890 5 196278141.64905  37350488.800 7 152944004.90207
J03  38995129.025 5 204920800.49405  38995129.369 7 159678531.65207
R01  22469501.173 5 120112496.83805  22469500.732 5  93420791.03105
R08  23612828.003 6 126445603.34706  23612815.110 5  98346556.91505
R14  19710024.857 6 105065489.53106  19710023.641 7  81717607.27407
R15  20912129.267 7 111748109.67007  20912123.567 6  86915172.94606
R17  20924349.839 7 111970445.63407  20924340.256 6  87088080.69806
R18  23943265.394 5 127810815.96505  23943280.264 5  99408484.58305
R23  24621925.763 4 131710624.36004
R24  20729041.303 7 110847506.67107  20729033.605 6  86214678.52906
S30  37298060.540 5 196002634.59805
S43  36918706.805 6 194009110.91406
S44  38339365.506 5 201474750.49805
> 2025 03 17 06 43  4.0000000  0 51
C03  36668711.059 6 190943587.06806  36668702.654 7 147649676.76407  36668703.717 5 155157289.35105
C04  38432313.058 5 200127136.09405  38432306.330 6 154750967.63406  38432307.326 5 162619675.50405
C06  39439612.963 4                  39439622.570 4 158806934.32804
C07  36032556.153 6 187630932.48006  36032545.705 7 145088131.73107  36032543.541 5 152465482.30105
C09  38694361.183 5 201491687.39305  38694363.375 6 155806126.43106
C10  36884610.647 6 192067776.27106  36884603.250 6 148519017.99906  36884601.208 5 156070816.69505
C12  22368198.725 6 116477133.78206  22368190.677 7  90067442.15707  22368189.270 6  94647133.96806
C16  39755996.430 5 207019887.14305  39756021.214 6 160080895.11906
C19  26544069.596 5 138221940.05305                                  26544067.813 5 112316644.21905
C21  25380788.870 5 132164457.82505                                  25380793.798 5 107394523.78105
C22  24261446.638 6 126335708.08006                                  24261439.483 5 102658102.24005
C24  22588735.611 6 117625487.52606                                  22588730.215 6  95580288.14706
C25  23816902.411 6 124020797.97806                                  23816899.170 6 100777104.43906
C26  25390689.722 5                                                  25390704.465 4
C34  23016842.970 6 119854734.04906                                  23016840.741 6  97391790.54106
C35  25204712.317 6 131247535.15306                                  25204710.491 5 106649363.53005
C38  37189670.200 6 193656467.23706                                  37189665.624 6 157361659.61906
C40  36346239.402 7 189264420.98507                                  36346233.033 6 153792809.44906
C44  22219541.467 7 115702997.49907                                  22219535.779 6  94018125.04606
E13  23468875.569 6 123329801.32806  23468882.313 6  92096945.85606  23468878.120 7  94499430.81407
E15  26346344.536 5 138450964.03305  26346356.921 5 103388745.42305  26346351.784 6 106085812.81706
E21  23721837.850 6 124659130.81106  23721843.960 6  93089622.17406  23721840.183 7  95518020.05507
E23  26998346.761 5 141877314.86105  26998361.952 5 105947434.26705  26998356.985 6 108711229.88806
E26  25132325.120 5 132071285.73405  25132334.083 6  98624717.12506  25132329.778 7 101197500.99107
E27  24520561.614 5 128856424.71305  24520570.500 6  96223966.51506  24520566.001 7  98734128.64907
E30                                                                  29029667.431 3
G01  22778209.837 5 119700316.68005  22778211.467 3  93272990.16403  22778212.997 6  93272971.13906
G02  25053848.646 5 131658866.97605  25053852.415 1 102591356.49701
G03  21111680.657 6 110942676.86706  21111683.136 5  86448838.91905  21111684.272 6  86448813.91006
G06  22775030.034 5 119683655.44705  22775039.536 4  93260001.68804  22775040.766 6  93259989.69906
G14  19979649.205 6 104993795.00506  19979648.246 4  81813338.89904  19979649.315 7  81813322.89107
G17  21269350.716 6 111771239.34306  21269348.611 5  87094449.11605  21269350.168 6  87094427.12506
G19  22248063.095 5 116914390.73505  22248062.168 3  91102118.08503
G22  20969905.169 6 110197602.54106  20969902.947 4  85868257.81304
G30  23997562.830 4 126107931.70404  23997588.311 3  98266098.99203  23997589.636 5  98266107.88505
I02  38858144.330 6 152487718.37806
I03  39643531.054 6 155569735.72906
I10  36527543.998 6 143341931.32106
J02  37350394.455 5 196277659.36705  37350396.822 7 152943629.10407
J03  38995285.581 6 204921626.44806  38995286.341 7 159679175.25407
R01  22469115.975 5 120110438.43005  22469116.208 5  93419190.07105
R08  23612988.120 6 126446457.48606  23612975.280 6  98347221.27106
R13  23235180.744 4
R14  19710419.502 6 105067591.39906  19710418.027 7  81719242.05007
R15  20911756.116 7 111746113.16407  20911750.014 7  86913620.08707
R17  20924249.439 7 111969905.18207  20924239.367 7  87087660.34307
R18  23942891.622 5 127808823.08605  23942906.913 5  99406934.58405
R23  24622494.847 4 131713667.93404
R24  20729400.540 7 110849425.63607  20729392.859 7  86216171.05107
S30  37298106.308 5 196002887.76305
S43  36918760.429 6 194009391.27706
> 2025 03 17 06 43  5.0000000  0 51
C03  36668763.033 6 190943857.77506  36668754.735 7 147649886.05107  36668755.552 5 155157509.29205
C04  38432360.784 5 200127383.99205  38432354.101 6 154751159.30106  38432354.877 5 162619876.92405
C06  39440020.552 4                  39440028.583 5 158808570.62905
C07  36032549.600 6 187630898.18606  36032538.838 7 145088105.18207  36032536.793 5 152465454.41605
C09  38694761.170 5 201493769.07905  38694762.815 6 155807736.10006
C10  36884576.062 6 192067596.24806  36884568.612 7 148518878.75507  36884566.511 5 156070670.37805
C12  22368262.472 7 116477467.09407  22368254.584 7  90067699.87207  22368253.180 6  94647404.78206
C16  39756386.487 5 207021917.44705  39756410.889 6 160082465.01506
C19  26544333.896 5 138223314.91205                                  26544331.883 4 112317761.38804
C21  25380306.141 5 132161944.01505                                  25380311.006 5 107392481.12705
C22  24261259.402 6 126334732.42706                                  24261252.032 5 102657309.43305
C24  22589136.979 7 117627577.77307                                  22589131.605 6  95581986.60706
C25  23816750.468 6 124020007.46406                                  23816747.390 6 100776462.02306
C26  25391367.897 5                                                  25391382.211 4
C34  23016683.975 7 119853905.36407                                  23016681.473 6  97391117.13006
C35  25205150.652 6 131249818.24806                                  25205148.866 5 106651218.68805
C38  37189461.825 6 193655382.96906                                  37189457.413 6 157360778.54106
C40  36346232.329 7 189264384.57807                                  36346226.053 6 153792779.80906
C44  22219762.041 7 115704146.48907                                  22219756.447 6  94019058.65406
E13  23469070.147 6 123330824.42406  23469077.170 6  92097709.81606  23469072.735 7  94500214.70507
E15  26346855.275 5 138453647.53005  26346867.524 5 103390749.28905  26346862.360 7 106087868.92407
E21  23721742.475 6 124658629.97506  23721748.778 6  93089248.15306  23721744.824 7  95517636.25307
E23  26997903.530 5 141874984.11205  26997918.277 5 105945693.76805  26997913.455 6 108709443.95206
E26  25132088.029 5 132070039.03205  25132096.920 6  98623786.10106  25132092.448 7 101196545.67307
E27  24520972.877 6 128858585.91106  24520981.787 6  96225580.35006  24520977.247 7  98735784.56807
E30                                                                  29030267.348 4
G01  22778814.795 6 119703497.96606  22778816.840 3  93275469.07503  22778818.456 6  93275450.02906
G02  25054441.859 5 131661990.10405  25054446.712 1 102593790.04001
G03  21111833.932 6 110943485.05306  21111836.880 5  86449468.65505  21111838.184 6  86449443.65006
G06  22774656.611 5 119681694.36605  22774666.299 4  93258473.56804  22774667.589 6  93258461.58106
G14  19979758.737 6 104994373.14206  19979758.203 4  81813789.37904  19979759.424 7  81813773.36007
G17  21269262.530 6 111770779.35106  21269261.012 5  87094090.67205  21269262.583 6  87094068.65706
G19  22247724.238 6 116912611.70706  22247723.639 3  91100731.82403
G22  20969731.741 6 110196694.51906  20969730.164 4  85867550.24204
G30  23998138.702 5 126110963.20805  23998165.199 3  98268461.13303  23998166.795 5  98268470.02705
I02  38858139.176 6 152487697.89606
I03  39643250.565 6 155568633.99906
I10  36527616.878 6 143342216.29606
J02  37350301.773 6 196277177.27006  37350305.181 7 152943253.41407
J03  38995442.195 6 204922452.47806  38995443.538 7 159679818.89007
R01  22468730.719 5 120108380.52605  22468731.103 5  93417589.49805
R08  23613148.175 6 126447312.44506  23613134.743 5  98347886.25305
R13  23236072.019 4
R14  19710814.065 6 105069694.13406  19710812.567 7  81720877.53607
R15  20911383.138 7 111744117.46607  20911376.730 7  86912067.88607
R17  20924149.009 7 111969365.05007  20924138.487 7  87087240.25007
R18  23942517.570 5 127806830.51905  23942533.979 5  99405384.87105
R23  24623063.141 4 131716711.26004
R24  20729759.423 7 110851344.74307  20729751.712 6  86217663.69306
S30  37298159.667 6 196003141.06406
S43  36918817.192 6 194009671.79106
> 2025 03 17 06 43  6.0000000  0 51
C03  36668815.096 6 190944128.52506  36668806.843 7 147650095.41607  36668807.785 5 155157729.27405
C04  38432408.505 5 200127631.95405  38432401.907 6 154751351.03606  38432402.442 5 162620078.40005
C06  39440427.205 4                  39440435.242 5 158810207.00705
C07  36032543.035 6 187630863.94906  36032532.311 7 145088078.71407  36032529.953 6 152465426.56106
C09  38695161.144 5 201495850.85805  38695162.935 6 155809345.84306
C10  36884541.595 6 192067416.26406  36884534.242 6 148518739.57306  36884532.094 6 156070524.11506
C12  22368326.432 7 116477800.60007  22368318.705 7  90067957.75307  22368317.121 6  94647675.75706
C16  39756776.305 5 207023947.75005  39756800.997 6 160084034.95506
C19  26544598.338 5 138224690.34305                                  26544595.983 5 112318878.98805
C21  25379823.112 6 132159430.30006                                  25379828.120 5 107390438.51105
C22  24261072.161 6 126333757.27306                                  24261064.752 5 102656516.99905
C24  22589538.393 7 117629668.51407                                  22589533.072 6  95583685.47306
C25  23816598.854 6 124019217.50106                                  23816595.622 6 100775820.12406
C26  25392045.656 5                                                  25392059.809 4
C34  23016524.867 7 119853076.85807                                  23016522.290 6  97390443.87606
C35  25205589.327 6 131252101.38406                                  25205587.036 5 106653073.91405
C38  37189253.322 6 193654298.91006                                  37189249.416 6 157359897.61906
C40  36346225.248 7 189264348.18807                                  36346219.012 6 153792750.22206
C44  22219982.897 7 115705295.63607                                  22219976.985 6  94019992.40106
E13  23469265.085 6 123331847.84806  23469271.985 6  92098474.05606  23469267.674 7  94500998.88307
E15  26347366.676 5 138456331.07405  26347378.289 6 103392753.18706  26347373.166 6 106089925.12806
E21  23721647.331 6 124658129.60206  23721653.668 6  93088874.46106  23721649.724 7  95517252.83207
E23  26997460.054 5 141872653.50505  26997474.884 5 105943953.36005  26997470.169 6 108707658.17806
E26  25131850.850 5 132068792.62505  25131859.779 6  98622855.34506  25131855.439 7 101195590.64907
E27  24521384.456 6 128860747.48806  24521393.164 6  96227194.51306  24521388.742 7  98737440.84107
E30                                                                  29030867.726 3
G01  22779420.073 6 119706679.38306  22779422.316 3  93277948.10403  22779424.133 6  93277928.98806
G02  25055036.311 5 131665113.12705  25055040.990 1 102596223.55601
G03  21111987.365 6 110944294.00006  21111990.842 5  86450099.00905  21111992.092 6  86450073.90906
G06  22774282.605 5 119679733.69505  22774293.151 4  93256945.77704  22774294.767 6  93256933.68306
G14  19979868.423 6 104994951.99506  19979868.375 4  81814240.42304  19979869.585 7  81814224.31407
G17  21269174.440 6 111770319.53106  21269173.511 5  87093732.36705  21269175.217 6  87093710.25606
G19  22247385.460 6 116910832.74606  22247385.155 3  91099345.62603
G22  20969558.710 6 110195787.05106  20969557.515 4  85866843.11804
G30  23998714.585 4 126113994.77704  23998742.275 3  98270823.31803  23998743.907 5  98270832.10005
I02  38858134.297 6 152487677.50806
I03  39642969.770 6 155567532.33206
I10  36527689.431 6 143342501.34206
J02  37350209.131 6 196276695.27906  37350213.539 7 152942877.74407
J03  38995598.879 6 204923278.51306  38995600.913 7 159680462.46307
R01  22468345.666 5 120106323.21805  22468346.145 5  93415989.39305
R08  23613308.642 6 126448168.25306  23613295.044 5  98348551.86205
R13  23236961.984 4
R14  19711208.736 6 105071797.72506  19711207.314 7  81722513.64007
R15  20911010.282 7 111742122.56207  20911003.067 7  86910516.28207
R17  20924048.482 7 111968825.28007  20924037.545 7  87086820.42707
R18  23942144.077 5 127804838.26305  23942160.649 5  99403835.31605
R23  24623629.821 4 131719754.54504
R24  20730118.638 7 110853264.01107  20730110.676 7  86219156.46007
S30  37298210.791 6 196003394.44106
S43  36918871.370 6 194009952.36006
> 2025 03 17 06 43  7.0000000  0 51
C03  36668867.087 6 190944399.25406  36668858.772 7 147650304.72907  36668859.692 5 155157949.29105
C04  38432456.446 5 200127879.90105  38432449.333 6 154751542.72006  38432450.347 5 162620279.87005
C06  39440834.333 4                  39440842.227 5 158811843.25505
C07  36032536.592 6 187630829.62706  36032525.623 7 145088052.16007  36032523.449 5 152465398.71005
C09  38695560.760 5 201497932.64705  38695562.587 6 155810955.58906
C10  36884507.081 6 192067236.21206  36884499.664 6 148518600.31806  36884497.504 5 156070377.80605
C12  22368390.473 6 116478134.16206  22368382.693 7  90068215.67507  22368381.258 6  94647946.83806
C16  39757166.081 5 207025977.94905  39757190.944 6 160085604.77506
C19  26544862.857 5 138226066.16905                                  26544860.419 4 112319996.98304
C21  25379340.195 5 132156916.52905                                  25379345.418 5 107388395.93505
C22  24260885.289 6 126332782.46706                                  24260877.514 5 102655724.93705
C24  22589940.046 6 117631759.62406                                  22589934.769 6  95585384.68806
C25  23816447.229 6 124018427.99606                                  23816444.061 6 100775178.61406
C26  25392724.207 4                                                  25392737.770 4
C34  23016365.847 6 119852248.39706                                  23016363.212 6  97389770.72506
C35  25206027.593 5 131254384.45605                                  25206025.442 5 106654929.10105
C38  37189045.427 6 193653214.93906                                  37189041.329 6 157359016.85006
C40  36346218.311 6 189264311.70706                                  36346212.183 6 153792720.61706
C44  22220203.585 6 115706444.80106                                  22220197.731 6  94020926.23006
E13  23469460.070 6 123332871.35706  23469466.923 6  92099238.45306  23469462.403 7  94501783.18107
E15  26347877.641 5 138459014.43005  26347889.007 5 103394757.08005  26347883.701 6 106091981.26306
E21  23721552.550 6 124657629.40606  23721558.646 6  93088501.03906  23721554.507 7  95516869.62607
E23  26997016.555 4 141870322.86604  26997031.497 5 105942213.01905  26997026.651 6 108705872.41106
E26  25131614.128 5 132067546.36005  25131622.845 6  98621924.78606  25131618.280 7 101194635.76907
E27  24521796.112 5 128862909.22205  24521804.731 6  96228808.87406  24521800.067 7  98739097.30007
E30                                                                  29031467.947 3
G01  22780026.774 5 119709860.72405  22780027.760 3  93280427.05103  22780029.375 6  93280408.06706
G02  25055631.560 4 131668235.88204  25055635.193 1 102598656.86901
G03  21112141.766 6 110945103.48106  21112144.894 5  86450729.77405  21112146.035 6  86450704.78406
G06  22773911.272 5 119677773.17605  22773920.065 4  93255418.10504  22773921.759 6  93255406.12206
G14  19979979.470 6 104995531.29306  19979978.623 4  81814691.82704  19979979.696 7  81814675.82907
G17  21269087.462 6 111769859.62906  21269085.988 5  87093373.98605  21269087.501 6  87093351.99906
G19  22247047.380 5 116909053.66405  22247046.716 3  91097959.33203
G22  20969387.461 6 110194879.86006  20969384.883 4  85866136.22204
G30  23999293.870 4 126117026.08004  23999319.227 3  98273185.33303  23999320.756 5  98273194.26005
I02  38858129.349 6 152487657.12006
I03  39642688.940 6 155566430.63906
I10  36527761.913 6 143342786.37806
J02  37350117.913 5 196276213.17305  37350121.790 7 152942502.18407
J03  38995756.611 6 204924104.30806  38995758.047 7 159681106.05707
R01  22467960.239 5 120104266.38605  22467961.529 5  93414389.67905
R08  23613469.002 5 126449024.80905  23613455.678 5  98349218.08805
R13  23237854.144 4
R14  19711603.343 6 105073902.11106  19711602.087 7  81724150.39907
R15  20910637.473 6 111740128.36606  20910629.944 7  86908965.28307
R17  20923948.268 6 111968285.77306  20923936.555 6  87086400.86006
R18  23941769.351 5 127802846.11205  23941787.894 5  99402285.97005
R23  24624196.794 4 131722797.73104
R24  20730477.689 7 110855183.39307  20730469.472 6  86220649.35106
S30  37298260.507 5 196003647.65405
S43  36918925.579 6 194010232.78306
> 2025 03 17 06 43  8.0000000  0 51
C03  36668918.618 6 190944669.97406  36668910.687 6 147650514.03606  36668911.612 5 155158169.33905
C04  38432503.907 5 200128127.82605  38432496.499 6 154751734.42306  38432497.768 5 162620481.40605
C06  39441241.269 4                  39441248.993 4 158813479.58004
C07  36032529.999 6 187630795.36006  36032518.935 6 145088025.60606  36032516.651 5 152465370.92005
C09  38695960.049 5 201500014.46505  38695962.766 5 155812565.35705
C10  36884472.741 6 192067056.15006  36884465.013 6 148518461.02906  36884462.752 5 156070231.52105
C12  22368454.173 6 116478467.89806  22368446.750 7  90068473.68607  22368445.228 6  94648218.06006
C16  39757556.084 5 207028008.15805  39757580.857 5 160087174.56705
C19  26545126.635 5 138227442.55505                                  26545123.985 4 112321115.46404
C21  25378857.363 5 132154402.82805                                  25378862.338 5 107386353.43205
C22  24260698.176 6 126331808.15706                                  24260690.452 5 102654933.26605
C24  22590341.891 6 117633851.18206                                  22590336.243 6  95587084.31506
C25  23816295.883 6 124017639.03906                                  23816292.443 5 100774537.54205
C26  25393401.962 4                                                  25393415.574 4
C34  23016206.694 6 119851420.12206                                  23016203.779 6  97389097.71906
C35  25206465.758 5 131256667.54205                                  25206463.653 5 106656784.33905
C38  37188837.210 6 193652131.13106                                  37188832.890 5 157358136.21205
C40  36346211.362 6 189264275.25706                                  36346205.195 6 153792691.03006
C44  22220424.119 6 115707594.12606                                  22220418.421 6  94021860.17206
E13  23469654.831 6 123333895.29006  23469661.815 6  92100003.13706  23469656.959 7  94502567.72507
E15  26348388.854 5 138461697.97105  26348399.872 5 103396761.10605  26348394.162 6 106094037.43406
E21  23721457.512 6 124657129.76006  23721463.753 6  93088128.01506  23721459.170 7  95516486.74407
E23  26996573.133 5 141867992.48905  26996588.090 5 105940472.90405  26996582.888 6 108704086.75106
E26  25131376.681 5 132066300.49405  25131385.761 6  98620994.52906  25131380.879 7 101193681.12907
E27  24522207.134 6 128865071.48406  24522216.322 6  96230423.63006  24522211.355 7  98740754.05307
E30                                                                  29032067.105 3
G01  22780632.263 6 119713042.29806  22780633.200 3  93282906.19403  22780634.706 6  93282887.28406
G02  25056226.089 5 131671358.65505  25056229.440 1 102601090.13501
G03  21112296.242 6 110945913.81806  21112299.044 5  86451361.19605  21112300.361 6  86451336.26906
G06  22773538.522 5 119675813.11605  22773547.060 4  93253890.80504  22773548.993 6  93253878.90406
G14  19980089.967 6 104996111.36206  19980089.005 4  81815143.82404  19980090.302 7  81815127.90107
G17  21269000.006 6 111769399.93806  21268998.470 5  87093015.79705  21269000.099 6  87092993.87006
G19  22246708.905 6 116907274.76006  22246708.035 3  91096573.17003
G22  20969214.833 6 110193973.30706  20969212.359 4  85865429.82104
G30  23999869.477 5 126120057.60205  23999896.111 3  98275547.49403  23999897.533 5  98275556.48505
I02  38858124.732 5 152487636.85305
I03  39642408.188 6 155565329.08306
I10  36527834.819 6 143343071.51106
J02  37350026.735 6 196275731.24706  37350030.069 7 152942126.71207
J03  38995913.895 6 204924930.20406  38995915.442 7 159681749.66507
R01  22467574.444 5 120102210.13805  22467576.800 5  93412790.36805
R08  23613629.439 6 126449882.26306  23613615.515 5  98349884.95105
R13  23238746.045 4
R14  19711998.225 6 105076007.37906  19711996.971 7  81725787.83407
R15  20910264.587 7 111738134.97507  20910256.874 6  86907414.83606
R17  20923847.979 7 111967746.65007  20923835.825 6  87085981.49706
R18  23941396.607 5 127800854.37205  23941415.391 5  99400736.80705
R23  24624764.765 4 131725840.64104
R24  20730836.867 7 110857102.99907  20730828.621 6  86222142.33106
S30  37298306.417 6 196003900.97406
S43  36918974.879 6 194010513.30406
> 2025 03 17 06 43  9.0000000  0 51
C03  36668971.008 6 190944940.63706  36668962.281 6 147650723.51306  36668964.037 5 155158389.32805
C04  38432551.874 5 200128375.70105  38432543.711 5 154751926.25005  38432545.476 5 162620682.86905
C06  39441648.079 4                  39441655.963 4 158815115.92804
C07  36032523.336 6 187630760.96306  36032512.348 6 145087999.21106  36032510.485 5 152465343.01905
C09  38696360.188 5 201502096.29405  38696362.586 5 155814175.28505
C10  36884438.225 6 192066875.92006  36884430.332 6 148518321.87706  36884428.420 5 156070085.17405
C12  22368517.992 6 116478801.64006  22368510.955 6  90068731.94806  22368509.593 6  94648489.30806
C16  39757945.484 5 207030038.17805  39757970.851 5 160088744.44805
C19  26545390.370 5 138228819.29505                                  26545388.475 4 112322234.24604
C21  25378374.149 5 132151889.05505                                  25378379.954 5 107384310.89105
C22  24260510.995 6 126330834.12406                                  24260503.616 5 102654141.82505
C24  22590743.378 6 117635943.04406                                  22590738.356 6  95588784.16606
C25  23816144.405 6 124016850.49106                                  23816141.298 6 100773896.85506
C26  25394079.860 4                                                  25394094.027 4
C34  23016047.192 6 119850591.83506                                  23016045.077 6  97388424.73106
C35  25206904.151 5 131258950.54005                                  25206902.390 5 106658639.49105
C38  37188628.962 6 193651047.37806                                  37188625.052 6 157357255.59906
C40  36346204.067 6 189264238.64506                                  36346198.447 6 153792661.34206
C44  22220644.559 6 115708743.41706                                  22220639.532 6  94022794.13106
E13  23469850.084 6 123334919.37406  23469856.951 6  92100767.91006  23469851.729 6  94503352.54306
E15  26348899.838 5 138464381.41205  26348910.816 5 103398764.97305  26348904.847 6 106096093.69006
E21  23721362.856 6 124656630.40006  23721369.053 6  93087755.12806  23721364.085 6  95516104.24706
E23  26996130.280 5 141865662.05705  26996144.990 5 105938732.66805  26996139.374 6 108702301.28206
E26  25131139.730 5 132065054.81805  25131148.883 6  98620064.33606  25131143.735 6 101192726.78506
E27  24522618.855 6 128867233.97106  24522628.144 6  96232038.47706  24522622.773 6  98742411.14306
E30                                                                  29032666.888 3
G01  22781238.219 5 119716223.91105  22781238.649 3  93285385.37803  22781240.416 6  93285366.44606
G02  25056821.236 5 131674481.29805  25056823.629 1 102603523.36701
G03  21112451.583 6 110946724.74406  21112453.414 5  86451993.10905  21112455.093 6  86451968.18106
G06  22773167.156 5 119673853.29405  22773174.145 4  93252363.71404  22773176.265 6  93252351.79406
G14  19980201.091 6 104996692.00206  19980199.561 4  81815596.28704  19980201.092 7  81815580.35707
G17  21268913.298 6 111768940.27406  21268911.040 5  87092657.63405  21268912.877 6  87092635.72606
G19  22246370.511 5 116905495.83105  22246369.556 3  91095187.02303
G22  20969043.524 6 110193067.13806  20969040.045 4  85864723.72704
G30  24000447.246 4 126123088.98804  24000473.053 3  98277909.55703  24000474.617 5  98277918.56805
I02  38858120.296 5 152487616.47105
I03  39642127.556 6 155564227.32906
I10  36527907.971 6 143343356.54106
J02  37349936.303 6 196275249.27406  37349938.994 7 152941751.15407
J03  38996071.782 6 204925755.96306  38996073.044 7 159682393.13007
R01  22467190.082 5 120100154.25705  22467191.332 5  93411191.37005
R08  23613789.886 5 126450740.28705  23613775.664 5  98350552.36005
R13  23239636.720 4
R14  19712393.319 6 105078113.37606  19712391.887 7  81727425.76807
R15  20909891.182 6 111736142.21406  20909883.478 6  86905864.88206
R17  20923747.492 6 111967207.68706  20923735.015 6  87085562.31406
R18  23941024.798 5 127798862.71005  23941041.362 5  99399187.78405
R23  24625330.873 4 131728883.40904
R24  20731195.700 6 110859022.63206  20731187.125 6  86223635.38006
S30  37298350.713 6 196004154.18406
S43  36919025.131 6 194010793.73006
> 2025 03 17 06 43 10.0000000  0 50
C03  36669023.169 6 190945211.35706  36669014.089 6 147650932.85906  36669016.051 5 155158609.30605
C04  38432599.694 5 200128623.63105  38432591.195 6 154752118.00106  38432593.067 5 162620884.33905
C06  39442054.496 4                  39442062.818 4 158816752.21704
C07  36032516.785 6 187630726.64906  36032505.592 6 145087972.65206  36032503.995 6 152465315.12106
C09  38696760.329 5 201504178.24105  38696762.475 5 155815785.18705
C10  36884403.713 6 192066695.77606  36884395.620 6 148518182.58906  36884394.080 6 156069938.77306
C12  22368582.227 6 116479135.58406  22368574.854 7  90068990.17807  22368573.827 6  94648760.67106
C16  39758335.626 5 207032068.21405  39758360.443 5 160090314.18605
C19  26545654.914 5 138230196.61205                                  26545653.344 5 112323353.41105
C21  25377891.668 5 132149375.41205                                  25377897.284 5 107382268.37305
C22  24260324.277 6 126329860.60306                                  24260316.870 6 102653350.77706
C24  22591145.480 6 117638035.43906                                  22591140.339 6  95590484.39506
C25  23815993.502 6 124016062.52506                                  23815989.912 6 100773256.57706
C26  25394758.049 5                                                  25394772.162 5
C34  23015888.568 6 119849763.75406                                  23015886.347 6  97387751.85106
C35  25207342.741 6 131261233.55906                                  25207341.132 5 106660494.61605
C38  37188421.311 6 193649963.83006                                  37188417.003 6 157356375.14206
C40  36346197.416 7 189264202.08107                                  36346191.564 6 153792631.63606
C44  22220865.663 7 115709892.88907                                  22220860.498 6  94023728.16706
E13  23470045.265 7 123335943.79107  23470051.836 6  92101532.86406  23470046.688 7  94504137.48607
E15  26349410.613 5 138467064.90505  26349421.330 5 103400768.84805  26349415.456 6 106098149.89306
E21  23721268.234 7 124656131.49307  23721274.099 6  93087382.53006  23721269.052 7  95515721.97207
E23  26995687.253 5 141863331.83805  26995701.723 5 105936992.57905  26995695.887 6 108700515.77906
E26  25130903.087 6 132063809.49406  25130911.899 6  98619134.34606  25130906.707 6 101191772.59006
E27  24523030.706 6 128869396.86706  24523039.824 6  96233653.59906  24523034.308 7  98744068.42807
E30                                                                  29033267.700 3
G01  22781843.481 6 119719405.66506  22781844.227 3  93287864.68803  22781846.018 6  93287845.67206
G02  25057415.625 5 131677603.79905  25057417.792 1 102605956.54901
G03  21112606.233 6 110947536.46506  21112607.935 5  86452625.63605  21112609.973 6  86452600.63006
G06  22772794.731 5 119671893.94305  22772801.422 4  93250836.96204  22772803.581 6  93250824.97306
G14  19980311.577 7 104997273.37407  19980310.234 4  81816049.31004  19980311.975 7  81816033.30307
G17  21268825.923 7 111768480.80107  21268823.727 5  87092299.61505  21268825.470 6  87092277.62106
G19  22246031.655 6 116903717.01706  22246031.098 3  91093800.94103
G22  20968870.953 7 110192161.53107  20968867.816 4  85864018.07704
G30  24001024.032 5 126126120.46905  24001050.040 3  98280271.74003  24001051.177 5  98280280.66605
I02  38858114.888 5 152487596.07905
I03  39641846.654 6 155563125.60106
I10  36527980.598 6 143343641.56906
J02  37349844.612 6 196274767.43706  37349847.527 7 152941375.64807
J03  38996228.620 6 204926581.73706  38996230.371 7 159683036.52807
R01  22466805.326 5 120098098.90905  22466807.897 5  93409592.76805
R08  23613949.680 5 126451599.15705  23613936.050 6  98351220.36906
R13  23240530.736 4
R14  19712788.652 6 105080220.24606  19712786.909 7  81729064.46407
R15  20909517.979 6 111734150.21006  20909510.526 7  86904315.57907
R17  20923646.383 6 111966669.04206  20923634.213 7  87085143.37007
R18  23940651.562 5 127796871.31805  23940667.474 5  99397638.95205
R24  20731554.166 6 110860942.40406  20731545.990 7  86225128.54007
S30  37298395.590 6 196004407.49406
S43  36919078.554 6 194011074.25506
> 2025 03 17 06 43 11.0000000  0 50
C03  36669075.733 6 190945482.20306  36669066.072 6 147651142.28006  36669068.154 5 155158829.40205
C04  38432647.674 6 200128871.68406  38432638.684 6 154752309.80606  38432640.569 5 162621085.88605
C06  39442461.427 4                  39442468.908 4 158818388.48604
C07  36032510.382 7 187630692.42207  36032498.841 7 145087946.17007  36032497.391 5 152465287.28905
C09  38697160.372 5 201506260.31605  38697162.071 5 155817395.15205
C10  36884369.485 6 192066515.72706  36884361.102 6 148518043.33306  36884359.648 5 156069792.45105
C12  22368646.646 7 116479469.76707  22368638.835 7  90069248.56507  22368638.009 6  94649032.19606
C16  39758725.983 6 207034098.32706  39758750.092 5 160091883.95305
C19  26545920.247 5 138231574.55005                                  26545918.379 4 112324473.05704
C21  25377409.565 6 132146861.83406                                  25377414.433 5 107380225.92205
C22  24260137.999 6 126328887.62306                                  24260129.919 5 102652560.13005
C24  22591547.909 7 117640128.36407                                  22591542.295 6  95592185.04506
C25  23815842.782 6 124015275.18106                                  23815838.837 6 100772616.74906
C26  25395436.917 5                                                  25395450.346 4
C34  23015730.202 7 119848935.91207                                  23015727.564 6  97387079.13806
C35  25207781.573 6 131263516.67906                                  25207779.656 5 106662349.84405
C38  37188213.805 6 193648880.54006                                  37188209.002 6 157355494.86806
C40  36346190.981 7 189264165.61007                                  36346184.630 6 153792601.96606
C44  22221086.963 7 115711042.56107                                  22221081.333 6  94024662.35206
E13  23470240.616 7 123336968.66807  23470246.741 6  92102298.08406  23470241.754 7  94504922.67907
E15  26349921.477 5 138469748.61305  26349931.873 5 103402772.79205  26349926.111 6 106100206.13706
E21  23721173.633 7 124655633.16507  23721179.241 6  93087010.28106  23721174.235 7  95515340.02907
E23  26995244.254 5 141861001.91305  26995258.333 5 105935252.58105  26995252.542 6 108698730.41106
E26  25130666.288 6 132062564.64506  25130674.788 6  98618204.62906  25130669.795 7 101190818.63807
E27  24523442.540 6 128871560.29906  24523451.418 6  96235268.99906  24523445.994 7  98745726.01007
E30                                                                  29033868.091 3
G01  22782448.575 6 119722587.70806  22782449.792 3  93290344.18703  22782451.766 7  93290325.12207
G02  25058010.213 5 131680726.43405  25058012.039 1 102608389.78301
G03  21112760.589 6 110948349.09406  21112762.653 5  86453258.84205  21112765.069 7  86453233.78507
G06  22772421.406 6 119669935.11506  22772428.721 4  93249310.59904  22772431.121 6  93249298.54906
G14  19980422.017 7 104997855.56207  19980421.103 5  81816502.95605  19980422.975 7  81816486.91407
G17  21268738.275 7 111768021.62107  21268736.401 5  87091941.80805  21268738.208 6  87091919.77306
G19  22245692.936 6 116901938.46006  22245692.753 3  91092415.04203
G22  20968698.471 7 110191256.60307  20968695.681 4  85863312.91904
G30  24001600.541 5 126129152.12505  24001627.241 3  98282634.01003  24001628.470 6  98282642.89006
I02  38858109.386 5 152487575.75705
I03  39641565.914 6 155562023.93306
I10  36528053.140 6 143343926.64806
J02  37349752.557 6 196274285.85106  37349755.995 7 152941000.33807
J03  38996385.667 6 204927407.66506  38996387.662 7 159683680.05807
R01  22466420.853 5 120096044.14005  22466423.434 5  93407994.67005
R08  23614110.267 5 126452458.79705  23614096.915 5  98351889.04305
R13  23241423.259 4
R14  19713183.974 6 105082327.99906  19713182.585 7  81730703.89907
R15  20909145.091 6 111732158.98506  20909138.109 6  86902766.90506
R17  20923545.070 6 111966130.68506  20923533.756 6  87084724.70506
R18  23940279.225 5 127794880.17705  23940294.491 5  99396090.37505
R24  20731912.998 6 110862862.27906  20731905.144 6  86226621.83206
S30  37298446.933 6 196004661.01206
S43  36919135.750 7 194011354.99607
> 2025 03 17 06 43 12.0000000  0 50
C03  36669128.682 6 190945753.08206  36669118.104 6 147651351.76106  36669119.976 5 155159049.49605
C04  38432696.174 6 200129119.77006  38432686.360 6 154752501.65506  38432688.308 5 162621287.48305
C06  39442867.298 5                  39442875.541 4 158820024.79304
C07  36032504.339 7 187630658.21407  36032492.497 6 145087919.73506  36032490.814 5 152465259.49205
C09  38697560.748 5 201508342.47905  38697561.938 5 155819005.18205
C10  36884335.588 6 192066335.67606  36884326.701 6 148517904.09006  36884325.048 5 156069646.13605
C12  22368711.429 7 116479804.07707  22368703.089 7  90069507.07607  22368702.143 6  94649303.84906
C16  39759116.951 6 207036128.43206  39759139.938 5 160093453.73105
C19  26546186.176 5 138232952.96105                                  26546182.805 4 112325593.16504
C21  25376927.614 6 132144348.35506                                  25376931.747 5 107378183.52505
C22  24259951.966 6 126327915.06806                                  24259942.970 5 102651769.88005
C24  22591950.751 7 117642221.73007                                  22591944.269 6  95593886.07606
C25  23815692.299 7 124014488.36407                                  23815687.672 5 100771977.39605
C26  25396115.906 5                                                  25396128.414 4
C34  23015572.104 7 119848108.19707                                  23015568.517 6  97386406.54306
C35  25208221.191 6 131265799.82106                                  25208218.094 5 106664205.07605
C38  37188006.698 7 193647797.40607                                  37188000.899 5 157354614.73105
C40  36346184.889 7 189264129.12107                                  36346177.656 6 153792572.30606
C44  22221308.649 7 115712192.35107                                  22221301.974 6  94025596.62906
E13  23470436.224 6 123337993.68706  23470441.614 6  92103063.55206  23470436.912 7  94505708.11507
E15  26350432.648 5 138472432.22605  26350442.301 5 103404776.82505  26350436.903 6 106102262.44706
E21  23721079.549 6 124655135.07606  23721084.197 6  93086638.39106  23721079.629 7  95514958.43407
E23  26994801.915 5 141858671.97705  26994814.870 5 105933512.73505  26994809.264 6 108696945.18306
E26  25130430.130 6 132061319.94906  25130437.757 5  98617275.21605  25130433.054 7 101189864.95507
E27  24523854.930 6 128873723.95506  24523862.888 6  96236884.77606  24523857.853 7  98747383.91007
E30                                                                  29034467.512 3
G01  22783054.541 6 119725769.71806  22783055.375 3  93292823.66803  22783057.468 6  93292804.64906
G02  25058606.132 5 131683848.86005  25058606.210 1 102610822.82601
G03  21112916.439 6 110949162.29406  21112917.586 5  86453892.51105  21112920.038 6  86453867.50306
G06  22772049.128 5 119667976.48405  22772056.092 4  93247784.40104  22772058.530 6  93247772.41406
G14  19980533.692 7 104998438.28007  19980532.142 5  81816957.02905  19980534.024 7  81816941.02307
G17  21268652.051 6 111767562.41006  21268649.111 5  87091583.98905  21268651.147 6  87091561.98706
G19  22245355.926 6 116900159.80606  22245354.372 3  91091029.08403
G22  20968526.634 6 110190352.02306  20968523.653 4  85862608.06504
G30  24002178.402 5 126132183.67705  24002204.398 3  98284996.22603  24002205.675 5  98285005.13605
I02  38858103.747 5 152487555.54405
I03  39641285.279 6 155560922.32906
I10  36528125.776 6 143344211.83406
J02  37349661.535 6 196273804.18506  37349664.577 7 152940625.06507
J03  38996543.581 6 204928233.41506  38996545.013 7 159684323.53807
R01  22466037.434 5 120093989.92705  22466039.753 5  93406396.97305
R08  23614269.925 5 126453319.32005  23614257.207 5  98352558.32305
R13  23242316.895 4
R14  19713579.622 6 105084436.71206  19713578.512 7  81732343.99907
R15  20908772.266 7 111730168.62307  20908765.880 6  86901218.85606
R17  20923443.826 6 111965592.71306  20923433.587 6  87084306.27206
R18  23939907.004 5 127792889.33205  23939921.871 5  99394541.94705
R24  20732271.983 7 110864782.37007  20732264.258 6  86228115.22506
S30  37298497.100 6 196004914.45106
S43  36919193.461 6 194011635.65206
