     3.04           OBSERVATION DATA    M                   RINEX VERSION / TYPE
sbf2rin-15.10.3                         20260504 112714 UTC PGM / RUN BY / DATE 
SEPT                                                        MARKER NAME         
Unknown                                                     MARKER NUMBER       
Unknown             Unknown                                 OBSERVER / AGENCY   
3640872             SEPT MOSAIC-X5C     4.12.1              REC # / TYPE / VERS 
Unknown             Unknown                                 ANT # / TYPE        
 -2751593.8655  4771639.5036  3205009.9876                  APPROX POSITION XYZ 
        0.0000        0.0000        0.0000                  ANTENNA: DELTA H/E/N
G    9 C1C L1C C1W C2W L2W C2L L2L C5Q L5Q                  SYS / # / OBS TYPES 
E    8 C1C L1C C5Q L5Q C7Q L7Q C8Q L8Q                      SYS / # / OBS TYPES 
R    8 C1C L1C C2P L2P C2C L2C C3Q L3Q                      SYS / # / OBS TYPES 
C   10 C1P L1P C5P L5P C2I L2I C7I L7I C6I L6I              SYS / # / OBS TYPES 
SEPTENTRIO RECEIVERS OUTPUT ALIGNED CARRIER PHASES.         COMMENT             
NO FURTHER PHASE SHIFT APPLIED IN THE RINEX ENCODER.        COMMENT             
G L1C                                                       SYS / PHASE SHIFT   
G L2W                                                       SYS / PHASE SHIFT   
G L2L  0.00000                                              SYS / PHASE SHIFT   
G L5Q  0.00000                                              SYS / PHASE SHIFT   
E L1C  0.00000                                              SYS / PHASE SHIFT   
E L5Q  0.00000                                              SYS / PHASE SHIFT   
E L7Q  0.00000                                              SYS / PHASE SHIFT   
E L8Q  0.00000                                              SYS / PHASE SHIFT   
R L1C                                                       SYS / PHASE SHIFT   
R L2P  0.00000                                              SYS / PHASE SHIFT   
R L2C                                                       SYS / PHASE SHIFT   
R L3Q  0.00000                                              SYS / PHASE SHIFT   
C L1P  0.00000                                              SYS / PHASE SHIFT   
C L5P  0.00000                                              SYS / PHASE SHIFT   
C L2I                                                       SYS / PHASE SHIFT   
C L7I                                                       SYS / PHASE SHIFT   
C L6I                                                       SYS / PHASE SHIFT   
     1.000                                                  INTERVAL            
  2026     5     4    11    23   55.0000000     GPS         TIME OF FIRST OBS   
  2026     5     4    11    25   38.0000000     GPS         TIME OF LAST OBS    
    42                                                      # OF SATELLITES     
 C1C    0.000 C2C    0.000 C2P    0.000                     GLONASS COD/PHS/BIS 
    18                                                      LEAP SECONDS        
  7 R04  6 R05  1 R12 -1 R14 -7 R18 -3 R19  3 R20  2        GLONASS SLOT / FRQ #
                                                            END OF HEADER       
> 2026 05 04 11 23 55.0000000  0 42
C01                                                                  37103927.501 7 193209894.01407                                  37103919.095 7 156998825.92107
C02                                                                  37992200.284 7 197835362.72407                                  37992179.984 6 160757349.25306
C03                                                                  36657355.745 7 190884476.19507                                  36657338.351 7 155109196.31407
C04                                                                  37998663.984 7 197869021.29507                                  37998646.920 6 160784711.92106
C06                                  36325650.009 7 142549652.83707  36325660.592 8 189157249.91008                                  36325651.373 7 153705719.49907
C07                                                                  37182854.108 7 193620888.12107                                  37182845.986 7 157332802.54107
C08                                                                  40301400.335 5 209859979.49805                                  40301407.621 5 170528456.14405
C09                                                                  37337726.227 7 194427342.43507  37337715.603 7 150343509.80107  37337719.256 6 157988111.41106
C10                                                                  38092345.796 7 198356863.37807  38092338.848 6 153382088.83006  38092339.879 6 161181182.76506
C13                                                                  23553219.894 7 122647796.38407                                  23553213.009 7  99661349.32107
C14                                                                  24676238.208 7 128495648.72107                                  24676221.527 6 104413166.01706
C21                                                                  26889522.973 5 140020806.76405                                  26889514.600 5 113778339.71505
C24                                                                  23571516.735 7 122743106.87207                                  23571509.620 7  99738806.58007
C26                                                                  24096950.438 7 125479151.48607                                  24096944.137 7 101962064.52507
C27                                                                  26141068.686 6 136123396.07206                                  26141061.699 6 110611389.66106
C28                                                                  23766485.741 7 123758331.66007                                  23766478.619 6 100563751.08306
C33                                  22960856.924 7  90103333.98607  22960841.603 7 119563130.63707                                  22960846.381 7  97154859.43307
C38                                                                  23778638.322 7 123821596.97607                                  23778635.379 6 100615168.61906
C41                                                                  26057055.177 6 135685939.12906                                  26057059.115 6 110255957.29306
C42                                  23392067.593 7                  23392066.431 7 121808631.27007                                  23392067.311 7  98979492.55107
E07  24362374.269 7 128025144.49707  24362368.087 7  95603162.99307  24362363.840 7  98097144.09807  24362367.913 8  96850161.08408
E08  28461199.163 6 149564609.78206  28461194.724 4 111687849.02004  28461191.253 5 114601426.39205  28461194.894 5 113144646.24705
E13  26166061.303 6 137503562.76806  26166070.202 6 102681244.78406  26166064.428 6 105359871.26206  26166068.827 7 104020563.06707
E19  26077303.864 5                  26077307.775 5 102332978.03305  26077302.137 6 105002515.82306  26077306.474 6 103667753.97406
E26  23216945.029 7 122005866.67207  23216937.388 7  91108245.08807  23216933.634 8  93484965.51208  23216937.299 8  92296615.83908
E29  23829533.562 7 125225046.11407  23829526.205 6  93512182.91006  23829522.385 7  95951615.54507  23829526.013 8  94731908.26408
E33  24761497.898 7 130122554.62207  24761490.326 6  97169410.21106  24761486.271 7  99704247.80107  24761490.245 7  98436838.54507
G05  22788306.546 6 119753350.28706  22788306.341 5  22788296.619 5  93314237.53805
G10  25301331.976 6 132959397.76106  25301331.686 4  25301343.102 4 103604730.30904
G15  20603214.697 7 108270618.86807  20603214.492 6  20603216.644 6  84366653.34006
G18  20606995.192 7 108290491.10107  20606995.161 5  20606997.486 5  84382132.80105                                  20606988.157 7  80866247.21407
G20  22600828.065 6 118768155.05206  22600827.972 4  22600827.971 4  92546540.82304
G21  24996378.682 5 131356827.97005  24996378.522 1  24996380.706 1 102355957.52101
G23  21883202.114 7 114997008.48607  21883201.989 4  21883208.982 4  89607990.11404                                  21883196.684 7  85874363.84207
G24  19947710.379 7 104825933.11707  19947710.210 7  19947716.623 7  81682483.07007                                  19947702.394 7  78279068.85407
R04  20505503.862 6 109806059.93706  20505489.209 7  85404643.52407  20505489.179 7  85404642.52107  20505473.920 7  82217189.67807
R05  22899855.998 5 122412896.60505  22899861.100 6  95210022.87306  22899861.219 6  95210042.83906  22899845.565 6  91817493.77006
R12  24461019.464 3                                                  24461008.080 4                  24460997.105 4  98076953.98004
R14  21912301.850 5 116804959.20205  21912314.868 7  90848320.38807  21912315.175 7  90848378.39007
R18  20966149.310 5 111918720.97705  20966155.690 7  87047905.55207  20966155.754 7  87047901.55907
R19  20088750.166 6 107461272.26106  20088736.379 7  83580930.20307  20088736.771 7  83580931.20607  20088763.451 7  80546375.46407
R20  23133501.700 5 123705276.18705  23133502.915 6  96215195.88906  23133503.754 6  96215193.90206  23133531.749 6  92754449.24706
> 2026 05 04 11 23 56.0000000  0 42
C01                                                                  37103996.632 7 193210253.61307                                  37103988.150 7 156999118.12407
C02                                                                  37992262.310 7 197835685.69007                                  37992241.974 6 160757611.70106
C03                                                                  36657420.709 7 190884814.49007                                  36657403.319 7 155109471.21907
C04                                                                  37998733.137 7 197869381.70107                                  37998716.137 6 160785004.78906
C06  36325642.736 7 190892541.40817  36325631.983 7 142549582.30907  36325642.611 8 189157156.32708                                  36325633.422 7 153705643.45107
C07  37182672.207 7 195396260.89017                                  37182671.756 7 193619937.91307                                  37182663.495 7 157332030.43407
C08                                                                  40301783.361 5 209861974.85305                                  40301790.761 5 170530077.48305
C09                                                                  37337687.022 7 194427138.75307  37337676.500 7 150343352.30307  37337680.124 6 157987945.91206
C10                                                                  38092151.857 7 198355854.22907  38092145.245 6 153381308.51706  38092145.946 6 161180362.75906
C13  23553551.615 7 123774749.89517                                  23553552.194 7 122649526.56107                                  23553545.321 7  99662755.23207
C14                                                                  24676626.517 7 128497670.91407                                  24676609.896 6 104414809.22106
C21                                                                  26889955.574 5 140023056.90605                                  26889946.927 5 113780168.16705
C24  23571171.664 7 123867342.82417                                  23571173.077 7 122741316.69907                                  23571165.784 7  99737351.92707
C26  24097049.164 6 126630846.15916                                  24097049.792 7 125479668.26007                                  24097043.344 7 101962484.46007
C27                                                                  26140763.853 6 136121809.02206                                  26140756.954 6 110610100.04806
C28                                                                  23766523.757 7 123758529.41007                                  23766516.624 6 100563911.77406
C33  22960760.572 7 120659611.88217  22960776.157 7  90103016.96207  22960760.814 7 119562709.98407                                  22960765.576 7  97154517.62307
C38                                                                  23779174.869 7 123824390.92707                                  23779171.937 6 100617438.92106
C41                                                                  26056774.996 6 135684481.00806                                  26056779.163 6 110254772.45106
C42  23392342.931 7 122927591.08917  23392344.744 7  91796585.70117  23392343.826 7 121810075.15307                                  23392344.544 7  98980665.83507
E07  24362746.404 7 128027100.31307  24362740.285 7  95604623.51807  24362736.059 7  98098642.71607  24362740.090 8  96851640.65308
E08  28461704.652 6 149567265.27206  28461699.909 4 111689832.00904  28461696.655 5 114603461.14705  28461700.210 5 113146655.13105
E13  26166662.222 6 137506720.65206  26166671.123 6 102683602.95406  26166665.472 6 105362290.93906  26166669.768 7 104022951.98907
E19  26077003.595 5                  26077007.409 5 102331799.70305  26077001.891 6 105001306.74706  26077006.159 6 103666560.26406
E26  23217165.929 7 122007027.61507  23217158.292 7  91109112.02807  23217154.529 8  93485855.07108  23217158.197 8  92297494.08908
E29  23829510.719 7 125224926.48207  23829503.396 6  93512093.58706  23829499.637 7  95951523.89107  23829503.230 8  94731817.77608
E33  24761213.507 7 130121059.69607  24761205.843 6  97168293.86706  24761201.798 7  99703102.34207  24761205.756 7  98435707.64607
G05  22788785.175 6 119755865.52706  22788784.965 5  22788775.037 5  93316197.46105
G10  25300885.649 6 132957052.60206  25300885.354 4  25300897.112 4 103602902.91104
G15  20603561.203 7 108272439.82507  20603560.998 6  20603563.423 6  84368072.26606
G18  20606999.289 7 108290512.61507  20606999.263 5  20607001.859 5  84382149.56505                                  20606992.351 7  80866263.29807
G20  22601339.590 6 118770843.80006  22601339.497 4  22601339.694 4  92548635.94504
G21  24996933.384 5 131359742.60605  24996933.179 1  24996935.384 1 102358228.71401
G23  21882819.362 7 114994997.15507  21882819.237 4  21882826.367 4  89606422.84404                                  21882813.935 7  85872861.88907
G24  19947561.061 7 104825148.02007  19947560.892 7  19947567.544 7  81681871.30707                                  19947552.889 7  78278482.58507
R04  20505532.656 6 109806214.52706  20505518.091 7  85404763.71807  20505518.030 7  85404762.75707  20505502.764 7  82217305.43307
R05  22899580.307 5 122411421.15005  22899585.178 6  95208875.35706  22899585.172 6  95208895.34406  22899569.608 6  91816387.13306
R12  24461571.182 3                                                  24461558.273 4                  24461546.196 4  98079156.00004
R14  21911776.338 5 116802156.18705                                  21911789.323 7  90846198.27407
R18  20966894.898 6 111922702.14006  20966901.485 7  87051002.05507  20966901.560 7  87050998.02507
R19  20088795.898 6 107461512.93906  20088781.381 7  83581117.39107  20088781.828 7  83581118.39107  20088808.462 7  80546555.89407
R20  23132934.790 5 123702238.54405  23132935.010 6  96212833.29106  23132935.649 6  96212831.28006  23132963.784 6  92752171.62306
> 2026 05 04 11 23 57.0000000  0 42
C01                                                                  37104065.893 7 193210613.68007                                  37104057.192 7 156999410.70007
C02                                                                  37992324.502 7 197836009.12307                                  37992304.058 6 160757874.51506
C03                                                                  36657485.838 7 190885153.26307                                  36657468.332 7 155109746.50007
C04                                                                  37998802.439 7 197869742.58407                                  37998785.344 6 160785298.03806
C06  36325624.563 7 190892447.40907  36325613.994 7 142549512.11507  36325624.907 8 189157063.17308                                  36325615.471 7 153705567.75807
C07  37182489.546 7 195395302.56807  37182480.860 6 145912041.35416  37182489.466 7 193618988.30107                                  37182481.107 7 157331258.79807
C08                                                                  40302166.598 5 209863970.59205                                  40302173.883 5 170531699.22005
C09                                                                  37337647.974 7 194426935.47907  37337637.645 7 150343195.12207  37337641.047 6 157987780.72606
C10                                                                  38091958.160 7 198354845.64707  38091951.534 6 153380528.60906  38091952.232 6 161179543.20706
C13  23553883.615 7 123776496.84307  23553874.848 6  92430463.23916  23553884.615 7 122651257.62807                                  23553877.779 7  99664161.86107
C14                                                                  24677015.073 7 128499693.62207                                  24676998.338 6 104416452.83806
C21                                                                  26890387.943 5 140025307.51105                                  26890379.018 5 113781996.94005
C24  23570827.948 7 123865537.01307  23570821.479 6  92496966.16916  23570829.601 7 122739527.30807                                  23570822.131 7  99735897.90307
C26  24097148.765 7 126631368.66407  24097140.517 6  94562354.60916  24097149.322 7 125480186.01707                                  24097142.695 7 101962905.17907
C27                                                                  26140459.415 6 136120222.82806                                  26140452.211 6 110608811.15206
C28  23766559.499 7 124894114.57217                                  23766561.792 7 123758728.13007                                  23766554.745 6 100564073.25106
C33  22960679.524 7 120659187.92307  22960695.454 7  90102700.36907  22960680.175 8 119562289.88108                                  22960684.850 7  97154176.25307
C38                                  23779709.720 6  93316691.41816  23779711.693 7 123827185.55707                                  23779708.575 6 100619709.77806
C41                                  26056502.755 6 102251314.68516  26056495.232 6 135683023.40206                                  26056499.121 6 110253588.04306
C42  23392620.498 7 122929048.73207  23392622.043 7  91797674.19307  23392621.333 7 121811519.54407                                  23392621.846 7  98981839.51407
E07  24363118.565 7 128029056.69607  24363112.590 7  95606084.44807  24363108.336 8  98100141.75708  24363112.335 8  96853120.63908
E08  28462210.033 6 149569921.12606  28462205.291 4 111691815.30704  28462201.983 5 114605496.16505  28462205.544 5 113148664.27205
E13  26167263.172 6 137509879.19306  26167272.066 6 102685961.60706  26167266.483 7 105364711.10507  26167270.777 7 104025341.39207
E19  26076703.263 5                  26076707.053 5 102330621.82405  26076701.687 6 105000098.14106  26076705.944 6 103665367.02206
E26  23217386.995 7 122008189.48307  23217379.381 7  91109979.66207  23217375.634 8  93486745.32208  23217379.256 8  92298373.02608
E29  23829488.054 7 125224807.56807  23829480.748 7  93512004.78007  23829477.029 8  95951432.76908  23829480.559 8  94731727.81108
E33  24760929.199 7 130119565.55907  24760921.542 6  97167178.13206  24760917.440 7  99701957.48207  24760921.396 7  98434577.34307
G05  22789263.822 6 119758381.51206  22789263.612 5  22789253.626 5  93318157.97405
G10  25300439.397 6 132954707.76206  25300439.107 4  25300451.121 4 103601075.76304
G15  20603907.738 7 108274261.47507  20603907.533 6  20603910.354 6  84369491.73506
G18  20607003.555 7 108290535.29107  20607003.529 5  20607006.474 5  84382167.24105  20606996.779 7  84382213.38117  20606996.635 7  80866280.22707
G20  22601851.294 6 118773533.04706  22601851.201 3  22601851.597 3  92550731.46603                                  22601845.519 6  88694496.50816
G21  24997487.721 5 131362657.86505  24997487.525 1  24997490.143 1 102360500.32801                                  24997500.211 5  98095559.01515
G23  21882436.689 7 114992986.37207  21882436.560 4  21882443.887 4  89604856.00304                                  21882431.285 7  85871360.33507
G24  19947411.875 7 104824364.07807  19947411.701 7  19947418.715 7  81681260.44707                                  19947403.591 7  78277897.17107
R04  20505561.466 6 109806369.74206  20505547.036 7  85404884.45607  20505547.003 7  85404883.47207  20505531.687 7  82217421.63507
R05  22899304.232 5 122409946.37805  22899309.158 6  95207728.28706  22899309.136 6  95207748.28406  22899293.696 6  91815280.94406
R12  24462121.742 3                                                  24462107.853 4                  24462095.477 4  98081358.71604
R14  21911250.594 5 116799354.03205  21911263.263 7  90843960.82107  21911263.592 7  90844018.83907
R18  20967640.513 5 111926684.26805  20967647.410 7  87054099.23007  20967647.519 7  87054095.21907
R19  20088841.776 6 107461754.97706  20088826.634 7  83581305.62807  20088826.753 7  83581306.64307  20088853.656 7  80546737.37307
R20  23132367.033 5 123699201.89805  23132367.105 6  96210471.39506  23132367.656 6  96210469.40606  23132395.903 6  92749894.68906
> 2026 05 04 11 23 58.0000000  0 42
C01                                                                  37104135.212 7 193210974.74207                                  37104126.547 7 156999704.10507
C02                                                                  37992386.791 7 197836333.56407                                  37992366.236 6 160758138.15506
C03                                                                  36657551.119 7 190885493.03807                                  36657533.515 7 155110022.59307
C04                                                                  37998872.057 7 197870104.47207                                  37998854.837 6 160785592.10406
C06  36325606.699 7 190892354.37207  36325596.152 7 142549442.63507  36325607.220 8 189156970.97708                                  36325597.674 7 153705492.84107
C07  37182307.265 7 195394345.37307  37182298.597 6 145911326.56506  37182307.247 7 193618039.80607                                  37182298.880 7 157330488.06907
C08                                                                  40302550.101 5 209865967.23605                                  40302557.225 5 170533321.66605
C09                                                                  37337609.131 7 194426733.11707  37337598.718 7 150343038.64707  37337602.106 6 157987616.30006
C10                                                                  38091764.860 7 198353838.15307  38091757.989 6 153379749.57206  38091758.567 6 161178724.53506
C13  23554216.107 7 123778245.24907  23554207.550 6  92431768.85606  23554217.365 7 122652990.12907                                  23554210.477 7  99665569.66607
C14  24677402.457 6 129680623.52016  24677413.245 6  96839471.58616  24677403.803 7 128501717.34007                                  24677386.994 6 104418097.27706
C21                                                                  26890820.328 5 140027559.09305                                  26890811.351 5 113783826.57305
C24  23570484.478 7 123863732.52407  23570478.010 6  92495618.66106  23570486.286 7 122737739.22307                                  23570478.705 7  99734444.95307
C26  24097248.527 7 126631892.71207  24097240.248 6  94562745.93106  24097249.059 7 125480705.28907                                  24097242.444 7 101963327.12907
C27                                  26140146.797 5 102579550.85215  26140155.147 6 136118638.03906                                  26140147.954 6 110607523.37406
C28  23766597.700 7 124894316.66007  23766591.710 6  93265211.47416  23766600.285 7 123758928.37907                                  23766593.088 6 100564235.96406
C33  22960598.914 7 120658765.04707  22960614.924 7  90102384.58107  22960599.817 8 119561870.84008                                  22960604.298 7  97153835.75407
C38                                  23780246.520 6  93318798.37306  23780248.582 7 123829981.39707                                  23780245.483 6 100621981.63106
C41                                  26056222.885 6 102250216.99606  26056215.703 6 135681566.79506                                  26056219.266 6 110252404.43406
C42  23392898.060 7 122930507.44307  23392899.565 7  91798763.49007  23392898.976 7 121812964.99007                                  23392899.397 7  98983014.05907
E07  24363490.981 7 128031014.17407  24363485.109 7  95607546.19807  24363480.840 8  98101641.64908  24363484.790 8  96854601.45908
E08  28462715.320 6 149572577.92106  28462710.957 4 111693799.24004  28462707.570 5 114607531.86405  28462711.114 6 113150674.08906
E13  26167864.379 6 137513038.93406  26167873.256 6 102688321.14706  26167867.767 7 105367132.20307  26167872.036 7 104027731.71007
E19  26076403.159 5                  26076406.985 5 102329444.86405  26076401.821 6 104998890.48106  26076405.938 6 103664174.71406
E26  23217608.308 7 122009352.80207  23217600.744 7  91110848.36707  23217596.973 8  93487636.70308  23217600.588 8  92299253.07008
E29  23829465.663 7 125224689.89207  23829458.344 6  93511916.91006  23829454.642 8  95951342.60808  23829458.116 8  94731638.79308
E33  24760645.030 7 130118072.74507  24760637.421 6  97166063.37006  24760633.384 7  99700813.64807  24760637.269 7  98433448.04307
G05  22789742.740 7 119760898.76307  22789742.535 5  22789732.479 5  93320119.48005
G10  25299993.510 6 132952363.84306  25299993.220 4  25300005.452 4 103599249.33404                                  25299987.927 5  99282586.75015
G15  20604254.585 7 108276084.35507  20604254.380 6  20604257.629 6  84370912.16406
G18  20607008.182 7 108290559.65307  20607008.151 5  20607011.509 5  84382186.22605  20606999.498 7  84382232.37407  20607001.187 7  80866298.42507
G20  22602363.127 7 118776223.34207  22602363.038 3  22602363.750 3  92552827.80903                                  22602357.354 6  88696505.48606
G21  24998042.631 5 131365574.31505  24998042.444 1  24998045.111 1 102362772.87801                                  24998055.292 5  98097736.86705
G23  21882054.235 7 114990976.66907  21882054.110 4  21882061.680 4  89603290.00404                                  21882048.787 7  85869859.58407
G24  19947262.982 7 104823581.82007  19947262.808 7  19947270.288 7  81680650.89907                                  19947254.614 7  78277313.02307
R04  20505590.621 6 109806526.11106  20505576.124 7  85405006.08607  20505576.185 7  85405005.09507  20505560.808 7  82217538.72507
R05  22899027.281 5 122408472.71005  22899033.470 6  95206582.12306  22899033.527 6  95206602.11606  22899017.917 6  91814175.61806
R12  24462669.936 3                                                  24462659.406 4                  24462645.027 4  98083562.63504
R14  21910725.439 5 116796553.24705  21910737.691 7  90841782.46907  21910738.313 7  90841840.47807
R18  20968386.678 5 111930667.85905  20968393.759 7  87057197.54707  20968393.908 7  87057193.58907
R19  20088887.878 6 107461998.91306  20088872.133 7  83581495.37207  20088872.343 7  83581496.37607  20088899.227 7  80546920.28407
R20  23131800.334 5 123696166.69605  23131799.446 6  96208110.69506  23131800.575 6  96208108.71106  23131828.282 6  92747618.90406
> 2026 05 04 11 23 59.0000000  0 42
C01                                                                  37104204.813 7 193211336.88407                                  37104196.090 7 156999998.36507
C02                                                                  37992449.296 7 197836659.07607                                  37992428.785 6 160758402.65706
C03                                                                  36657616.687 7 190885833.88907                                  36657598.899 7 155110299.55707
C04                                                                  37998941.797 7 197870467.43807                                  37998924.465 6 160785887.03906
C06  36325589.054 7 190892262.37807  36325579.864 7 142549373.94707  36325589.811 8 189156879.82708                                  36325580.115 7 153705418.76907
C07  37182125.248 7 195393389.39107  37182116.669 6 145910612.69106  37182125.434 7 193617092.52007                                  37182116.916 7 157329718.31707
C08                                                                  40302933.528 5 209867964.88005                                  40302940.795 5 170534944.89905
C09                                                                  37337570.521 7 194426531.76607  37337560.056 7 150342882.95207  37337563.367 6 157987452.69406
C10                                                                  38091571.773 7 198352831.82907  38091564.511 6 153378971.43206  38091565.269 6 161177906.83206
C13  23554548.876 7 123779995.15007  23554540.525 6  92433075.61006  23554550.438 7 122654724.13507                                  23554543.425 7  99666978.67307
C14  24677791.225 6 129682666.92306  24677801.910 6  96840997.50306  24677792.686 7 128503742.17307                                  24677775.779 6 104419742.60806
C21                                                                  26891252.994 5 140029811.74205                                  26891243.745 5 113785657.01805
C24  23570141.370 7 123861929.42707  23570134.853 6  92494272.20606  23570143.236 7 122735952.51507                                  23570135.517 7  99732993.10907
C26  24097348.548 7 126632418.35907  24097340.278 6  94563138.46706  24097349.054 7 125481226.17207                                  24097342.409 7 101963750.38707
C27                                  26139842.736 5 102578357.64705  26139851.362 6 136117054.69806                                  26139843.885 6 110606236.77606
C28  23766636.487 7 124894520.33807  23766630.465 6  93265363.58206  23766639.078 7 123759130.21707                                  23766631.833 6 100564399.98506
C33  22960518.617 7 120658343.31007  22960535.784 7  90102069.66607  22960519.567 7 119561452.94907                                  22960524.072 7  97153496.18407
C38  23780783.596 6 124968855.53716  23780783.652 6  93320906.30306  23780785.911 7 123832778.54507                                  23780782.607 6 100624254.51906
C41                                  26055943.328 6 102249120.10006  26055936.269 6 135680111.27406                                  26055939.634 6 110251221.70906
C42  23393175.900 7 122931967.28207  23393178.670 7  91799853.64507  23393176.809 7 121814411.55807                                  23393177.097 7  98984189.50907
E07  24363863.648 7 128032972.82507  24363857.802 7  95609008.83507  24363853.562 8  98103142.43908  24363857.486 8  96856083.17008
E08  28463220.866 6 149575235.69506  28463216.668 4 111695783.93904  28463213.312 6 114609568.33206  28463216.859 6 113152684.67906
E13  26168465.920 6 137516199.95706  26168474.860 6 102690681.63606  26168469.289 6 105369554.27506  26168473.549 7 104030122.99107
E19  26076103.739 5                  26076107.173 5 102328268.83205  26076102.068 6 104997683.75006  26076106.241 6 103662983.32606
E26  23217829.962 7 122010517.63907  23217822.392 7  91111718.20907  23217818.635 8  93488529.24208  23217822.220 8  92300134.26208
E29  23829443.528 7 125224573.54307  23829436.190 6  93511830.02506  23829432.550 8  95951253.45408  23829435.941 8  94731550.77608
E33  24760361.122 7 130116581.34507  24760353.563 6  97164949.66406  24760349.587 7  99699670.88907  24760353.433 7  98432319.81007
G05  22790221.900 7 119763417.38507  22790221.695 5  22790211.537 5  93322082.04705  22790215.785 6  93322136.95916
G10  25299547.671 6 132950020.86406  25299547.376 4  25299559.940 4 103597423.64404  25299542.679 5 103597398.82715  25299542.079 5  99280837.10305
G15  20604601.657 7 108277908.53407  20604601.452 6  20604605.132 6  84372333.60006
G18  20607013.071 7 108290585.78407  20607013.040 5  20607016.848 5  84382206.58705  20607003.871 7  84382252.72007  20607007.097 7  80866317.94607
G20  22602875.208 6 118778914.74406  22602875.115 3  22602876.019 3  92554925.01503  22602866.378 6  92554963.09116  22602869.444 6  88698515.29506
G21  24998597.916 5 131368491.94405  24998597.724 1  24998600.317 1 102365046.33801                                  24998610.663 5  98099915.63705
G23  21881672.010 7 114988968.12107  21881671.881 4  21881679.790 4  89601724.90504  21881662.722 6  89601750.10316  21881667.439 7  85868359.70407
G24  19947114.436 7 104822801.35307  19947114.262 7  19947122.229 7  81680042.74307                                  19947107.069 7  78276730.21707
R04  20505619.995 6 109806683.73006  20505605.578 7  85405128.68707  20505605.465 7  85405127.69007  20505590.185 7  82217656.74307
R05  22898751.849 5 122407000.22305  22898758.013 6  95205436.88506  22898757.762 6  95205456.89806  22898742.327 6  91813071.19106
R12  24463219.252 3                                                  24463209.384 4                  24463194.789 4  98085767.83504
R14  21910199.617 5 116793753.91405  21910212.454 7  90839605.24007  21910213.184 7  90839663.26007
R18  20969132.494 5 111934652.98805  20969140.234 7  87060297.10307  20969140.334 7  87060293.11507
R19  20088934.582 6 107462244.82506  20088918.065 7  83581686.63007  20088918.409 7  83581687.63107  20088945.133 7  80547104.67907
R20  23131235.018 5 123693133.11905  23131232.117 7  96205751.22507  23131232.959 6  96205749.24306  23131260.948 6  92745344.30906
> 2026 05 04 11 24  0.0000000  0 42
C01                                                                  37104274.624 7 193211700.14407                                  37104265.842 7 157000293.54907
C02                                                                  37992512.167 7 197836985.72707                                  37992491.544 6 160758668.08506
C03                                                                  36657682.464 7 190886175.87107                                  36657664.574 7 155110577.45007
C04                                                                  37999011.840 7 197870831.53707                                  37998994.258 6 160786182.91706
C06  36325571.805 7 190892171.47907  36325562.634 7 142549306.07707  36325572.527 8 189156789.75408                                  36325562.772 7 153705345.57907
C07  37181943.616 7 195392434.68007  37181936.170 6 145909899.77106  37181943.790 7 193616146.47707                                  37181935.171 7 157328949.59607
C08                                                                  40303317.125 5 209869963.54305                                  40303324.713 5 170536569.01405
C09                                                                  37337532.003 7 194426331.44307  37337521.511 7 150342728.05607  37337524.912 6 157987289.90306
C10                                                                  38091378.917 7 198351826.72707  38091371.494 6 153378194.22306  38091372.262 6 161177090.08906
C13  23554882.113 7 123781746.64807  23554873.764 6  92434383.54506  23554883.811 7 122656459.69607                                  23554876.637 7  99668388.96607
C14  24678180.283 6 129684711.49206  24678191.071 6  96842524.29706  24678181.868 7 128505768.14207                                  24678164.770 6 104421388.87406
C21                                                                  26891685.927 5 140032065.49405                                  26891676.555 5 113787488.34505
C24  23569798.314 7 123860127.77507  23569792.045 6  92492926.84006  23569800.433 7 122734167.25207                                  23569792.631 7  99731542.44707
C26  24097448.218 6 126632945.69006  24097440.670 6  94563532.24406  24097449.438 7 125481748.69107                                  24097442.755 7 101964174.99007
C27  26139542.348 6 137364221.00816  26139538.943 5 102577165.57905  26139547.769 6 136115472.89206                                  26139539.926 6 110604951.41206
C28  23766675.600 6 124894725.69306  23766669.485 6  93265516.92306  23766678.202 7 123759333.70407                                  23766670.808 6 100564565.33006
C33  22960438.579 7 120657922.79207  22960455.810 7  90101755.64007  22960439.562 7 119561036.25007                                  22960443.979 7  97153157.57507
C38  23781320.973 6 124971679.69206  23781321.185 6  93323015.23106  23781323.468 7 123835577.02407                                  23781319.956 6 100626528.50406
C41                                  26055663.946 6 102248024.08406  26055657.002 6 135678656.89506                                  26055660.181 6 110250039.91106
C42  23393453.642 7 122933428.31207  23393456.732 7  91800944.67107  23393454.807 7 121815859.30707                                  23393455.101 7  98985365.92307
E07  24364236.571 7 128034932.70507  24364230.754 7  95610472.38307  24364226.504 7  98104644.16507  24364230.429 8  96857565.80808
E08  28463726.792 6 149577894.46606  28463722.866 4 111697769.40904  28463719.217 5 114611605.60605  28463722.761 6 113154696.04206
E13  26169067.605 6 137519362.30606  26169076.663 6 102693043.12406  26169071.052 6 105371977.36606  26169075.314 7 104032515.28107
E19  26075804.001 5                  26075807.770 5 102327093.79405  26075802.725 6 104996478.04906  26075806.785 6 103661792.95906
E26  23218051.923 7 122011684.06607  23218044.395 7  91112589.24607  23218040.566 8  93489423.00008  23218044.164 8  92301016.65908
E29  23829421.680 7 125224458.56207  23829414.317 6  93511744.17306  23829410.672 8  95951165.36108  23829414.044 8  94731463.80208
E33  24760077.518 7 130115091.38607  24760069.991 6  97163837.03806  24760066.014 7  99698529.23207  24760069.896 7  98431192.67107
G05  22790701.473 6 119765937.39006  22790701.268 5  22790690.850 5  93324045.68805  22790695.327 6  93324100.60906
G10  25299101.995 6 132947678.87106  25299101.700 4  25299114.683 4 103595598.71604  25299097.100 5 103595573.90305  25299096.316 5  99279088.22905
G15  20604949.050 7 108279734.06607  20604948.845 6  20604952.872 6  84373756.09406  20604939.059 6  84373776.25816
G18  20607018.330 7 108290613.73707  20607018.299 5  20607022.509 5  84382228.36605  20607008.830 7  84382274.50907  20607012.485 7  80866338.81607
G20  22603387.562 6 118781607.30806  22603387.473 3  22603388.413 3  92557023.11603  22603379.125 6  92557061.19706  22603381.825 6  88700525.98006
G21  24999153.533 5 131371410.85105  24999153.341 1  24999155.755 1 102367320.80101                                  24999166.159 5  98102095.36405
G23  21881289.830 7 114986960.77807  21881289.701 4  21881298.119 4  89600160.74304  21881280.724 6  89600185.91906  21881285.359 7  85866860.71407
G24  19946966.249 7 104822022.70307  19946966.080 6  19946974.486 6  81679436.00306  19946958.366 6  81679473.19616  19946958.912 7  78276148.75607
R04  20505650.112 6 109806842.66106  20505635.234 7  85405252.25907  20505635.347 7  85405251.28007  20505619.797 7  82217775.73507
R05  22898475.944 5 122405529.04805  22898482.749 6  95204292.64606  22898482.730 6  95204312.65606  22898466.938 6  91811967.71806
R12  24463769.718 3                                                  24463759.997 4                  24463744.905 4  98087974.29904
R14  21909675.618 5 116790956.12605  21909687.486 7  90837429.19707  21909688.135 7  90837487.25207
R18  20969879.477 5 111938639.71905  20969887.094 7  87063397.89307  20969887.180 7  87063393.88307
R19  20088981.130 6 107462492.78206  20088964.306 7  83581879.46207  20088964.759 7  83581880.47507  20088991.448 7  80547290.60807
R20  23130669.172 5 123690101.14405  23130665.017 7  96203393.02007  23130665.632 6  96203391.02906  23130693.895 6  92743070.93406
> 2026 05 04 11 24  1.0000000  0 42
C01                                                                  37104344.641 7 193212064.33607                                  37104335.770 7 157000589.48707
C02                                                                  37992575.002 7 197837313.30507                                  37992554.491 6 160758934.26506
C03                                                                  36657748.340 7 190886518.78507                                  36657730.414 7 155110856.08307
C04                                                                  37999081.875 7 197871196.56707                                  37999064.320 6 160786479.53506
C06  36325554.642 7 190892081.48207  36325545.525 7 142549238.85907  36325555.397 8 189156700.57708                                  36325545.647 7 153705273.11707
C07  37181762.082 7 195391481.01507  37181754.700 6 145909187.63006  37181762.320 7 193615201.48907                                  37181753.674 7 157328181.70807
C08                                                                  40303701.145 5 209871963.01305                                  40303708.956 5 170538193.80105
C09                                                                  37337493.655 7 194426131.95207  37337483.096 7 150342573.79907  37337486.527 6 157987127.79906
C10                                                                  38091186.083 7 198350822.65007  38091178.531 6 153377417.81206  38091179.431 6 161176274.22406
C13  23555215.663 7 123783499.51507  23555208.649 6  92435692.50706  23555217.395 7 122658196.63307                                  23555210.158 7  99669800.36207
C14  24678569.542 6 129686757.01806  24678580.285 6  96844051.79206  24678571.242 7 128507795.07407                                  24678554.059 6 104423035.91606
C21                                                                  26892118.823 5 140034320.15505                                  26892109.496 5 113789320.48705
C24  23569455.758 7 123858327.37807  23569450.312 6  92491582.40906  23569457.715 7 122732383.21007                                  23569449.991 7  99730092.77407
C26  24097548.895 6 126633474.46006  24097542.608 6  94563927.13106  24097550.138 7 125482272.66507                                  24097543.337 7 101964600.74507
C27  26139238.774 6 137362626.02006  26139237.601 5 102575974.51905  26139244.238 6 136113892.39406                                  26139236.278 6 110603667.12106
C28  23766715.149 6 124894932.50906  23766708.808 6  93265671.36006  23766717.648 7 123759538.63007                                  23766710.172 6 100564731.85306
C33  22960358.705 7 120657503.27807  22960375.935 7  90101442.37607  22960359.726 7 119560620.55007                                  22960364.124 7  97152819.77707
C38  23781858.667 6 124974505.00706  23781860.066 6  93325125.03806  23781861.181 7 123838376.65307                                  23781857.611 6 100628803.43206
C41  26055376.888 6 136921917.67916  26055386.593 6 102246928.79606  26055377.956 6 135677203.47506                                  26055381.125 6 110248858.87206
C42  23393731.901 7 122934890.32707  23393734.902 7  91802036.43207  23393733.021 7 121817308.02607                                  23393733.297 7  98986543.12207
E07  24364609.731 7 128036893.59507  24364603.946 7  95611936.68507  24364599.604 7  98106146.67107  24364603.559 8  96859049.21308
E08  28464232.806 6 149580554.08906  28464228.975 4 111699755.47404  28464225.312 5 114613643.49705  28464228.810 6 113156708.03006
E13  26169669.498 6 137522525.78006  26169678.705 6 102695405.44706  26169673.021 6 105374401.31406  26169677.301 7 104034908.41707
E19  26075504.680 5                  26075508.479 5 102325919.59405  26075503.407 6 104995273.22206  26075507.504 6 103660603.44606
E26  23218274.184 7 122012851.88207  23218266.612 7  91113461.31407  23218262.789 8  93490317.81408  23218266.381 8  92301900.10208
E29  23829399.966 7 125224344.75407  23829392.658 6  93511659.18906  23829389.002 7  95951078.16007  23829392.370 8  94731377.70908
E33  24759794.186 7 130113602.69507  24759786.749 6  97162725.34906  24759782.688 7  99697388.54707  24759786.592 7  98430066.48407
G05  22791181.215 6 119768458.62406  22791181.010 5  22791170.405 5  93326010.28705  22791175.328 6  93326065.26606
G10  25298656.420 6 132945337.69806  25298656.125 4  25298669.519 4 103593774.43404  25298651.695 5 103593749.59305  25298650.782 5  99277339.95305
G15  20605296.682 7 108281560.75007  20605296.477 6  20605300.827 6  84375179.48206  20605286.455 6  84375199.65306
G18  20607023.918 7 108290643.30407  20607023.887 5  20607028.474 5  84382251.40405  20607015.020 7  84382297.54507  20607018.093 7  80866360.90207
G20  22603900.167 6 118784300.84606  22603900.083 3  22603900.874 3  92559121.97203  22603891.403 6  92559160.04806  22603895.266 6  88702537.38906
G21  24999709.175 5 131374330.88005  24999708.983 1  24999711.403 1 102369596.10401                                  24999721.919 5  98104275.87405
G23  21880908.020 7 114984954.43707  21880907.891 4  21880916.618 4  89598597.36604  21880898.968 6  89598622.55906  21880903.503 7  85865362.48007
G24  19946818.381 7 104821245.67207  19946818.207 6  19946827.034 6  81678830.52506  19946810.753 6  81678867.72506  19946811.093 7  78275568.51307
R04  20505680.080 6 109807002.69206  20505665.122 7  85405376.73307  20505665.246 7  85405375.74307  20505649.643 7  82217895.55207
R05  22898200.102 5 122404058.91205  22898207.731 6  95203149.20106  22898207.631 6  95203169.21406  22898191.939 6  91810865.04706
R12  24464320.126 3                                                  24464309.649 4                  24464295.729 4  98090181.96304
R14  21909150.348 5 116788159.60105  21909162.817 7  90835254.16907  21909163.519 7  90835312.19307
R18  20970627.261 5 111942627.89105  20970634.172 7  87066499.78107  20970634.256 7  87066495.77207
R19  20089028.008 6 107462742.52306  20089010.990 7  83582073.74207  20089011.607 7  83582074.72207  20089038.085 7  80547477.88707
R20  23130104.472 5 123687070.63805  23130098.279 6  96201035.99906  23130098.783 6  96201033.95406  23130127.146 6  92740798.66006
> 2026 05 04 11 24  2.0000000  0 42
C01                                                                  37104414.707 7 193212429.18407                                  37104405.791 7 157000885.95907
C02                                                                  37992638.003 7 197837641.53707                                  37992617.478 6 160759201.00306
C03                                                                  36657814.306 7 190886862.35207                                  36657796.424 7 155111135.27707
C04                                                                  37999152.124 7 197871562.25407                                  37999134.537 6 160786776.65806
C06  36325537.597 7 190891992.11007  36325528.481 7 142549172.12807  36325538.409 8 189156612.02508                                  36325528.592 7 153705201.16407
C07  37181580.726 7 195390528.14207  37181573.292 6 145908476.07506  37181580.999 7 193614257.27507                                  37181572.302 7 157327414.46607
C08                                                                  40304085.456 5 209873963.12305                                  40304093.196 5 170539818.99805
C09                                                                  37337455.584 7 194425933.05907  37337444.979 7 150342420.00007  37337448.363 6 157986966.18606
C10                                                                  38090993.452 7 198349819.31707  38090985.652 6 153376641.98806  38090986.811 6 161175458.93506
C13  23555549.352 7 123785253.46207  23555542.381 6  92437002.26506  23555551.204 7 122659934.63607                                  23555543.921 7  99671212.64407
C14  24678959.009 6 129688803.23406  24678972.458 6  96845579.82906  24678960.703 7 128509822.68507                                  24678943.409 6 104424683.50606
C21                                                                  26892551.961 5 140036575.48205                                  26892542.628 5 113791153.11105
C24  23569113.230 7 123856527.94507  23569107.825 6  92490238.68606  23569115.203 7 122730600.14007                                  23569107.634 7  99728643.88607
C26  24097649.735 7 126634004.42507  24097643.421 6  94564322.87306  24097650.938 7 125482797.80807                                  24097644.175 6 101965027.47706
C27  26138935.598 6 137361032.08906  26138934.158 5 102574784.26805  26138940.824 6 136112312.94906                                  26138933.003 6 110602383.71506
C28  23766754.720 7 124895140.49807  23766749.861 6  93265826.69306  23766757.279 7 123759744.73507                                  23766749.759 6 100564899.32906
C33  22960278.968 7 120657084.49407  22960296.252 7  90101129.64907  22960280.034 8 119560205.57708                                  22960284.457 7  97152482.59407
C38  23782396.622 6 124977331.21306  23782397.650 6  93327235.52106  23782398.924 7 123841177.15407                                  23782395.423 6 100631079.07006
C41  26055097.872 6 136920451.59706  26055107.616 6 102245833.98806  26055098.966 6 135675750.70506                                  26055102.058 6 110247678.40406
C42  23394010.305 7 122936353.05307  23394013.236 7  91803128.73107  23394011.375 7 121818757.45207                                  23394011.607 7  98987720.90607
E07  24364983.091 7 128038855.25607  24364977.178 7  95613401.56007  24364972.890 7  98107649.75807  24364976.841 8  96860533.19108
E08  28464739.024 6 149583214.25906  28464734.947 4 111701742.03004  28464731.505 5 114615681.80505  28464735.029 6 113158720.45306
E13  26170271.714 6 137525690.08906  26170280.802 6 102697768.41406  26170275.124 6 105376825.92606  26170279.441 7 104037302.20507
E19  26075205.850 5                  26075209.642 5 102324746.03805  26075204.107 6 104994069.03706  26075208.428 6 103659414.57406
E26  23218496.592 7 122014020.78607  23218489.058 7  91114334.19307  23218485.213 8  93491213.47008  23218488.813 8  92302784.36608
E29  23829378.483 7 125224231.85407  23829371.171 6  93511574.88706  23829367.491 7  95950991.65307  23829370.888 8  94731292.29908
E33  24759511.085 7 130112114.98307  24759503.644 6  97161614.39906  24759499.536 7  99696248.61807  24759503.471 7  98428941.04107
G05  22791661.242 6 119770980.77106  22791661.037 5  22791650.139 5  93327975.59505  22791655.514 6  93328030.50206
G10  25298210.861 6 132942997.04906  25298210.562 4  25298224.476 4 103591950.55504  25298206.152 5 103591925.77305  25298205.905 5  99275592.10205
G15  20605644.515 7 108283388.31007  20605644.310 6  20605648.929 6  84376603.55206  20605634.195 6  84376623.72006
G18  20607029.834 7 108290674.21707  20607029.803 5  20607034.663 5  84382275.49105  20607020.771 7  84382321.64707  20607023.995 7  80866383.98507
G20  22604412.842 6 118786995.06006  22604412.758 3  22604413.515 3  92561221.36403  22604404.129 6  92561259.45106  22604407.903 6  88704549.30506
G21  25000265.064 5 131377251.70605  25000264.868 1  25000267.163 1 102371872.07501                                  25000277.829 5  98106457.00605
G23  21880526.333 7 114982948.83007  21880526.204 4  21880535.211 4  89597034.56104  21880517.333 6  89597059.73306  21880521.837 7  85863864.79107
G24  19946670.730 7 104820469.99707  19946670.556 6  19946679.829 6  81678226.10306  19946663.011 6  81678263.29906  19946663.476 7  78274989.27407
R04  20505710.315 6 109807163.54606  20505695.136 7  85405501.83207  20505695.340 7  85405500.86607  20505679.630 7  82218015.99807
R05  22897924.758 5 122402589.60405  22897932.905 6  95202006.44306  22897932.843 6  95202026.44606  22897917.103 6  91809762.97206
R12  24464872.796 3                                                  24464859.015 4                  24464846.661 4  98092390.56104
R14  21908625.700 5 116785364.13505  21908638.470 7  90833079.95407  21908638.873 7  90833137.95107
R18  20971374.343 5 111946617.14105  20971381.501 7  87069602.52007  20971381.417 7  87069598.58407
R19  20089074.650 6 107462993.84106  20089057.960 7  83582269.20807  20089058.636 7  83582270.19807  20089085.020 7  80547666.33407
R20                                  23129531.895 6  96198679.79106  23129532.542 6  96198677.82906  23129560.605 6  92738527.25006
> 2026 05 04 11 24  3.0000000  0 42
C01                                                                  37104484.978 7 193212795.13107                                  37104476.067 7 157001183.32607
C02                                                                  37992701.285 7 197837970.88207                                  37992680.765 6 160759468.61306
C03                                                                  36657880.562 7 190887207.03207                                  36657862.653 7 155111415.35807
C04                                                                  37999222.592 7 197871929.04907                                  37999204.988 6 160787074.72906
C06  36325520.728 7 190891903.81407  36325511.660 7 142549106.20007  36325521.587 8 189156524.52308                                  36325511.823 7 153705130.06407
C07  37181399.653 7 195389576.50707  37181392.169 6 145907765.43706  37181399.851 7 193613314.29307                                  37181391.153 7 157326648.22907
C08                                                                  40304469.829 5 209875964.17105                                  40304477.262 5 170541445.03505
C09                                                                  37337417.674 7 194425735.18207  37337407.034 7 150342266.99307  37337410.342 6 157986805.41206
C10                                                                  38090801.173 7 198348817.17607  38090793.257 6 153375867.07506  38090794.393 6 161174644.62406
C13  23555883.332 7 123787008.97007  23555876.528 6  92438313.20106  23555885.279 7 122661674.17807                                  23555877.986 7  99672626.16307
C14  24679348.661 6 129690850.58006  24679362.068 6  96847108.67706  24679350.188 7 128511851.41607                                  24679332.948 6 104426332.03906
C21                                                                  26892984.708 5 140038831.89405                                  26892976.048 5 113792986.60705
C24  23568771.060 7 123854729.92407  23568765.579 6  92488896.03506  23568772.979 7 122728818.46507                                  23568765.449 7  99727196.15607
C26  24097751.015 7 126634536.02107  24097744.449 6  94564719.87206  24097752.015 7 125483324.56207                                  24097745.299 7 101965455.52607
C27  26138632.664 6 137359439.65206  26138631.169 5 102573595.11305  26138637.684 6 136110734.99406                                  26138629.916 6 110601101.52006
C28  23766794.560 7 124895350.12607  23766789.819 6  93265983.24406  23766797.313 7 123759952.45607                                  23766789.698 6 100565068.12706
C33  22960199.472 7 120656666.90007  22960216.859 7  90100817.81207  22960200.616 8 119559791.77508                                  22960204.979 7  97152146.35007
C38  23782934.655 6 124980158.73406  23782935.729 6  93329346.98506  23782937.089 7 123843978.97407                                  23782933.513 6 100633355.78306
C41  26054819.241 6 136918986.63506  26054828.789 6 102244740.03906  26054820.211 6 135674299.05806                                  26054823.394 6 110246498.83306
C42  23394288.946 7 122937816.92307  23394291.801 7  91804221.88407  23394289.784 7 121820208.02407                                  23394290.151 7  98988899.61807
E07  24365356.676 7 128040818.10807  24365350.764 7  95614867.32007  24365346.390 7  98109153.75507  24365350.373 8  96862018.07208
E08  28465245.454 6 149585875.43906  28465241.256 4 111703729.25904  28465237.719 5 114617720.89305  28465241.391 5 113160733.61505
E13  26170874.085 6 137528855.72506  26170883.320 6 102700132.33906  26170877.505 6 105379251.52206  26170881.854 7 104039696.96807
E19  26074907.021 5                  26074910.802 5 102323573.37605  26074905.359 6 104992865.81306  26074909.577 6 103658226.64106
E26  23218719.297 7 122015191.24907  23218711.763 7  91115208.24307  23218707.934 8  93492110.31908  23218711.558 8  92303669.81708
E29  23829357.271 7 125224120.29007  23829349.881 6  93511491.57706  23829346.229 7  95950906.17107  23829349.666 8  94731207.90608
E33  24759228.263 7 130110628.70507  24759220.835 6  97160504.50606  24759216.676 7  99695109.78007  24759220.650 7  98427816.68007
G05  22792141.568 6 119773504.32706  22792141.363 5  22792130.132 5  93329942.00105  22792135.865 6  93329996.90106
G10  25297765.614 6 132940657.40906  25297765.310 3  25297779.586 3 103590127.46403  25297761.769 5 103590102.64705  25297760.661 5  99273844.96805
G15  20605992.576 7 108285217.20507  20605992.366 6  20605997.291 6  84378028.66306  20605983.318 6  84378048.81906
G18  20607036.049 7 108290706.91807  20607036.023 5  20607041.218 5  84382300.97105  20607026.990 7  84382347.12207  20607030.241 7  80866408.41607
G20  22604925.835 6 118789690.44006  22604925.751 3  22604926.454 3  92563321.66503  22604918.195 6  92563359.71006  22604920.822 6  88706562.08906
G21  25000821.364 5 131380173.81005  25000821.141 1  25000823.187 1 102374148.95501                                  25000834.072 5  98108639.06005
G23  21880144.882 7 114980944.40707  21880144.757 4  21880153.934 4  89595472.67704  21880136.636 6  89595497.86506  21880140.433 7  85862367.98207
G24  19946523.389 7 104819696.11707  19946523.215 6  19946532.949 6  81677623.08006  19946517.049 6  81677660.27806  19946516.182 7  78274411.38807
R04  20505740.521 6 109807325.68506  20505725.391 7  85405627.95207  20505725.778 7  85405626.98807  20505709.895 7  82218137.39807
R05  22897649.478 5 122401121.57605  22897658.285 6  95200864.63706  22897658.012 6  95200884.64006  22897642.472 6  91808661.85506
R12  24465421.835 3                                                  24465411.448 4                  24465397.901 4  98094600.37304
R14  21908100.843 5 116782570.10705  21908114.297 7  90830906.84007  21908114.488 7  90830964.84507
R18  20972122.572 5 111950608.02905  20972128.986 6  87072706.53006  20972129.041 6  87072702.54806
R19  20089121.695 6 107463247.15606  20089105.328 7  83582466.22007  20089105.874 7  83582467.22607  20089132.424 7  80547856.27007
R20                                  23128965.671 6  96196324.91406  23128966.219 6  96196322.91906  23128994.372 6  92736257.05206
> 2026 05 04 11 24  4.0000000  0 42
C01                                                                  37104555.429 7 193213162.31907                                  37104546.647 7 157001481.69607
C02                                                                  37992764.782 7 197838301.46707                                  37992744.204 6 160759737.24706
C03                                                                  36657946.992 7 190887552.94907                                  36657929.084 7 155111696.45307
C04                                                                  37999293.351 7 197872297.08407                                  37999275.809 6 160787373.79906
C06  36325504.115 7 190891816.72907  36325495.070 7 142549041.16607  36325505.028 8 189156438.22408                                  36325495.288 7 153705059.94207
C07  37181218.813 7 195388626.24907  37181211.370 6 145907055.84106  37181218.972 7 193612372.66807                                  37181210.325 7 157325883.07607
C08  40304854.044 5 211803459.57115                                  40304854.288 5 209877966.38105                                  40304861.894 5 170543072.02705
C09                                                                  37337379.922 7 194425538.46707  37337369.156 7 150342114.88407  37337372.584 6 157986645.55606
C10                                                                  38090608.893 7 198347816.36807  38090601.011 6 153375093.20306  38090602.250 6 161173831.41406
C13  23556217.702 7 123788766.15807  23556210.912 6  92439625.39006  23556219.613 7 122663415.39307                                  23556212.474 7  99674041.04207
C14  24679738.601 6 129692899.20606  24679751.839 6  96848638.50906  24679740.090 7 128513881.42007                                  24679722.884 6 104427981.56806
C21                                                                  26893418.271 5 140041089.52405                                  26893409.656 5 113794821.10505
C24  23568429.200 7 123852933.48307  23568423.688 6  92487554.53606  23568431.047 7 122727038.35907                                  23568423.529 7  99725749.68207
C26  24097852.505 7 126635069.38407  24097845.944 6  94565118.16506  24097853.330 7 125483853.07707                                  24097846.820 6 101965884.99006
C27  26138330.675 6 137357848.87406  26138328.616 5 102572407.21105  26138334.912 6 136109158.67906                                  26138327.191 5 110599820.63705
C28  23766834.726 7 124895561.52907  23766829.964 6  93266141.10906  23766837.387 7 123760161.92707                                  23766829.862 6 100565238.33906
C33  22960120.203 7 120656250.61407  22960137.709 7  90100506.95507  22960121.409 7 119559379.27707                                  22960125.751 7  97151811.16007
C38  23783472.971 6 124982987.72406  23783474.071 6  93331459.52006  23783475.502 7 123846782.24807                                  23783471.900 6 100635633.66006
C41  26054540.525 6 136917522.91806  26054550.225 6 102243647.03406  26054541.586 6 135672848.67006                                  26054544.966 6 110245320.27006
C42  23394567.743 7 122939282.11007  23394570.668 7  91805316.02007  23394568.621 7 121821659.88707                                  23394568.939 7  98990079.37307
E07  24365730.410 7 128042782.29407  24365724.591 7  95616334.09107  24365720.149 7  98110658.78407  24365724.147 8  96863503.97308
E08  28465752.137 6 149588537.74706  28465747.836 4 111705717.38204  28465744.305 5 114619760.85605  28465747.995 5 113162747.65805
E13  26171476.755 6 137532022.78806  26171486.115 6 102702497.33506  26171480.171 6 105381678.22006  26171484.530 7 104042092.81407
E19  26074608.442 5                  26074612.662 5 102322401.83805  26074606.846 6 104991663.68206  26074611.042 6 103657039.79806
E26  23218942.302 7 122016363.40307  23218934.887 7  91116083.55407  23218930.988 8  93493008.46508  23218934.607 8  92304556.54708
E29  23829336.326 7 125224010.21807  23829329.025 6  93511409.37506  23829325.249 7  95950821.83407  23829328.716 8  94731124.64008
E33  24758945.803 7 130109144.00107  24758938.372 6  97159395.80206  24758934.161 7  99693972.14807  24758938.129 7  98426693.51207
G05  22792621.994 6 119776029.38206  22792621.789 5  22792610.406 5  93331909.57105  22792616.163 6  93331964.46706
G10  25297320.683 6 132938318.86406  25297320.384 3  25297334.807 3 103588305.21803  25297317.095 5 103588280.40705  25297315.683 5  99272098.64305
G15  20606340.831 7 108287047.56307  20606340.626 6  20606345.894 6  84379454.91506  20606331.723 6  84379475.07606
G18  20607042.537 7 108290741.55407  20607042.511 5  20607048.118 5  84382327.95905  20607033.851 7  84382374.10407  20607036.842 7  80866434.27207
G20  22605438.957 7 118792387.08207  22605438.873 3  22605439.564 3  92565422.94003  22605431.173 6  92565461.00206  22605433.948 6  88708575.82006
G21  25001377.953 5 131383097.30305  25001377.739 1  25001379.542 1 102376427.08901                                  25001390.424 5  98110822.23205
G23  21879763.819 7 114978941.30107  21879763.694 4  21879772.933 4  89593911.82004  21879755.616 6  89593936.99606  21879759.274 7  85860872.16007
G24  19946376.549 7 104818924.16907  19946376.375 6  19946386.396 6  81677021.56806  19946370.097 6  81677058.76006  19946369.274 7  78273834.93807
R04  20505771.118 6 109807489.22406  20505755.959 7  85405755.14507  20505756.221 7  85405754.17207  20505740.419 7  82218259.84707
R05  22897377.047 5 122399654.90505  22897383.857 6  95199723.90106  22897383.704 6  95199743.94806  22897368.114 6  91807561.79306
R12  24465972.023 3                                                  24465963.823 4                  24465949.329 4  98096811.58704
R14  21907576.411 5 116779777.70505  21907590.331 7  90828734.97407  21907590.357 7  90828792.99707
R18  20972870.670 6 111954600.58606  20972876.812 7  87075811.86907  20972877.186 7  87075807.84507
R19  20089169.273 6 107463502.62806  20089153.045 7  83582664.90007  20089153.363 7  83582665.91007  20089180.202 7  80548047.81907
R20  23128414.249 5 123677987.55005  23128399.801 6  96193971.38106  23128399.754 6  96193969.34906  23128428.435 6  92733988.17106
> 2026 05 04 11 24  5.0000000  0 42
C01                                                                  37104626.215 7 193213530.66507                                  37104617.388 7 157001781.01307
C02                                                                  37992828.691 7 197838633.22507                                  37992807.907 6 160760006.83006
C03                                                                  36658013.628 7 190887900.04007                                  36657995.724 7 155111978.48507
C04                                                                  37999364.338 7 197872666.29007                                  37999346.676 6 160787673.79406
C06  36325487.741 7 190891730.77307  36325478.689 7 142548976.98207  36325488.712 8 189156353.05108                                  36325478.998 7 153704990.73607
C07  37181038.188 7 195387677.28407  37181030.758 6 145906347.20306  37181038.431 7 193611432.33107                                  37181029.763 7 157325118.98807
C08  40305238.506 5 211805481.24005                                  40305239.036 5 209879969.70005                                  40305246.653 5 170544699.87705
C09                                                                  37337342.341 7 194425342.84807  37337331.405 7 150341963.61707  37337335.028 6 157986486.59606
C10                                                                  38090416.913 7 198346816.82207  38090409.164 6 153374320.31106  38090410.183 6 161173019.20106
C13  23556552.410 7 123790524.94207  23556545.691 6  92440938.77206  23556554.218 7 122665158.19507                                  23556547.229 7  99675457.21307
C14  24680128.646 6 129694949.02006  24680141.953 6  96850169.23206  24680130.114 7 128515912.60507                                  24680112.976 6 104429632.08206
C21                                                                  26893852.458 5 140043348.27305                                  26893843.399 5 113796656.57605
C24  23568087.675 7 123851138.51607  23568082.143 6  92486214.16006  23568089.492 7 122725259.70507                                  23568081.991 7  99724304.39007
C26  24097954.313 7 126635604.46707  24097947.699 6  94565517.73306  24097955.143 7 125484383.29407                                  24097948.683 7 101966315.83507
C27  26138028.240 6 137356259.67606  26138026.136 5 102571220.48105  26138032.503 6 136107583.93106                                  26138024.796 6 110598541.02306
C28  23766875.239 7 124895774.61207  23766870.466 6  93266300.24506  23766878.103 7 123760373.08407                                  23766870.483 6 100565409.91906
C33  22960041.218 7 120655835.58307  22960058.713 7  90100197.02907  22960042.387 8 119558968.01808                                  22960046.778 7  97151476.97707
C38  23784011.573 6 124985818.11906  23784012.730 6  93333573.11506  23784014.076 7 123849586.89807                                  23784010.538 6 100637912.66806
C41  26054262.395 6 136916060.41406  26054272.014 6 102242554.91006  26054263.300 6 135671399.45206                                  26054266.546 6 110244142.66006
C42  23394846.804 7 122940748.52207  23394849.756 7  91806411.06707  23394847.702 7 121823112.96507                                  23394848.059 7  98991260.12207
E07  24366104.371 7 128044747.73707  24366098.592 7  95617801.80507  24366094.202 7  98112164.78207  24366098.163 8  96864990.82808
E08  28466259.170 6 149591201.14006  28466254.354 4 111707706.26904  28466251.139 5 114621801.65405  28466254.808 6 113164762.49506
E13  26172079.779 6 137535191.21306  26172089.109 6 102704863.38506  26172083.016 6 105384105.98606  26172087.475 7 104044489.71907
E19  26074310.225 5                  26074314.346 5 102321231.30805  26074308.507 6 104990462.61506  26074312.727 6 103655853.99706
E26  23219165.588 7 122017537.17707  23219158.273 7  91116960.08107  23219154.334 8  93493907.85408  23219157.978 8  92305444.50408
E29  23829315.631 7 125223901.55807  23829308.302 7  93511328.23107  23829304.511 7  95950738.57507  23829308.057 8  94731042.43808
E33  24758663.558 7 130107660.77707  24758656.151 6  97158288.21406  24758651.920 7  99692835.66007  24758655.889 7  98425571.47307
G05  22793102.645 6 119778555.88406  22793102.440 5  22793090.994 5  93333878.26905  22793097.437 6  93333933.16106
G10  25296875.907 6 132935981.37806  25296875.608 3  25296890.126 3 103586483.80403  25296872.330 5 103586458.99905  25296870.989 5  99270353.12705
G15  20606689.414 7 108288879.31107  20606689.209 6  20606694.708 6  84380882.25006  20606680.394 6  84380902.41606
G18  20607049.420 7 108290778.04407  20607049.394 5  20607055.313 5  84382356.39105  20607040.909 7  84382402.53407  20607043.831 7  80866461.53207
G20  22605952.328 6 118795084.93006  22605952.248 3  22605952.871 3  92567525.15603  22605944.612 6  92567563.22706  22605947.221 6  88710590.45006
G21  25001934.787 5 131386022.12805  25001934.591 1  25001936.134 1 102378706.14801                                  25001946.973 5  98113006.34205
G23  21879382.939 7 114976939.43707  21879382.819 4  21879392.130 4  89592351.92804  21879374.837 6  89592377.10706  21879378.372 7  85859377.27507
G24  19946229.951 7 104818154.08307  19946229.777 6  19946240.121 6  81676421.50206  19946223.778 6  81676458.70106  19946222.699 7  78273259.88307
R04  20505801.782 6 109807654.07006  20505786.755 6  85405883.39506  20505786.932 6  85405882.38806  20505771.231 7  82218383.28607
R05  22897103.346 5 122398189.64405  22897109.710 6  95198584.23006  22897109.732 6  95198604.28506  22897094.059 6  91806462.72806
R12  24466522.042 3                                                  24466518.358 4                  24466501.386 4  98099024.12404
R14  21907052.881 5 116776986.82805  21907066.739 6  90826564.33206  21907066.831 6  90826622.37306
R18  20973618.751 6 111958594.76706  20973625.169 6  87078918.43906  20973625.538 6  87078914.46506
R19  20089216.941 6 107463760.15306  20089201.150 6  83582865.23306  20089201.517 7  83582866.24807  20089228.318 7  80548240.91407
R20  23127851.450 5 123674963.21405  23127834.154 6  96191619.14506  23127834.227 6  96191617.16206  23127862.822 6  92731720.55306
> 2026 05 04 11 24  6.0000000  0 42
C01                                                                  37104697.103 7 193213900.22207                                  37104688.326 7 157002081.29807
C02                                                                  37992892.617 7 197838966.17907                                  37992871.762 6 160760277.37506
C03                                                                  36658080.452 7 190888248.32607                                  36658062.544 7 155112261.50107
C04                                                                  37999435.455 7 197873036.69307                                  37999417.739 6 160787974.79106
C06  36325471.581 7 190891645.98207  36325462.546 7 142548913.67007  36325472.528 8 189156269.03108                                  36325462.866 7 153704922.45707
C07  37180857.785 7 195386729.65207  37180850.329 6 145905639.57406  37180858.057 7 193610493.31607                                  37180849.388 7 157324355.96307
C08  40305623.244 5 211807504.03605                                  40305623.716 5 209881974.07905                                  40305631.560 5 170546328.62405
C09                                                                  37337304.840 7 194425148.35007  37337293.983 7 150341813.23107  37337297.710 6 157986328.56006
C10                                                                  38090225.270 7 198345818.56407  38090217.434 6 153373548.41006  38090218.460 6 161172208.02706
C13  23556887.345 7 123792285.39907  23556880.738 6  92442253.38306  23556889.284 7 122666902.63507                                  23556882.199 7  99676874.71407
C14  24680518.844 6 129697000.08306  24680532.296 6  96851700.85806  24680520.278 7 128517945.02507                                  24680503.169 6 104431283.58406
C21                                                                  26894286.279 5 140045608.21405                                  26894277.340 5 113798492.96705
C24  23567746.368 7 123849345.07507  23567740.808 7  92484874.91507  23567748.237 7 122723482.56607                                  23567740.701 7  99722860.32907
C26  24098056.407 6 126636141.26406  24098049.860 6  94565918.59506  24098057.243 7 125484915.21407                                  24098050.888 7 101966748.07207
C27  26137726.149 6 137354672.07906  26137724.027 5 102570034.95605  26137730.390 6 136106010.78006                                  26137722.662 6 110597262.70606
C28  23766916.043 7 124895989.44907  23766911.275 6  93266460.66206  23766918.895 7 123760585.95707                                  23766911.292 6 100565582.90106
C33  22959962.444 7 120655421.82707  22959980.029 7  90099888.06207  22959963.585 8 119558558.03208                                  22959968.047 7  97151143.83807
C38  23784550.451 6 124988649.92406  23784551.681 6  93335687.77606  23784552.929 7 123852392.98207                                  23784549.291 6 100640192.82206
C41  26053984.381 6 136914599.12706  26053993.898 6 102241463.68806  26053985.314 6 135669951.44106                                  26053988.456 6 110242966.03806
C42  23395125.992 7 122942216.17807  23395128.989 7  91807507.05207  23395126.966 7 121824567.28307                                  23395127.384 7  98992441.87507
E07  24366478.568 7 128046714.48007  24366472.792 7  95619270.47707  24366468.431 7  98113671.77607  24366472.411 8  96866478.66308
E08  28466766.209 6 149593865.62706  28466761.413 5 111709695.96805  28466758.204 5 114623843.31005  28466761.872 6 113166778.18606
E13  26172682.923 6 137538361.04206  26172692.389 6 102707230.45806  26172686.251 6 105386534.81506  26172690.656 7 104046887.67607
E19  26074012.272 5                  26074016.301 5 102320061.82205  26074010.421 6 104989262.61706  26074014.698 6 103654669.25906
E26  23219389.189 7 122018712.60307  23219381.988 7  91117837.84207  23219378.010 8  93494808.51508  23219381.658 8  92306333.71408
E29  23829295.120 7 125223794.33107  23829288.009 7  93511248.18307  23829284.093 7  95950656.43107  23829287.640 8  94730961.33808
E33  24758381.530 7 130106179.09307  24758374.209 7  97157181.76407  24758369.931 7  99691700.34607  24758373.935 7  98424450.59207
G05  22793583.593 6 119781083.85906  22793583.388 5  22793571.895 5  93335848.11205  22793578.728 6  93335902.99706
G10  25296431.305 6 132933644.97306  25296431.006 4  25296445.620 4 103584663.25004  25296427.705 5 103584638.43505  25296426.237 5  99268608.39105
G15  20607038.220 7 108290712.48907  20607038.015 6  20607043.749 6  84382310.71006  20607029.428 7  84382330.86907
G18  20607056.635 7 108290816.42507  20607056.609 5  20607062.847 5  84382386.30405  20607048.398 7  84382432.44607  20607051.114 7  80866490.19907
G20  22606465.876 6 118797784.01506  22606465.796 3  22606466.459 3  92569628.35303  22606458.334 7  92569666.40407  22606460.853 6  88712606.01206
G21  25002491.379 5 131388948.28505  25002491.134 1  25002493.012 1 102380986.33701                                  25002503.639 5  98115191.44305
G23  21879002.313 7 114974938.85507  21879002.193 4  21879011.514 4  89590793.04904  21878994.174 7  89590818.22107  21878997.656 7  85857883.33807
G24  19946083.768 7 104817385.90607  19946083.594 6  19946094.158 6  81675822.93606  19946077.938 7  81675860.12507  19946076.505 7  78272686.24607
R04  20505832.907 6 109807820.29006  20505817.815 7  85406012.61507  20505817.965 7  85406011.65107  20505802.239 7  82218507.72407
R05  22896829.554 5 122396725.66105  22896835.859 7  95197445.62507  22896836.093 6  95197465.63606  22896820.102 6  91805364.71006
R12  24467072.798 3                                                  24467067.996 4                  24467053.544 4  98101238.03804
R14  21906529.543 5 116774197.60805  21906543.483 7  90824394.93507  21906543.231 7  90824452.95207
R18  20974368.097 5 111962590.69905  20974373.844 7  87082026.31007  20974374.184 7  87082022.36007
R19  20089264.672 6 107464019.86206  20089249.837 7  83583067.17607  20089250.186 7  83583068.18307  20089276.834 7  80548435.58307
R20  23127287.414 5 123671940.75805  23127269.017 7  96189268.27807  23127269.287 6  96189266.25406  23127297.517 6  92729454.22906
> 2026 05 04 11 24  7.0000000  0 42
C01                                                                  37104768.265 7 193214270.50507                                  37104759.402 7 157002382.20407
C02                                                                  37992956.727 7 197839299.87907                                  37992935.751 6 160760548.56006
C03                                                                  36658147.580 7 190888597.36307                                  36658129.591 7 155112545.14207
C04                                                                  37999506.835 7 197873407.84907                                  37999489.115 6 160788276.40806
C06  36325455.535 7 190891561.92707  36325446.594 7 142548850.90607  36325456.565 8 189156185.72808                                  36325446.851 7 153704854.79207
C07  37180677.491 7 195385782.90907  37180670.280 6 145904932.59106  37180677.965 7 193609555.17107                                  37180669.276 7 157323593.66707
C08  40306008.152 5 211809527.49005                                  40306008.953 5 209883979.19205                                  40306016.568 5 170547957.89405
C09                                                                  37337267.627 7 194424954.51407  37337256.682 7 150341663.34207  37337260.436 6 157986171.05406
C10                                                                  38090033.758 7 198344821.14807  38090026.101 6 153372777.14506  38090026.863 6 161171397.57706
C13  23557222.536 7 123794047.03307  23557216.073 6  92443568.90006  23557224.546 7 122668648.26007                                  23557217.414 7  99678293.17407
C14  24680909.198 6 129699051.92406  24680922.785 6  96853233.08006  24680910.830 7 128519978.21307                                  24680893.591 6 104432935.72206
C21                                                                  26894720.589 5 140047868.90305                                  26894711.339 5 113800329.94205
C24  23567405.236 7 123847552.69107  23567399.742 7  92483536.46707  23567407.127 7 122721706.46707                                  23567399.514 7  99721417.13307
C26  24098158.683 7 126636679.35807  24098152.254 6  94566320.43206  24098159.625 7 125485448.41207                                  24098153.231 7 101967181.35507
C27  26137424.136 6 137353085.63606  26137422.238 5 102568850.25605  26137428.499 6 136104438.75506                                  26137420.825 6 110595985.31806
C28  23766957.181 6 124896205.55906  23766952.418 6  93266622.04206  23766959.977 7 123760800.10107                                  23766952.374 6 100565756.92106
C33  22959883.811 7 120655008.91007  22959901.539 7  90099579.71507  22959885.088 8 119558148.84908                                  22959889.513 7  97150811.35807
C38  23785089.390 6 124991482.73306  23785090.879 6  93337803.16906  23785091.949 7 123855200.01907                                  23785088.315 6 100642473.78806
C41  26053706.436 6 136913138.61406  26053716.108 6 102240373.06006  26053707.569 6 135668504.19106                                  26053710.476 6 110241790.05806
C42  23395405.369 7 122943684.66107  23395408.432 7  91808603.63707  23395406.451 7 121826022.40007                                  23395406.748 7  98993624.28407
E07  24366852.950 7 128048682.08407  24366847.277 7  95620739.78407  24366842.701 7  98115179.40907  24366846.851 8  96867967.13208
E08  28467273.351 6 149596530.78706  28467268.733 4 111711686.23304  28467265.245 5 114625885.41505  28467269.017 5 113168794.35605
E13  26173286.178 6 137541531.83206  26173295.822 6 102709598.23406  26173289.611 6 105388964.35806  26173294.057 7 104049286.33207
E19  26073714.305 5                  26073718.340 5 102318893.00605  26073712.388 6 104988063.34006  26073716.829 6 103653485.20906
E26  23219613.101 7 122019889.23707  23219605.935 7  91118716.49707  23219601.824 7  93495710.08207  23219605.583 8  92307223.82508
E29  23829274.824 7 125223688.11807  23829267.875 7  93511168.86507  23829263.838 7  95950575.03407  23829267.437 7  94730880.98207
E33  24758099.746 7 130104698.48607  24758092.562 7  97156076.12607  24758088.116 7  99690565.85907  24758092.205 7  98423330.52807
G05  22794064.732 6 119783612.86906  22794064.527 5  22794053.081 5  93337818.76605  22794060.094 6  93337873.67006
G10  25295986.705 6 132931309.19706  25295986.401 4  25296001.065 4 103582843.18304  25295983.730 5 103582818.33705  25295981.842 5  99266864.15405
G15  20607387.227 7 108292546.64807  20607387.022 6  20607392.903 6  84383739.93906  20607378.321 7  84383760.07807
G18  20607064.164 7 108290856.25207  20607064.138 5  20607070.574 5  84382417.35605  20607055.920 7  84382463.48007  20607058.659 7  80866519.93507
G20  22606979.583 6 118800483.90306  22606979.499 3  22606980.222 3  92571732.16903  22606972.223 7  92571770.21507  22606974.681 6  88714622.14906
G21  25003048.049 5 131391875.38705  25003047.759 1  25003050.060 1 102383267.16401                                  25003060.680 5  98117377.25205
G23  21878621.668 7 114972939.11307  21878621.543 4  21878630.957 4  89589234.82604  21878613.459 7  89589259.97907  21878617.146 7  85856390.02407
G24  19945937.838 7 104816619.17007  19945937.664 6  19945948.387 6  81675225.49706  19945932.113 7  81675262.66307  19945930.619 7  78272113.68607
R04  20505863.682 6 109807987.35206  20505849.134 7  85406142.59607  20505849.279 7  85406141.61607  20505833.467 7  82218632.84007
R05  22896556.341 5 122395262.64905  22896562.366 6  95196307.74106  22896562.372 6  95196327.74006  22896546.370 6  91804267.35606
R12                                                                  24467619.321 4                  24467606.143 4  98103452.95304
R14  21906007.867 5 116771409.47705  21906020.433 7  90822226.45807  21906020.111 7  90822284.46007
R18  20975117.457 6 111966587.78106  20975122.688 7  87085135.20807  20975123.092 7  87085131.21107
R19  20089312.334 6 107464281.14106  20089298.922 7  83583270.95107  20089299.243 7  83583271.43707  20089325.632 7  80548631.49007
R20  23126722.507 5 123668919.34805  23126704.068 6  96186918.34606  23126704.596 6  96186916.34206  23126732.525 6  92727188.84106
> 2026 05 04 11 24  8.0000000  0 42
C01                                                                  37104839.618 7 193214641.62107                                  37104830.903 7 157002683.77007
C02                                                                  37993021.073 7 197839634.42507                                  37993000.258 6 160760820.39006
C03                                                                  36658214.829 7 190888947.23607                                  36658197.010 7 155112829.43807
C04                                                                  37999578.225 7 197873779.82807                                  37999560.737 6 160788578.67406
C06  36325439.627 7 190891478.65007  36325430.689 7 142548788.71407  36325440.770 8 189156103.21908                                  36325431.129 7 153704787.74307
C07  37180497.392 7 195384837.09907  37180490.284 6 145904226.31606  37180498.065 7 193608617.97607                                  37180489.421 7 157322832.11607
C08  40306393.288 5 211811551.70505                                  40306394.348 5 209885984.96305                                  40306401.490 5 170549587.81705
C09                                                                  37337230.663 7 194424761.43207  37337219.580 7 150341514.03107  37337223.500 6 157986014.16906
C10                                                                  38089842.431 7 198343824.65807  38089834.704 6 153372006.59606  38089835.714 6 161170587.83906
C13  23557557.990 7 123795809.93207  23557551.413 6  92444885.33306  23557560.137 7 122670395.13207                                  23557553.018 7  99679712.65607
C14  24681299.846 6 129701104.62106  24681313.437 6  96854765.93306  24681301.465 7 128522012.25407                                  24681284.337 6 104434588.55106
C21                                                                  26895155.119 5 140050130.42005                                  26895146.075 5 113802167.61505
C24  23567064.318 7 123845761.44607  23567058.820 7  92482198.86507  23567066.254 7 122719931.52007                                  23567058.736 7  99719974.84707
C26  24098261.377 7 126637218.79007  24098255.031 6  94566723.27806  24098262.386 7 125485982.95907                                  24098255.911 7 101967615.71407
C27  26137122.323 6 137351500.41806  26137120.622 5 102567666.49405  26137127.026 6 136102867.95506                                  26137119.397 6 110594708.91906
C28  23766998.500 7 124896423.00707  23766993.843 6  93266784.42906  23767001.353 7 123761015.58207                                  23766993.812 6 100565932.02006
C33  22959805.391 7 120654596.87307  22959823.115 7  90099272.02807  22959806.821 8 119557740.56608                                  22959811.231 7  97150479.60407
C38  23785628.671 6 124994316.56806  23785630.147 6  93339919.34506  23785631.296 7 123858008.09407                                  23785627.720 6 100644755.56906
C41  26053428.539 6 136911678.91206  26053438.459 6 102239283.04006  26053429.802 6 135667057.78506                                  26053432.913 6 110240614.75006
C42  23395685.000 7 122945153.99607  23395687.980 7  91809700.87407  23395686.064 7 121827478.39007                                  23395686.445 7  98994807.39807
E07  24367227.499 7 128050650.59307  24367221.896 7  95622209.76807  24367217.200 7  98116687.74907  24367221.470 8  96869456.29508
E08  28467780.628 6 149599196.64606  28467776.300 5 111713676.96505  28467772.581 5 114627928.10705  28467776.314 6 113170811.08206
E13  26173889.676 6 137544703.61006  26173899.301 6 102711966.78206  26173893.159 6 105391394.69006  26173897.672 7 104051685.77007
E19  26073416.473 5                  26073420.310 5 102317724.97905  26073414.805 6 104986864.83306  26073419.198 6 103652301.94406
E26  23219837.238 7 122021067.13807  23219830.097 7  91119596.08207  23219825.915 8  93496612.62808  23219829.755 8  92308114.89408
E29  23829254.768 7 125223582.95607  23829247.857 7  93511090.33407  23829243.803 7  95950494.45907  23829247.445 8  94730801.43008
E33  24757818.187 7 130103219.02707  24757811.006 7  97154971.33607  24757806.540 7  99689432.24907  24757810.703 7  98422211.32807
G05  22794546.159 6 119786142.96606  22794545.954 5  22794534.510 5  93339790.26905  22794541.275 6  93339845.22906
G10  25295542.206 6 132928974.09806  25295541.907 4  25295556.434 4 103581023.63504  25295539.389 5 103580998.86905  25295537.407 5  99265120.43105
G15  20607736.382 7 108294381.83807  20607736.177 6  20607742.212 6  84385169.95906  20607727.293 6  84385190.13906
G18  20607071.974 7 108290897.58107  20607071.948 5  20607078.552 5  84382449.56305  20607063.445 7  84382495.72607  20607066.517 7  80866550.79607
G20  22607493.535 6 118803184.62606  22607493.451 3  22607493.980 3  92573836.62603  22607485.840 6  92573874.72106  22607488.667 6  88716638.92706
G21  25003605.160 5 131394803.44205  25003604.892 1  25003607.336 1 102385548.70601                                  25003617.873 5  98119563.78605
G23  21878241.258 7 114970940.25207  21878241.133 4  21878250.413 4  89587677.27104  21878232.914 6  89587702.48206  21878236.832 7  85854897.37807
G24  19945792.081 7 104815853.94707  19945791.907 6  19945802.841 6  81674629.22306  19945786.109 6  81674666.43806  19945785.014 7  78271542.25607
R04  20505894.899 6 109808155.46006  20505880.610 6  85406273.35706  20505880.876 6  85406272.37806  20505864.843 7  82218758.68707
R05  22896283.190 5 122393800.58205  22896288.917 6  95195170.63006  22896288.764 6  95195190.63306  22896272.917 6  91803170.71306
R12                                                                  24468170.833 4                  24468158.818 4  98105668.93104
R14  21905486.217 5 116768622.54705  21905497.741 6  90820058.91306  21905497.396 7  90820116.92407
R18  20975865.943 5 111970586.18005  20975871.788 6  87088245.07506  20975872.259 6  87088241.08006
R19  20089360.635 6 107464544.20806  20089348.048 6  83583476.06206  20089348.394 7  83583476.07307  20089374.846 7  80548828.66207
R20  23126157.688 5 123665899.35105  23126139.467 6  96184569.47506  23126139.965 6  96184567.47206  23126167.807 6  92724924.44406
> 2026 05 04 11 24  9.0000000  0 42
C01                                                                  37104911.044 7 193215013.45707                                  37104902.378 7 157002985.92207
C02                                                                  37993085.389 7 197839969.67107                                  37993064.784 6 160761092.83306
C03                                                                  36658282.024 7 190889297.83007                                  36658264.428 7 155113114.31807
C04                                                                  37999649.744 7 197874152.54507                                  37999632.439 6 160788881.53806
C06  36325423.914 7 190891396.05807  36325415.023 7 142548727.03807  36325425.051 8 189156021.38408                                  36325415.473 7 153704721.24807
C07  37180317.561 7 195383892.16107  37180310.502 6 145903520.67606  37180318.255 7 193607681.62907                                  37180309.726 7 157322071.26407
C08  40306778.501 5 211813576.53405                                  40306779.635 5 209887991.37605                                  40306787.053 5 170551218.17805
C09                                                                  37337193.663 7 194424568.95407  37337182.549 7 150341365.20507  37337186.539 6 157985857.77306
C10                                                                  38089651.200 7 198342828.97807  38089643.383 6 153371236.68606  38089644.611 6 161169778.79106
C13  23557893.599 7 123797573.99007  23557887.057 6  92446202.65306  23557895.822 7 122672143.15707                                  23557888.806 7  99681133.07707
C14  24681690.589 6 129703158.07306  24681704.070 6  96856299.34206  24681692.343 7 128524047.04007                                  24681675.252 6 104436241.97506
C21                                                                  26895589.566 5 140052392.62605                                  26895580.399 5 113804005.83705
C24  23566723.636 7 123843971.24507  23566718.170 7  92480862.02107  23566725.638 7 122718157.58807                                  23566718.183 7  99718533.39907
C26  24098364.297 7 126637759.47407  24098357.935 6  94567127.02806  24098365.276 7 125486518.72907                                  24098358.777 7 101968051.07007
C27  26136820.796 6 137349916.33106  26136819.078 5 102566483.58105  26136825.575 6 136101298.27106                                  26136818.007 6 110593433.42406
C28  23767040.068 7 124896641.71407  23767035.436 6  93266947.75006  23767043.057 7 123761232.30107                                  23767035.509 6 100566108.12406
C33  22959727.193 7 120654185.64507  22959744.789 7  90098964.95207  22959728.621 8 119557333.07908                                  22959733.033 7  97150148.48907
C38  23786168.065 6 124997151.34806  23786169.534 6  93342036.22606  23786170.756 7 123860817.11707                                  23786167.264 6 100647038.11906
C41  26053150.948 6 136910219.99306  26053160.723 6 102238193.57106  26053151.939 6 135665612.10706                                  26053155.322 6 110239440.00306
C42  23395964.815 7 122946624.11507  23395967.692 7  91810798.68907  23395965.899 7 121828935.14307                                  23395966.213 7  98995991.13207
E07  24367602.291 7 128052619.90807  24367596.629 7  95623680.37507  24367591.998 8  98118196.71908  24367596.206 8  96870946.08408
E08  28468288.017 6 149601863.12606  28468283.530 5 111715668.16905  28468279.995 5 114629971.26105  28468283.718 6 113172828.25506
E13  26174493.405 6 137547876.32306  26174502.951 6 102714335.98606  26174496.933 6 105393825.72706  26174501.413 7 104054085.89707
E19  26073119.150 5                  26073122.727 5 102316557.60705  26073117.436 6 104985667.00806  26073121.661 6 103651119.34606
E26  23220061.608 7 122022246.20507  23220054.474 7  91120476.56007  23220050.261 8  93497516.07408  23220054.109 8  92309006.85608
E29  23829234.955 7 125223478.75507  23829228.044 7  93511012.51807  23829223.939 7  95950414.62807  23829227.600 8  94730722.60908
E33  24757536.811 7 130101740.61107  24757529.637 7  97153867.32007  24757525.216 7  99688299.44907  24757529.349 7  98421092.92307
G05  22795027.820 6 119788674.06706  22795027.615 5  22795016.050 5  93341762.56205  22795022.279 6  93341817.48206
G10  25295097.953 6 132926639.60106  25295097.649 4  25295112.343 4 103579204.55104  25295095.292 5 103579179.76205  25295093.258 5  99263377.15905
G15  20608085.711 7 108296217.98407  20608085.506 6  20608091.777 6  84386600.71906  20608075.933 6  84386620.88306
G18  20607080.146 7 108290940.32207  20607080.120 5  20607086.847 5  84382482.86205  20607070.914 7  84382529.00907  20607074.667 7  80866582.71707
G20  22608007.513 6 118805886.12406  22608007.429 3  22608007.809 3  92575941.70403  22607999.033 6  92575979.75106  22608002.651 6  88718656.26906
G21  25004162.505 5 131397732.36505  25004162.228 1  25004164.768 1 102387830.97901                                  25004175.391 5  98121750.95005
G23  21877861.086 7 114968942.19307  21877860.961 4  21877870.227 4  89586120.33904  21877851.825 6  89586145.52606  21877856.632 7  85853405.32407
G24  19945646.786 7 104815090.13907  19945646.612 6  19945657.643 6  81674034.04506  19945639.887 6  81674071.24806  19945639.698 7  78270971.88707
R04  20505926.162 6 109808324.43906  20505912.193 7  85406404.76907  20505912.354 7  85406403.78907  20505896.412 7  82218885.22707
R05  22896009.691 5 122392339.38705  22896015.768 7  95194034.10607  22896015.848 6  95194054.11906  22895999.590 6  91802074.73106
R12                                                                  24468723.217 4                  24468711.549 4  98107885.87704
R14  21904963.812 5 116765836.74805  21904975.133 7  90817892.15907  21904974.905 7  90817950.17207
R18  20976615.861 5 111974585.73805  20976621.156 7  87091355.80907  20976621.454 7  87091351.82107
R19  20089409.166 6 107464808.92806  20089397.477 7  83583681.92507  20089397.910 7  83583681.93507  20089424.362 7  80549027.06907
R20  23125593.499 5 123662880.56705  23125574.867 7  96182221.50107  23125575.612 6  96182219.50506  23125603.267 6  92722660.96206
> 2026 05 04 11 24 10.0000000  0 42
C01                                                                  37104982.536 7 193215386.11707                                  37104974.071 7 157003288.73507
C02                                                                  37993149.887 7 197840305.76607                                  37993129.430 6 160761365.93406
C03                                                                  36658349.438 7 190889649.24207                                  36658331.945 7 155113399.88307
C04                                                                  37999721.447 7 197874526.08607                                  37999704.209 6 160789185.06006
C06  36325408.389 7 190891314.26507  36325399.401 7 142548665.95907  36325409.491 8 189155940.33108                                  36325399.995 7 153704655.38207
C07  37180137.886 7 195382948.17707  37180130.790 6 145902815.75406  37180138.661 7 193606746.21707                                  37180130.189 7 157321311.17307
C08  40307163.977 5 211815602.11005  40307177.251 4 158174019.31114  40307164.985 5 209889998.53205                                  40307172.409 5 170552849.17305
C09                                                                  37337156.909 7 194424377.25207  37337145.849 7 150341216.97807  37337149.760 6 157985702.00106
C10                                                                  38089460.042 7 198341834.21507  38089452.047 6 153370467.48106  38089453.675 6 161168970.47306
C13  23558229.483 7 123799339.32007  23558222.979 6  92447520.92406  23558231.677 7 122673892.43507                                  23558224.804 7  99682554.50207
C14  24682081.511 6 129705212.39006  24682094.988 6  96857833.40806  24682083.071 7 128526082.67307                                  24682066.273 6 104437896.08606
C21                                                                  26896023.715 5 140054655.64705                                  26896015.249 5 113805844.72205
C24  23566383.187 7 123842182.17807  23566377.668 7  92479526.06407  23566385.108 7 122716384.80107                                  23566377.757 7  99717092.86407
C26  24098467.542 6 126638301.54006  24098461.004 6  94567531.80406  24098468.368 7 125487055.85907                                  24098462.041 7 101968487.53507
C27  26136519.455 6 137348333.49206  26136517.960 5 102565301.56905  26136524.495 6 136099729.80506                                  26136516.951 6 110592158.89806
C28  23767081.965 6 124896861.78506  23767077.293 6  93267112.07606  23767084.925 7 123761450.36507                                  23767077.418 6 100566285.32206
C33  22959649.117 7 120653775.32607  22959666.655 7  90098658.54207  22959650.491 7 119556926.49307                                  22959654.972 7  97149818.09907
C38  23786707.746 6 124999987.19006  23786709.106 6  93344153.87506  23786710.296 7 123863627.17707                                  23786706.879 6 100649321.51506
C41  26052873.548 6 136908761.89606  26052883.189 6 102237104.75306  26052874.367 6 135664167.27906                                  26052877.953 6 110238265.98106
C42  23396244.674 7 122948095.12807  23396247.597 7  91811897.16807  23396245.898 7 121830392.78007                                  23396246.230 7  98997175.58007
E07  24367977.207 7 128054590.15007  24367971.492 7  95625151.64307  24367966.962 7  98119706.38207  24367971.133 8  96872436.55308
E08  28468795.535 6 149604530.32706  28468791.406 5 111717659.91405  28468787.532 5 114632014.98905  28468791.314 6 113174845.99806
E13  26175097.359 6 137551050.07206  26175106.881 6 102716705.97906  26175100.863 6 105396257.53206  26175105.377 7 104056486.79507
E19  26072821.979 5                  26072825.295 5 102315391.02405  26072820.094 6 104984469.98206  26072824.338 6 103649937.54006
E26  23220286.247 7 122023426.55307  23220279.056 7  91121357.99007  23220274.897 8  93498420.49308  23220278.732 8  92309899.78208
E29  23829215.324 7 125223375.63007  23829208.388 7  93510935.51107  23829204.296 7  95950335.61107  23829207.991 8  94730644.60008
E33  24757255.648 7 130100263.36107  24757248.523 7  97152764.18107  24757244.121 7  99687167.52107  24757248.240 7  98419975.38807
G05  22795509.584 6 119791206.28606  22795509.379 5  22795497.805 5  93343735.72105  22795503.578 6  93343790.62406
G10  25294653.757 6 132924305.82606  25294653.458 3  25294668.521 3 103577386.02203  25294650.750 5 103577361.24405  25294649.213 5  99261634.40705
G15  20608435.279 7 108298055.17807  20608435.074 6  20608441.601 6  84388032.29706  20608425.248 6  84388052.48606
G18  20607088.507 7 108290984.57607  20607088.481 5  20607095.571 5  84382517.34505  20607079.012 7  84382563.49807  20607083.147 7  80866615.76207
G20  22608521.734 6 118808588.47606  22608521.650 3  22608521.804 3  92578047.43703  22608513.268 6  92578085.49006  22608516.914 6  88720674.26306
G21  25004720.103 5 131400662.27605  25004719.808 1  25004722.330 1 102390114.11101                                  25004732.953 5  98123938.89905
G23  21877481.051 7 114966945.03707  21877480.922 4  21877490.416 4  89584564.12104  21877471.366 6  89584589.30406  21877476.586 7  85851913.94307
G24  19945501.689 7 104814327.85007  19945501.515 6  19945512.856 6  81673440.05306  19945494.688 6  81673477.26806  19945494.664 7  78270402.64607
R04  20505957.770 6 109808494.44806  20505943.946 7  85406536.99707  20505944.111 7  85406536.01907  20505928.151 7  82219012.51707
R05  22895736.319 4 122390879.16104  22895742.740 6  95192898.39306  22895742.484 6  95192918.39106  22895726.408 6  91800979.47306
R12                                                                  24469277.193 4                  24469264.640 4  98110103.87604
R14  21904441.315 5 116763052.12805  21904452.852 7  90815726.37707  21904452.749 7  90815784.38507
R18  20977365.218 5 111978586.59105  20977370.707 7  87094467.57907  20977370.858 7  87094463.58207
R19  20089458.113 6 107465075.38906  20089447.322 7  83583889.18107  20089447.763 7  83583889.18907  20089474.188 7  80549226.77307
R20  23125028.539 5 123659863.12805  23125010.700 7  96179874.62507  23125011.196 6  96179872.62706  23125039.035 6  92720398.48106
> 2026 05 04 11 24 11.0000000  0 42
C01                                                                  37105054.207 7 193215759.59807                                  37105045.850 7 157003592.21707
C02                                                                  37993214.511 7 197840642.67907                                  37993194.228 6 160761639.70606
C03                                                                  36658416.969 7 190890001.49107                                  36658399.668 7 155113686.11707
C04                                                                  37999793.185 7 197874900.44207                                  37999776.157 6 160789489.27306
C06  36325393.033 7 190891233.26307  36325383.954 7 142548605.47107  36325394.092 8 189155860.06508                                  36325384.532 7 153704590.17007
C07  37179958.445 7 195382005.14707  37179951.269 6 145902111.55306  37179959.097 7 193605811.76007                                  37179950.711 7 157320551.85707
C08  40307549.547 5 211817628.41205  40307562.942 5 158175532.45905  40307550.788 5 209892006.44205                                  40307557.989 5 170554480.77005
C09                                                                  37337120.121 7 194424186.26807  37337109.232 7 150341069.30107  37337113.204 6 157985546.81306
C10                                                                  38089269.006 7 198340840.36507  38089261.156 6 153369698.99106  38089262.916 6 161168162.89706
C13  23558565.627 7 123801105.90607  23558559.065 6  92448840.12706  23558567.753 7 122675642.96707                                  23558561.074 7  99683976.94607
C14  24682472.690 6 129707267.55906  24682486.125 6  96859368.10406  24682474.041 7 128528119.15807                                  24682457.454 6 104439550.91106
C21                                                                  26896458.653 5 140056919.46905                                  26896449.869 5 113807684.26605
C24  23566042.968 7 123840394.26207  23566037.468 7  92478190.93407  23566044.745 7 122714613.13807                                  23566037.656 7  99715653.25707
C26  24098571.025 7 126638844.95307  24098564.294 6  94567937.61206  24098571.738 7 125487594.33007                                  24098565.586 7 101968925.10107
C27  26136218.256 6 137346751.84506  26136216.912 5 102564120.49305  26136223.528 6 136098162.53806                                  26136215.939 6 110590885.40006
C28  23767124.036 7 124897083.19307  23767119.389 6  93267277.41206  23767127.071 7 123761669.75807                                  23767119.658 6 100566463.60406
C33  22959571.238 7 120653365.90807  22959588.708 7  90098352.81507  22959572.644 8 119556520.79208                                  22959577.138 7  97149488.43907
C38  23787247.586 6 125002824.07606  23787248.892 6  93346272.32406  23787250.257 7 123866438.26207                                  23787246.802 6 100651605.75506
C41  26052596.088 6 136907304.64406  26052605.778 6 102236016.54006  26052596.987 6 135662723.29306                                  26052600.729 6 110237092.61606
C42  23396524.743 7 122949567.00907  23396527.658 7  91812996.30707  23396526.015 7 121831851.28007                                  23396526.403 7  98998360.73307
E07  24368352.315 7 128056561.31807  24368346.516 7  95626623.63407  24368342.092 7  98121216.76107  24368346.249 8  96873927.73608
E08  28469303.221 6 149607198.27606  28469299.486 5 111719652.21605  28469295.290 5 114634059.26105  28469299.013 6 113176864.29006
E13  26175701.601 6 137554224.82406  26175711.064 6 102719076.73606  26175705.106 6 105398690.14206  26175709.529 7 104058888.48107
E19  26072524.979 5                  26072528.179 5 102314225.16205  26072523.060 6 104983273.69706  26072527.230 6 103648756.47006
E26  23220511.095 7 122024608.17807  23220503.941 7  91122240.37107  23220499.789 8  93499325.89508  23220503.592 8  92310793.67308
E29  23829195.938 7 125223273.57607  23829188.933 7  93510859.30607  23829184.929 7  95950257.41807  23829188.585 8  94730567.40008
E33  24756974.778 7 130098787.25907  24756967.568 7  97151661.89707  24756963.252 7  99686036.49207  24756967.355 7  98418858.73507
G05  22795991.732 6 119793739.60006  22795991.531 5  22795979.747 5  93345709.73005  22795985.768 6  93345764.63606
G10  25294209.904 6 132921972.75306  25294209.600 3  25294224.878 3 103575568.04703  25294205.829 5 103575543.24305  25294205.255 5  99259892.18405
G15  20608785.058 7 108299893.42107  20608784.857 6  20608791.622 6  84389464.69206  20608774.786 6  84389484.85506
G18  20607097.215 7 108291030.35307  20607097.193 5  20607104.545 5  84382553.01505  20607087.614 7  84382599.16207  20607091.888 7  80866649.94507
G20  22609036.124 6 118811291.69606  22609036.044 3  22609036.014 3  92580153.83903  22609027.332 6  92580191.88106  22609031.280 6  88722692.90706
G21  25005277.303 5 131403593.20405  25005277.058 1  25005280.049 1 102392397.90801                                  25005290.634 5  98126127.56405
G23  21877101.173 7 114964948.78507  21877101.048 4  21877110.731 4  89583008.60804  21877091.552 6  89583033.78006  21877096.650 7  85850423.23907
G24  19945356.966 7 104813567.09307  19945356.792 6  19945368.333 6  81672847.25606  19945349.584 6  81672884.45806  19945349.847 7  78269834.55507
R04  20505990.065 7 109808665.43107  20505975.829 7  85406669.99807  20505975.904 7  85406669.01707  20505960.148 7  82219140.55407
R05  22895464.108 5 122389419.90105  22895469.819 6  95191763.40506  22895469.557 6  95191783.40606  22895453.478 6  91799884.93806
R12  24469828.852 4                                                  24469830.435 4                  24469818.252 4  98112322.90604
R14  21903918.594 5 116760268.69505  21903930.629 7  90813561.50407  21903930.678 7  90813619.52507
R18  20978114.625 6 111982588.74806  20978120.473 7  87097580.34607  20978120.546 7  87097576.34607
R19  20089507.524 6 107465343.62806  20089497.413 7  83584097.81707  20089497.807 7  83584097.82207  20089524.374 7  80549427.77807
R20  23124463.886 5 123656847.02505  23124446.681 7  96177528.79007  23124447.339 6  96177526.78406  23124475.117 6  92718137.01306
> 2026 05 04 11 24 12.0000000  0 42
C01                                                                  37105126.088 7 193216133.78007                                  37105117.642 7 157003896.27907
C02                                                                  37993279.327 7 197840980.29307                                  37993259.062 6 160761914.04206
C03                                                                  36658484.655 7 190890354.43107                                  36658467.458 7 155113972.91007
C04                                                                  37999865.263 7 197875275.51707                                  37999848.267 6 160789794.02906
C06  36325377.809 7 190891152.93807  36325368.613 7 142548545.49407  36325378.872 8 189155780.46108                                  36325369.247 7 153704525.48107
C07  37179779.167 7 195381062.94807  37179771.925 6 145901407.96506  37179779.700 7 193604878.12607                                  37179771.369 7 157319793.20307
C08  40307935.450 5 211819655.34805  40307948.526 5 158177046.12205  40307936.583 5 209894014.91805                                  40307943.376 5 170556112.82505
C09                                                                  37337083.485 7 194423995.90507  37337072.646 7 150340922.10607  37337076.763 6 157985392.12306
C10                                                                  38089078.311 7 198339847.30507  38089070.425 6 153368931.11706  38089072.135 6 161167355.96006
C13  23558902.033 7 123802873.63607  23558895.421 6  92450160.18306  23558904.160 7 122677394.62007                                  23558897.460 7  99685400.31807
C14  24682864.016 6 129709323.45206  24682877.383 6  96860903.36106  24682865.366 7 128530156.36607                                  24682848.639 6 104441206.28106
C21                                                                  26896893.748 5 140059183.98605                                  26896884.953 5 113809524.35205
C24  23565702.993 7 123838607.36707  23565697.412 7  92476856.58307  23565704.768 7 122712842.47007                                  23565697.647 7  99714214.45807
C26  24098674.721 7 126639389.58407  24098667.871 6  94568344.31706  24098675.418 7 125488134.00407                                  24098669.212 7 101969363.62207
C27  26135917.424 6 137345171.32206  26135916.076 5 102562940.23005  26135922.830 6 136096596.39006                                  26135915.132 6 110589612.75906
C28  23767166.425 7 124897305.83907  23767161.734 6  93267443.68306  23767169.388 7 123761890.38607                                  23767162.059 6 100566642.87106
C33  22959493.510 7 120652957.26107  22959510.915 7  90098047.65307  22959494.818 8 119556115.85508                                  22959499.317 7  97149159.39007
C38  23787787.631 6 125005661.89906  23787788.988 6  93348391.46806  23787790.212 7 123869250.27407                                  23787786.854 6 100653890.74106
C41  26052318.981 6 136905848.12106  26052328.544 6 102234928.89506  26052319.691 6 135661279.98806                                  26052323.526 6 110235919.81806
C42  23396804.926 7 122951039.64307  23396807.841 7  91814096.00007  23396806.327 7 121833310.52507                                  23396806.587 7  98999546.48707
E07  24368727.605 7 128058533.27507  24368721.770 7  95628096.20407  24368717.398 7  98122727.74607  24368721.521 8  96875419.51608
E08  28469810.957 6 149609866.82606  28469807.232 5 111721644.97605  28469803.085 5 114636103.99905  28469806.792 6 113178883.03306
E13  26176305.844 6 137557400.46206  26176315.494 6 102721448.14906  26176309.429 6 105401123.41606  26176313.864 7 104061290.82407
E19  26072227.902 5                  26072231.298 5 102313059.96705  26072226.155 6 104982078.08506  26072230.315 6 103647576.07406
E26  23220736.270 7 122025790.94007  23220728.955 7  91123123.60907  23220724.903 8  93500232.17708  23220728.689 8  92311688.43308
E29  23829176.705 7 125223172.46207  23829169.680 7  93510783.79507  23829165.681 7  95950179.94707  23829169.361 8  94730490.91008
E33  24756694.178 7 130097312.16707  24756686.840 7  97150560.37607  24756682.577 7  99684906.23907  24756686.671 7  98417742.84807
G05  22796473.861 6 119796273.88506  22796473.660 5  22796461.860 5  93347684.49905  22796468.171 6  93347739.40006
G10  25293765.894 6 132919640.25606  25293765.590 3  25293781.226 3 103573750.53003  25293762.011 5 103573725.73905  25293761.562 5  99258150.38505
G15  20609134.997 7 108301732.58507  20609134.796 6  20609141.803 6  84390897.80706  20609124.954 6  84390917.97206
G18  20607106.278 7 108291077.50507  20607106.252 5  20607113.770 5  84382589.75505  20607096.591 7  84382635.89607  20607100.861 7  80866685.16307
G20  22609550.573 6 118813995.64606  22609550.493 3  22609550.331 3  92582260.81603  22609542.198 6  92582298.85006  22609545.812 6  88724712.07406
G21  25005834.907 5 131406524.95105  25005834.671 1  25005837.938 1 102394682.37501                                  25005848.877 5  98128316.82205
G23  21876721.415 7 114962953.31507  21876721.295 4  21876731.117 4  89581453.69704  21876711.897 6  89581478.85606  21876716.899 7  85848933.11707
G24  19945212.498 7 104812807.71907  19945212.329 6  19945224.056 6  81672255.54006  19945205.259 6  81672292.73606  19945205.312 7  78269267.49607
R04  20506022.368 7 109808837.26607  20506007.886 7  85406803.65907  20506008.066 7  85406802.66707  20505992.302 7  82219269.21207
R05  22895191.718 5 122387961.45205  22895197.019 6  95190629.09406  22895196.732 6  95190649.08606  22895180.719 6  91798791.02606
R12  24470382.041 4                                                  24470385.198 4                  24470371.984 4  98114542.97704
R14  21903396.401 5 116757486.33505  21903408.635 7  90811397.48007  21903408.520 7  90811455.50307
R18  20978864.511 6 111986592.08306  20978870.463 7  87100694.04007  20978870.405 7  87100690.05207
R19  20089557.392 6 107465613.50206  20089547.893 7  83584307.70607  20089548.116 7  83584307.71707  20089574.797 7  80549629.98707
R20  23123898.776 5 123653832.11305  23123882.849 6  96175183.85906  23123883.451 6  96175181.87706  23123911.387 6  92715876.45606
> 2026 05 04 11 24 13.0000000  0 42
C01                                                                  37105198.055 7 193216508.62407                                  37105189.496 7 157004200.86807
C02                                                                  37993344.300 7 197841318.58907                                  37993323.856 6 160762188.91906
C03                                                                  36658552.597 7 190890708.05307                                  36658535.239 7 155114260.24707
C04                                                                  37999937.448 7 197875651.25007                                  37999920.349 6 160790099.34406
C06  36325362.664 7 190891073.23207  36325353.468 7 142548485.97407  36325363.719 8 189155701.48508                                  36325353.980 7 153704461.31407
C07  37179600.086 7 195380121.54207  37179592.763 6 145900704.98406  37179600.545 7 193603945.28007                                  37179592.135 7 157319035.18807
C08  40308321.253 5 211821682.83005  40308334.208 4 158178560.16404  40308322.588 5 209896024.00905                                  40308329.035 5 170557745.36005
C09                                                                  37337046.975 7 194423806.15907  37337036.228 7 150340775.37607  37337040.254 6 157985237.94706
C10                                                                  38088887.718 7 198338855.01507  38088879.986 6 153368163.80506  38088881.487 6 161166549.65206
C13  23559238.718 7 123804642.47807  23559232.035 6  92451481.06606  23559240.694 7 122679147.38507                                  23559233.968 7  99686824.56507
C14  24683255.533 6 129711380.04506  24683268.695 6  96862439.13106  24683256.618 7 128532194.26407                                  24683239.849 6 104442862.25506
C21                                                                  26897328.736 5 140061449.14805                                  26897320.015 5 113811364.99105
C24  23565363.156 7 123836821.44407  23565357.563 7  92475522.95107  23565364.795 7 122711072.79707                                  23565357.728 7  99712776.45307
C26  24098778.644 7 126639935.41607  24098771.761 6  94568751.91906  24098779.244 7 125488674.88907                                  24098773.043 7 101969803.13007
C27  26135616.846 6 137343591.87206  26135615.624 5 102561760.74905  26135622.172 6 136095031.29106                                  26135614.592 6 110588340.99206
C28  23767209.097 6 124897529.67306  23767204.369 6  93267610.83706  23767211.861 7 123762112.18707                                  23767204.583 6 100566823.09706
C33  22959415.918 7 120652549.35607  22959433.275 7  90097743.04607  22959417.123 8 119555711.66308                                  22959421.628 7  97148830.95507
C38  23788327.935 6 125008500.58906  23788329.115 6  93350511.26706  23788330.455 7 123872063.16007                                  23788327.026 6 100656176.42606
C41  26052042.040 6 136904392.26806  26052051.401 6 102233841.74006  26052042.582 6 135659837.39106                                  26052046.425 6 110234747.59206
C42  23397085.309 7 122952513.00707  23397088.255 7  91815196.23107  23397086.651 7 121834770.49007                                  23397086.928 7  99000732.83007
E07  24369102.998 7 128060505.99107  24369097.115 7  95629569.32707  24369092.835 7  98124239.30507  24369096.922 8  96876911.85508
E08  28470318.754 6 149612535.91706  28470315.168 4 111723638.13504  28470311.045 5 114638149.15905  28470314.702 5 113180902.18205
E13  26176910.383 6 137560576.97106  26176919.796 6 102723820.21506  26176913.990 6 105403557.36306  26176918.343 7 104063693.82907
E19  26071931.111 5                  26071934.535 5 102311895.40205  26071929.373 6 104980883.15806  26071933.551 6 103646396.31906
E26  23220961.598 7 122026974.82507  23220954.236 7  91124007.67607  23220950.262 8  93501139.30408  23220953.979 8  92312584.03108
E29  23829157.701 7 125223072.24807  23829150.560 7  93510708.96607  23829146.711 7  95950103.15907  23829150.299 8  94730415.10308
E33  24756413.665 7 130095838.08007  24756406.293 7  97149459.59207  24756402.156 7  99683776.73107  24756406.153 7  98416627.70107
G05  22796956.352 6 119798809.10606  22796956.151 5  22796944.164 5  93349659.98805  22796951.080 6  93349714.87406
G10  25293322.197 6 132917308.28306  25293321.893 4  25293337.695 4 103571933.42704  25293318.948 5 103571908.59405  25293317.719 6  99256408.96906
G15  20609485.254 7 108303572.64007  20609485.049 6  20609492.115 6  84392331.61906  20609475.444 6  84392351.75706
G18  20607115.588 7 108291126.01807  20607115.566 5  20607123.210 5  84382627.55905  20607106.379 7  84382673.67707  20607110.013 7  80866721.38107
G20  22610065.321 6 118816700.28506  22610065.237 3  22610064.715 3  92584368.32703  22610057.020 6  92584406.34506  22610060.475 6  88726731.78706
G21  25006392.997 5 131409457.54705  25006392.756 1  25006396.032 1 102396967.55401                                  25006406.802 5  98130506.72605
G23  21876341.849 7 114960958.58507  21876341.724 4  21876351.637 4  89579899.36904  21876332.663 6  89579924.50506  21876337.282 7  85847443.55107
G24  19945068.309 7 104812049.69407  19945068.135 6  19945080.003 6  81671664.87806  19945061.235 7  81671702.04907  19945061.067 7  78268701.43207
R04  20506054.573 6 109809009.86406  20506040.113 7  85406937.89407  20506040.463 7  85406936.91507  20506024.566 7  82219398.46707
R05  22894919.050 5 122386503.83005  22894924.424 6  95189495.38706  22894923.981 6  95189515.39206  22894907.996 6  91797697.72706
R12  24470935.775 3                                                  24470938.946 4                  24470925.967 4  98116763.93604
R14  21902874.264 5 116754704.99905  21902886.863 7  90809234.25107  21902886.628 7  90809292.26907
R18  20979614.465 5 111990596.50705  20979620.577 7  87103808.60007  20979620.556 7  87103804.59407
R19  20089607.680 6 107465884.96306  20089598.660 7  83584518.86507  20089598.833 7  83584518.86507  20089625.590 7  80549833.42307
R20  23123333.725 5 123650818.34705  23123319.237 6  96172839.84206  23123319.856 6  96172837.85206  23123347.833 6  92713616.76106
> 2026 05 04 11 24 14.0000000  0 42
C01                                                                  37105270.151 7 193216883.96307                                  37105261.494 7 157004505.85307
C02                                                                  37993409.456 7 197841657.36107                                  37993388.950 6 160762464.21906
C03                                                                  36658620.749 7 190891062.15907                                  36658603.167 7 155114547.99307
C04                                                                  38000009.683 7 197876027.47607                                  37999992.490 6 160790405.08006
C06  36325347.612 7 190890993.99007  36325338.432 7 142548426.80007  36325348.630 8 189155622.96208                                  36325338.889 7 153704397.49707
C07  37179421.020 7 195379180.75907  37179413.776 6 145900002.44806  37179421.611 7 193603013.05107                                  37179413.025 7 157318277.68007
C08  40308707.073 5 211823710.75205  40308721.239 4 158180074.51204  40308708.672 5 209898033.44705                                  40308715.034 5 170559378.22105
C09                                                                  37337010.775 7 194423616.81007  37336999.935 7 150340628.96107  37337003.814 6 157985084.07906
C10                                                                  38088697.283 7 198337863.29307  38088690.047 6 153367396.96306  38088691.003 6 161165743.80906
C13  23559575.545 7 123806412.24207  23559568.814 6  92452802.64106  23559577.468 7 122680901.05707                                  23559570.683 7  99688249.57307
C14  24683647.115 6 129713437.16306  24683660.201 6  96863975.27406  24683648.034 7 128534232.67707                                  24683631.308 6 104444518.63406
C21                                                                  26897764.037 5 140063714.77205                                  26897754.948 5 113813206.04005
C24  23565023.413 7 123835036.33507  23565017.839 7  92474189.92907  23565025.205 7 122709303.90107                                  23565017.922 7  99711339.09807
C26  24098882.718 6 126640482.26506  24098875.806 6  94569160.29006  24098883.258 7 125489216.75807                                  24098877.047 7 101970243.45107
C27  26135316.684 6 137342013.31006  26135315.187 5 102560581.95505  26135321.592 6 136093467.08406                                  26135314.271 6 110587069.94706
C28  23767251.955 6 124897754.52706  23767247.090 6  93267778.73806  23767254.693 7 123762334.99207                                  23767247.369 6 100567004.14206
C33  22959338.408 7 120652142.01407  22959355.818 7  90097438.87007  22959339.632 8 119555308.02208                                  22959344.075 7  97148502.96807
C38  23788868.231 6 125011340.00506  23788869.455 6  93352631.59806  23788870.905 7 123874876.76307                                  23788867.322 6 100658462.70806
C41  26051765.149 6 136902936.92306  26051774.453 6 102232754.96206  26051765.426 6 135658395.26906                                  26051769.363 6 110233575.76206
C42  23397365.685 7 122953986.90807  23397368.760 7  91816296.87607  23397367.078 7 121836230.99107                                  23397367.365 7  99001919.60707
E07  24369478.522 7 128062479.29107  24369472.628 7  95631042.89907  24369468.365 7  98125751.30407  24369472.440 8  96878404.63908
E08  28470826.780 6 149615205.42806  28470822.720 5 111725631.61405  28470818.741 5 114640194.60505  28470822.705 5 113182921.65005
E13  26177515.062 6 137563754.17306  26177524.415 6 102726192.78406  26177518.534 6 105405991.82406  26177522.964 7 104066097.34707
E19  26071634.227 5                  26071637.982 5 102310731.32905  26071632.671 6 104979688.72606  26071636.863 6 103645217.06806
E26  23221187.094 7 122028159.65507  23221179.650 7  91124892.44407  23221175.729 8  93502047.15908  23221179.451 8  92313480.34308
E29  23829138.767 7 125222972.77007  23829131.631 7  93510634.69407  23829127.795 7  95950026.93607  23829131.379 8  94730339.85108
E33  24756133.303 7 130094364.80407  24756125.884 7  97148359.42607  24756121.799 7  99682647.86107  24756125.791 7  98415513.18207
G05  22797438.934 6 119801345.10806  22797438.733 5  22797426.648 5  93351636.08105  22797434.141 6  93351690.96106
G10  25292878.704 6 132914976.70906  25292878.396 4  25292894.164 4 103570116.63404  25292875.111 5 103570091.75705  25292874.195 6  99254667.86906
G15  20609835.583 7 108305413.40707  20609835.382 6  20609842.480 6  84393765.98306  20609826.113 6  84393786.11006
G18  20607125.097 7 108291175.70707  20607125.071 5  20607132.757 5  84382666.27705  20607116.074 7  84382712.39907  20607119.424 7  80866758.48907
G20  22610580.066 6 118819405.46606  22610579.986 3  22610579.185 3  92586476.25503  22610572.238 6  92586514.26606  22610575.310 6  88728751.88006
G21  25006951.656 5 131412390.77005  25006951.393 1  25006954.193 1 102399253.13601                                  25006965.145 5  98132697.12005
G23  21875962.468 7 114958964.40607  21875962.348 4  21875972.162 4  89578345.46604  21875953.615 6  89578370.59906  21875957.834 7  85845954.39707
G24  19944924.293 7 104811292.86707  19944924.119 6  19944936.048 6  81671075.14806  19944917.597 7  81671112.31507  19944917.044 7  78268136.28007
R04  20506086.575 7 109809183.08907  20506072.398 7  85407072.63907  20506072.746 7  85407071.65307  20506056.953 7  82219528.16907
R05  22894645.708 5 122385046.93805  22894651.740 6  95188362.18906  22894651.225 6  95188382.18406  22894635.515 6  91796604.90806
R12  24471489.693 3                                                  24471492.926 4                  24471479.800 4  98118985.73804
R14  21902352.246 5 116751924.57205  21902365.190 7  90807071.70807  21902365.161 7  90807129.73307
R18  20980364.094 5 111994601.93005  20980370.840 6  87106923.91906  20980370.838 6  87106919.92306
R19  20089658.809 6 107466157.90206  20089649.609 7  83584731.13507  20089649.887 7  83584731.15107  20089676.594 7  80550037.92007
R20  23122768.809 5 123647805.62205  23122755.875 6  96170496.61606  23122756.171 6  96170494.61606  23122784.522 6  92711357.81206
> 2026 05 04 11 24 15.0000000  0 42
C01                                                                  37105342.439 7 193217260.17607                                  37105333.711 7 157004811.56207
C02                                                                  37993474.634 7 197841997.03207                                  37993454.199 6 160762740.21706
C03                                                                  36658688.937 7 190891417.15307                                  36658671.297 7 155114836.45207
C04                                                                  38000082.177 7 197876404.59607                                  38000064.823 6 160790711.51106
C06  36325332.666 7 190890915.59607  36325323.521 7 142548368.25607  36325333.719 8 189155545.28108                                  36325323.915 7 153704334.37607
C07  37179242.205 7 195378240.99307  37179234.898 6 145899300.67206  37179242.785 7 193602081.82307                                  37179234.160 7 157317520.97707
C08  40309092.891 5 211825739.43205  40309107.282 5 158181589.43905  40309095.047 5 209900043.70105                                  40309101.107 5 170561011.74605
C09                                                                  37336974.504 7 194423428.26907  37336963.791 7 150340483.16107  37336967.495 6 157984930.87506
C10                                                                  38088507.112 7 198336872.56107  38088499.750 6 153366630.86406  38088500.759 6 161164938.76506
C13  23559912.527 7 123808183.33807  23559905.867 6  92454125.21306  23559914.597 7 122682656.05807                                  23559907.648 7  99689675.64807
C14  24684038.773 6 129715495.19606  24684051.749 6  96865512.11606  24684039.662 7 128536271.99907                                  24684022.977 6 104446175.75006
C21                                                                  26898199.378 5 140065981.25305                                  26898189.971 5 113815047.76505
C24  23564683.866 7 123833252.41307  23564678.409 7  92472857.79207  23564685.797 7 122707536.20907                                  23564678.369 7  99709902.70807
C26  24098987.083 6 126641030.53206  24098980.138 6  94569569.70506  24098987.580 7 125489760.03607                                  24098981.304 7 101970684.91307
C27  26135016.762 6 137340436.04606  26135015.003 5 102559404.13705  26135021.339 6 136091904.15506                                  26135014.089 6 110585799.94106
C28  23767295.065 6 124897980.78306  23767290.184 6  93267947.70406  23767297.770 7 123762559.19907                                  23767290.410 6 100567186.33306
C33  22959261.055 7 120651735.62907  22959278.556 7  90097135.40307  22959262.286 8 119554905.34108                                  22959266.686 7  97148175.74807
C38  23789408.847 6 125014180.52006  23789409.984 6  93354752.76606  23789411.411 7 123877691.47207                                  23789407.790 6 100660749.87606
C41  26051488.494 6 136901482.50706  26051497.671 6 102231668.89006  26051488.636 6 135656954.06506                                  26051492.517 6 110232404.67606
C42  23397646.274 7 122955461.74507  23397649.391 7  91817398.21107  23397647.778 7 121837692.42207                                  23397647.970 7  99003107.13707
E07  24369854.252 7 128064453.55907  24369848.362 7  95632517.18907  24369844.053 7  98127264.05607  24369848.119 8  96879898.16108
E08  28471334.927 6 149617875.69706  28471331.145 5 111727625.64305  28471326.885 5 114642240.66205  28471330.847 5 113184941.70105
E13  26178119.885 6 137566932.44506  26178129.146 6 102728566.15606  26178123.303 6 105408427.11106  26178127.769 7 104068501.67507
E19  26071337.942 5                  26071341.607 5 102309568.07905  26071336.183 6 104978495.11606  26071340.395 6 103644038.64506
E26  23221412.825 7 122029345.80507  23221405.355 7  91125778.20707  23221401.426 8  93502956.03008  23221405.165 8  92314377.66308
E29  23829120.065 7 125222874.41807  23829112.966 7  93510561.24107  23829109.076 7  95949951.57807  23829112.643 8  94730265.44908
E33  24755853.218 7 130092892.73607  24755845.747 7  97147260.15907  24755841.619 7  99681519.91307  24755845.653 7  98414399.57607
G05  22797921.853 6 119803882.25206  22797921.657 5  22797909.373 5  93353613.06805  22797917.030 6  93353667.96706
G10  25292435.165 6 132912645.86806  25292434.857 4  25292450.726 4 103568300.40104  25292431.768 5 103568275.51505  25292430.590 6  99252927.29706
G15  20610186.085 7 108307255.27707  20610185.880 6  20610193.015 6  84395201.20606  20610176.818 6  84395221.34606
G18  20607134.947 7 108291226.96007  20607134.925 5  20607142.603 5  84382706.21405  20607126.234 7  84382752.33407  20607129.216 7  80866796.76107
G20  22611095.136 6 118822111.55306  22611095.052 3  22611093.868 3  92588584.89703  22611087.591 6  92588622.91906  22611090.283 6  88730772.66306
G21  25007509.875 5 131415325.03705  25007509.634 1  25007512.600 1 102401539.59801                                  25007523.578 5  98134888.28305
G23  21875583.222 7 114956971.19807  21875583.097 4  21875592.794 4  89576792.31604  21875574.481 6  89576817.46706  21875578.559 7  85844465.96407
G24  19944780.577 7 104810537.61007  19944780.403 6  19944792.352 6  81670486.63906  19944773.957 7  81670523.81407  19944773.396 7  78267572.29407
R04  20506119.007 6 109809357.33506  20506105.000 7  85407208.16007  20506105.342 7  85407207.17307  20506089.530 7  82219658.63307
R05  22894374.080 5 122383590.96105  22894379.405 6  95187229.78606  22894378.711 6  95187249.80806  22894363.136 6  91795512.88406
R12  24472045.511 4                                                  24472047.175 4                  24472034.192 4  98121208.61104
R14  21901830.891 5 116749145.37805  21901843.777 7  90804910.11907  21901843.957 7  90804968.14607
R18  20981114.272 5 111998608.68805  20981121.442 7  87110040.29207  20981121.639 7  87110036.28907
R19  20089710.347 6 107466432.63706  20089701.038 7  83584944.83907  20089701.185 7  83584944.84507  20089728.001 7  80550243.78707
R20  23122203.426 5 123644794.23105  23122192.791 6  96168154.43706  23122193.126 6  96168152.44806  23122221.361 6  92709099.88506
> 2026 05 04 11 24 16.0000000  0 42
C01                                                                  37105414.821 7 193217637.11007                                  37105406.093 7 157005117.85007
C02                                                                  37993540.112 7 197842337.42307                                  37993519.485 6 160763016.80706
C03                                                                  36658757.344 7 190891772.87207                                  36658739.547 7 155115125.49907
C04                                                                  38000154.885 7 197876782.42707                                  38000137.366 6 160791018.52906
C06  36325317.839 7 190890837.89307  36325308.720 7 142548310.22807  36325318.953 8 189155468.28808                                  36325309.099 7 153704271.80607
C07  37179063.565 7 195377302.06707  37179056.242 6 145898599.54406  37179064.139 7 193601151.44407                                  37179055.448 7 157316764.97407
C08  40309478.828 5 211827768.78205  40309493.706 4 158183104.89904  40309480.807 5 209902054.59205                                  40309487.620 5 170562645.78205
C09                                                                  37336938.387 7 194423240.37307  37336927.793 7 150340337.85307  37336931.339 6 157984778.18006
C10                                                                  38088316.967 7 198335882.64107  38088309.542 6 153365865.37606  38088310.528 6 161164134.35906
C13  23560249.777 7 123809955.59907  23560243.109 6  92455448.63906  23560251.912 7 122684412.20107                                  23560244.957 7  99691102.65907
C14  24684430.537 6 129717553.97406  24684443.542 6  96867049.51106  24684431.432 7 128538312.07607                                  24684414.706 6 104447833.47006
C21                                                                  26898634.817 5 140068248.51205                                  26898625.295 5 113816890.02205
C24  23564344.586 7 123831469.53207  23564339.146 7  92471526.42907  23564346.505 7 122705769.54007                                  23564339.094 7  99708467.14907
C26  24099091.487 6 126641580.05506  24099084.664 6  94569980.06706  24099092.256 7 125490304.57707                                  24099085.811 7 101971127.39307
C27  26134716.938 6 137338859.87606  26134715.063 5 102558227.13105  26134721.631 6 136090342.33606                                  26134714.212 6 110584530.82206
C28  23767338.358 6 124898208.31106  23767333.422 6  93268117.59606  23767341.102 7 123762784.65307                                  23767333.665 6 100567369.52006
C33  22959183.848 7 120651330.05707  22959201.355 7  90096832.53707  22959185.164 7 119554503.45007                                  22959189.496 7  97147849.17607
C38  23789949.676 6 125017021.99406  23789950.693 6  93356874.60806  23789952.080 7 123880507.10507                                  23789948.405 6 100663037.80506
C41  26051211.933 6 136900028.82506  26051220.906 6 102230583.33706  26051212.211 6 135655513.60406                                  26051215.978 6 110231234.17506
C42  23397927.044 7 122956937.35407  23397930.285 7  91818500.12307  23397928.630 7 121839154.61907                                  23397928.781 7  99004295.28707
E07  24370230.164 7 128066428.64407  24370224.255 7  95633992.09207  24370219.849 7  98128777.42507  24370223.946 8  96881392.29508
E08  28471843.196 6 149620546.59806  28471839.445 5 111729620.15005  28471835.047 5 114644287.20005  28471839.069 6 113186962.21606
E13  26178724.931 6 137570111.62006  26178734.179 6 102730940.21906  26178728.209 6 105410863.09606  26178732.730 7 104070906.69707
E19  26071041.580 5                  26071045.268 5 102308405.49705  26071039.901 6 104977302.19106  26071044.087 6 103642860.88306
E26  23221638.778 7 122030533.13107  23221631.252 7  91126664.83907  23221627.309 8  93503865.78708  23221631.085 8  92315275.85308
E29  23829101.565 7 125222777.03307  23829094.452 7  93510488.52307  23829090.465 7  95949876.94807  23829094.095 8  94730191.77108
E33  24755573.252 7 130091421.72407  24755565.854 7  97146161.66007  24755561.607 7  99680392.75807  24755565.716 7  98413286.74907
G05  22798404.931 6 119806420.40806  22798404.735 5  22798392.322 5  93355590.84605  22798399.929 6  93355645.73806
G10  25291991.852 6 132910315.62806  25291991.544 4  25292007.302 4 103566484.63404  25291988.334 5 103566459.76005  25291987.470 6  99251187.19606
G15  20610536.797 7 108309098.09307  20610536.596 6  20610543.711 6  84396637.16806  20610527.486 6  84396657.29906
G18  20607144.999 7 108291279.62307  20607144.973 5  20607152.727 5  84382747.25305  20607136.236 7  84382793.38407  20607139.331 7  80866836.09007
G20  22611610.316 6 118824818.40006  22611610.232 3  22611608.731 3  92590694.13503  22611602.799 6  92590732.14206  22611605.350 6  88732794.01406
G21  25008068.718 5 131418260.16805  25008068.508 1  25008071.079 1 102403826.68001                                  25008082.116 5  98137080.09005
G23  21875204.083 7 114954978.79207  21875203.958 4  21875213.591 4  89575239.79704  21875195.440 7  89575264.94307  21875199.425 7  85842978.11707
G24  19944637.129 7 104809783.77907  19944636.955 6  19944648.907 6  81669899.24206  19944630.663 7  81669936.41607  19944629.944 7  78267009.36107
R04  20506151.334 6 109809532.46806  20506137.724 7  85407344.37007  20506137.897 7  85407343.38307  20506122.254 7  82219789.75907
R05  22894102.039 5 122382135.94705  22894107.070 6  95186098.09206  22894106.769 6  95186118.09406  22894090.954 6  91794421.49206
R12  24472600.538 4                                                  24472600.838 4                  24472588.900 4  98123432.47304
R14  21901309.670 5 116746367.26405  21901322.565 7  90802749.38807  21901322.926 7  90802807.40307
R18  20981864.268 5 112002616.62105  20981872.299 7  87113157.52607  20981872.216 7  87113153.55907
R19  20089762.533 6 107466709.11906  20089752.729 7  83585159.86107  20089752.961 7  83585159.86707  20089779.739 7  80550450.90207
R20  23121639.198 5 123641784.14105  23121629.903 6  96165813.24906  23121630.267 6  96165811.22706  23121658.354 6  92706842.88706
> 2026 05 04 11 24 17.0000000  0 42
C01                                                                  37105487.319 7 193218014.42307                                  37105478.524 7 157005424.44707
C02                                                                  37993605.546 7 197842678.19707                                  37993584.811 6 160763293.72406
C03                                                                  36658825.867 7 190892128.97507                                  36658807.909 7 155115414.86307
C04                                                                  38000227.522 7 197877160.64807                                  38000209.963 6 160791325.87606
C06  36325303.075 7 190890760.53307  36325294.066 7 142548252.47207  36325304.327 8 189155391.62808                                  36325294.354 7 153704209.52207
C07  37178885.033 7 195376363.66107  37178877.721 6 145897898.78406  37178885.563 7 193600221.56407                                  37178876.813 7 157316009.37807
C08  40309864.921 5 211829798.40805  40309879.798 5 158184620.51405  40309866.796 5 209904065.80505                                  40309873.915 5 170564280.02205
C09                                                                  37336902.378 7 194423052.77807  37336891.781 7 150340192.80907  37336895.245 6 157984625.74906
C10                                                                  38088126.913 7 198334893.19207  38088119.437 6 153365100.31606  38088120.573 6 161163330.36306
C13  23560587.067 7 123811728.65907  23560580.460 6  92456772.68806  23560589.428 7 122686169.14407                                  23560582.386 7  99692530.31307
C14  24684822.334 6 129719613.17006  24684835.351 6  96868587.23306  24684823.339 7 128540352.54107                                  24684806.588 6 104449491.51506
C21                                                                  26899070.107 5 140070516.05705                                  26899060.666 5 113818732.64505
C24  23564005.452 7 123829687.35907  23563999.975 7  92470195.59207  23564007.433 7 122704003.55807                                  23563999.911 7  99707032.15607
C26  24099196.134 6 126642130.49506  24099189.438 6  94570391.11106  24099196.916 7 125490849.99307                                  24099190.544 7 101971570.59807
C27  26134417.306 6 137337284.52206  26134415.361 5 102557050.74105  26134421.714 6 136088781.28406                                  26134414.331 6 110583262.36106
C28  23767381.796 6 124898436.72306  23767376.817 6  93268288.18006  23767384.526 7 123763010.99607                                  23767377.089 6 100567553.45506
C33  22959106.749 7 120650924.93207  22959124.206 7  90096530.01207  22959108.024 8 119554102.00708                                  22959112.457 7  97147522.98207
C38  23790490.484 6 125019864.06206  23790491.597 6  93358996.93306  23790492.874 7 123883323.33407                                  23790489.181 6 100665326.23406
C41  26050935.430 6 136898575.52906  26050944.363 6 102229498.10906  26050935.795 6 135654073.53306                                  26050939.365 6 110230063.99006
C42  23398207.914 7 122958413.39807  23398211.126 7  91819602.36007  23398209.491 7 121840617.25107                                  23398209.654 7  99005483.79607
E07  24370606.110 7 128068404.20607  24370600.154 7  95635467.35107  24370595.777 7  98130291.17907  24370599.879 8  96882886.80408
E08  28472351.510 6 149623217.77906  28472347.673 5 111731614.86205  28472343.382 5 114646333.96305  28472347.376 5 113188982.96205
E13  26179330.093 6 137573291.38106  26179339.278 6 102733314.71506  26179333.291 6 105413299.54206  26179337.835 7 104073312.16807
E19  26070745.107 5                  26070749.000 5 102307243.32605  26070743.778 6 104976109.71606  26070747.931 6 103641683.56606
E26  23221864.817 7 122031721.28407  23221857.340 7  91127552.09607  23221853.396 8  93504776.19508  23221857.184 8  92316174.68708
E29  23829083.175 7 125222680.26407  23829076.048 7  93510416.26107  23829072.055 7  95949802.81007  23829075.658 8  94730118.57408
E33  24755293.465 7 130089951.40707  24755286.104 7  97145063.70907  24755281.872 7  99679266.17407  24755285.913 7  98412174.48307
G05  22798888.066 6 119808959.21106  22798887.870 5  22798875.422 5  93357569.12605  22798882.857 6  93357624.02706
G10  25291548.504 6 132907985.65006  25291548.191 4  25291563.941 4 103564669.07404  25291545.293 5 103564644.18205  25291544.282 6  99249447.27606
G15  20610887.589 7 108310941.50807  20610887.388 6  20610894.518 6  84398073.59606  20610878.315 6  84398093.72306
G18  20607155.208 7 108291333.36107  20607155.182 5  20607162.994 5  84382789.12505  20607146.365 7  84382835.25307  20607149.515 7  80866876.22107
G20  22612125.448 6 118827525.66706  22612125.372 3  22612123.611 3  92592803.69903  22612117.926 6  92592841.69606  22612120.562 6  88734815.65806
G21  25008627.574 5 131421195.85405  25008627.338 1  25008629.733 1 102406114.22601                                  25008640.617 5  98139272.32305
G23  21874824.994 7 114952986.83607  21874824.869 4  21874834.451 4  89573687.62804  21874816.214 7  89573712.76207  21874820.344 7  85841490.63607
G24  19944493.794 7 104809031.00807  19944493.620 6  19944505.663 6  81669312.67106  19944487.439 7  81669349.84207  19944486.685 7  78266447.23307
R04  20506183.774 6 109809708.15006  20506170.492 6  85407481.03006  20506170.533 7  85407480.03707  20506155.016 7  82219921.30907
R05  22893830.021 5 122380681.33405  22893834.931 6  95184966.82906  22893834.745 6  95184986.80706  22893818.784 6  91793330.49306
R12  24473154.786 4                                                  24473155.194 4                  24473143.986 4  98125657.04004
R14  21900789.249 5 116743589.87705  21900801.545 6  90800589.28006  21900801.970 7  90800647.29507
R18  20982615.423 5 112006625.37905  20982623.335 6  87116275.47106  20982623.389 7  87116271.47007
R19  20089815.104 6 107466986.90206  20089804.663 6  83585375.93706  20089804.954 7  83585375.94807  20089831.676 7  80550659.04507
R20  23121075.129 5 123638774.92305                                  23121067.788 6  96163470.73406  23121095.604 6  92704586.56506
> 2026 05 04 11 24 18.0000000  0 42
C01                                                                  37105559.889 7 193218392.48407                                  37105551.192 7 157005731.65107
C02                                                                  37993671.162 7 197843019.71907                                  37993650.383 6 160763571.23606
C03                                                                  36658894.484 7 190892485.82907                                  36658876.446 7 155115704.83807
C04                                                                  38000300.361 7 197877539.63007                                  38000282.676 6 160791633.81906
C06  36325288.531 7 190890683.89207  36325279.486 7 142548195.22707  36325289.679 8 189155315.68108                                  36325279.791 7 153704147.79807
C07  37178706.591 7 195375426.13007  37178699.294 6 145897198.68806  37178707.108 7 193599292.55207                                  37178698.458 7 157315254.48107
C08  40310251.059 5 211831828.69205  40310266.296 4 158186136.67304  40310252.862 5 209906077.63305                                  40310260.048 5 170565914.83505
C09                                                                  37336866.417 7 194422865.83207  37336855.892 7 150340048.24107  37336859.288 6 157984473.83706
C10                                                                  38087937.180 7 198333904.58407  38087929.692 6 153364335.85006  38087930.571 6 161162527.04906
C13  23560924.626 7 123813502.92307  23560918.190 6  92458097.61306  23560927.016 7 122687927.28707                                  23560919.961 7  99693958.93407
C14  24685214.352 6 129721673.15006  24685227.243 6  96870125.51006  24685215.253 7 128542393.79307                                  24685198.489 6 104451150.19506
C21                                                                  26899506.002 5 140072784.37705                                  26899495.937 5 113820575.86205
C24  23563666.439 7 123827906.23907  23563661.024 7  92468865.54707  23563668.555 7 122702238.63907                                  23563660.899 7  99705598.01307
C26  24099301.023 7 126642682.18907  24099294.376 6  94570803.09906  24099301.915 7 125491396.69007                                  24099295.455 7 101972014.82307
C27  26134117.753 6 137335710.33506  26134115.745 5 102555875.18605  26134122.026 6 136087221.38806                                  26134114.636 6 110581994.79406
C28  23767425.485 7 124898666.42207  23767420.513 6  93268459.68406  23767428.227 7 123763238.60107                                  23767420.836 6 100567738.39606
C33  22959029.834 7 120650520.62707  22959047.240 7  90096228.09307  22959031.108 8 119553701.37908                                  22959035.516 7  97147197.43207
C38  23791031.447 6 125022707.09306  23791032.569 6  93361119.97906  23791033.834 7 123886140.53007                                  23791030.190 6 100667615.40606
C41  26050658.909 6 136897123.00306  26050668.022 6 102228413.41206  26050659.565 6 135652634.21006                                  26050662.932 6 110228894.43506
C42  23398488.980 7 122959890.26007  23398492.173 7  91820705.20607  23398490.502 7 121842080.68407                                  23398490.701 7  99006672.94407
E07  24370982.161 7 128070380.61207  24370976.266 7  95636943.23407  24370971.868 7  98131805.55207  24370975.974 8  96884381.92908
E08  28472859.979 6 149625889.59306  28472856.174 5 111733610.04505  28472851.802 5 114648381.20805  28472855.768 6 113191004.16806
E13  26179935.337 6 137576472.10006  26179944.665 6 102735689.88906  26179938.524 6 105415736.67906  26179943.109 7 104075718.32907
E19  26070448.867 5                  26070453.056 5 102306081.87605  26070447.805 6 104974917.95606  26070451.946 6 103640506.95806
E26  23222091.120 7 122032910.63707  23222083.660 7  91128440.25607  23222079.718 8  93505687.50608  23222083.515 8  92317074.41708
E29  23829064.971 7 125222584.48107  23829057.833 7  93510344.73107  23829053.810 7  95949729.40907  23829057.427 8  94730046.10608
E33  24755013.880 7 130088482.17007  24755006.542 7  97143966.53807  24755002.242 7  99678140.37607  24755006.334 7  98411062.99607
G05  22799371.510 6 119811499.02306  22799371.314 5  22799358.697 5  93359548.19505  22799366.061 6  93359603.11406
G10  25291105.254 6 132905656.29506  25291104.937 4  25291120.696 4 103562853.99104  25291102.037 5 103562829.12905  25291101.193 6  99247707.83106
G15  20611238.618 7 108312785.89307  20611238.413 6  20611245.496 6  84399510.77806  20611229.122 6  84399530.93506
G18  20607165.650 7 108291388.53107  20607165.624 5  20607173.534 5  84382832.11305  20607157.008 7  84382878.25907  20607160.012 7  80866917.41407
G20  22612640.656 6 118830233.70306  22612640.580 3  22612638.617 3  92594913.85503  22612633.177 7  92594951.88007  22612635.941 6  88736837.90206
G21  25009186.797 5 131424132.44305  25009186.565 1  25009188.471 1 102408402.39601                                  25009199.519 5  98141465.21905
G23  21874446.054 7 114950995.70707  21874445.925 4  21874455.499 4  89572136.09804  21874437.400 7  89572161.25607  21874441.434 7  85840003.74907
G24  19944350.778 7 104808279.68507  19944350.604 6  19944362.670 6  81668727.22506  19944344.332 7  81668764.41007  19944343.673 7  78265886.18107
R04  20506216.385 6 109809884.73106  20506203.456 7  85407618.37307  20506203.342 7  85407617.37807  20506187.985 7  82220053.51007
R05  22893557.010 5 122379227.67205  22893563.025 6  95183836.16806  22893562.495 6  95183856.15006  22893546.815 6  91792240.14706
R12  24473709.366 4                                                  24473709.791 4                  24473699.153 4  98127882.63004
R14  21900267.921 5 116740813.66905  21900280.609 7  90798429.98807  21900281.020 7  90798487.99707
R18  20983366.483 5 112010635.32005  20983374.581 7  87119394.33007  20983374.572 6  87119390.30506
R19  20089867.599 6 107467266.39106  20089856.860 7  83585593.32507  20089857.080 7  83585593.30607  20089883.919 7  80550868.46907
R20  23120511.025 5 123635766.94805                                  23120504.904 6  96161131.17806  23120532.940 6  92702331.16506
> 2026 05 04 11 24 19.0000000  0 42
C01                                                                  37105632.638 7 193218771.39907                                  37105623.834 7 157006039.54207
C02                                                                  37993736.993 7 197843362.10007                                  37993716.120 6 160763849.44606
C03                                                                  36658963.110 7 190892843.54007                                  36658945.032 7 155115995.49307
C04                                                                  38000373.221 7 197877919.46207                                  38000355.545 6 160791942.45306
C06  36325274.121 7 190890608.07307  36325265.024 7 142548138.61307  36325275.210 8 189155240.55608                                  36325265.300 7 153704086.74507
C07  37178528.405 7 195374489.59307  37178521.043 6 145896499.32006  37178528.906 7 193598364.52707                                  37178520.197 7 157314500.37807
C08  40310637.563 5 211833859.77105  40310652.697 4 158187653.36604  40310639.225 5 209908090.22905                                  40310646.612 5 170567550.20405
C09                                                                  37336830.618 7 194422679.67207  37336820.247 7 150339904.27907  37336823.537 6 157984322.56006
C10                                                                  38087747.650 7 198332916.93207  38087739.782 6 153363572.14206  38087740.893 6 161161724.51006
C13  23561262.462 7 123815278.47807  23561256.097 6  92459423.51606  23561264.876 7 122689686.69407                                  23561257.762 7  99695388.60107
C14  24685606.462 6 129723734.01406  24685619.328 6  96871664.46506  24685607.475 7 128544435.92107                                  24685590.625 6 104452809.57506
C21                                                                  26899941.164 5 140075053.55905                                  26899931.848 5 113822419.65105
C24  23563327.775 7 123826126.30907  23563322.308 7  92467536.38507  23563329.820 7 122700474.87807                                  23563322.143 7  99704164.81907
C26  24099406.211 6 126643235.29206  24099399.640 6  94571216.12306  24099407.000 7 125491944.75107                                  24099400.677 7 101972460.17307
C27  26133818.484 6 137334137.36206  26133816.320 5 102554700.60205  26133822.739 6 136085662.73206                                  26133815.304 6 110580728.27906
C28  23767469.549 6 124898897.50706  23767464.514 6  93268632.25406  23767472.242 7 123763467.57207                                  23767464.743 6 100567924.44406
C33  22958953.003 7 120650117.26307  22958970.536 7  90095926.87807  22958954.330 8 119553301.67508                                  22958958.693 7  97146872.63307
C38  23791572.761 6 125025551.22506  23791573.610 6  93363243.82106  23791575.085 7 123888958.79107                                  23791571.446 6 100669905.46206
C41  26050382.596 6 136895671.36106  26050391.672 6 102227329.41906  26050383.299 6 135651195.75106                                  26050386.615 6 110227725.56906
C42  23398770.186 7 122961368.02207  23398773.389 7  91821808.74207  23398771.640 7 121843545.00807                                  23398771.856 7  99007862.83307
E07  24371358.451 7 128072357.97007  24371352.611 7  95638419.82007  24371348.147 7  98133320.66607  24371352.163 8  96885877.77808
E08  28473368.695 6 149628562.16706  28473364.883 5 111735605.84105  28473360.325 5 114650429.02105  28473364.272 6 113193025.96706
E13  26180540.671 6 137579653.86306  26180550.191 6 102738065.86906  26180544.013 6 105418174.63906  26180548.500 7 104078125.29307
E19  26070153.020 5                  26070157.361 5 102304921.20205  26070152.060 6 104973726.98706  26070156.081 6 103639331.12906
E26  23222317.718 7 122034101.28807  23222310.213 7  91129329.37607  23222306.303 8  93506599.81808  23222309.998 8  92317975.13208
E29  23829047.023 7 125222489.80607  23829039.855 7  93510274.03107  23829035.796 7  95949656.86207  23829039.322 8  94729974.48008
E33  24754734.494 7 130087014.11407  24754727.144 7  97142870.26907  24754722.861 7  99677015.50207  24754726.898 7  98409952.42107
G05  22799855.092 6 119814039.98406  22799854.896 5  22799842.209 5  93361528.16405  22799849.152 6  93361583.06206
G10  25290662.186 6 132903327.66806  25290661.869 4  25290677.625 4 103561039.49304  25290658.350 5 103561014.63505  25290658.065 6  99245968.93106
G15  20611589.782 7 108314631.35807  20611589.581 6  20611596.684 6  84400948.80406  20611579.910 6  84400968.94206
G18  20607176.386 7 108291445.25307  20607176.360 5  20607184.364 5  84382876.31305  20607167.644 7  84382922.44007  20607170.782 7  80866959.76407
G20  22613156.060 6 118832942.65006  22613155.984 4  22613153.730 4  92597024.73604  22613148.365 6  92597062.72506  22613151.406 6  88738860.79906
G21  25009745.796 5 131427070.02205  25009745.515 1  25009747.406 1 102410691.35101                                  25009758.500 5  98143658.83405
G23  21874067.247 7 114949005.51407  21874067.118 4  21874076.721 4  89570585.30204  21874058.271 7  89570610.45507  21874062.731 7  85838517.56207
G24  19944208.027 7 104807529.90707  19944207.858 6  19944219.958 6  81668142.98706  19944201.164 7  81668180.15607  19944201.025 7  78265326.28507
R04  20506249.919 6 109810062.34706  20506236.578 7  85407756.52607  20506236.349 7  85407755.52207  20506221.064 7  82220186.50007
R05  22893284.750 5 122377775.02405  22893291.312 6  95182706.29806  22893290.685 6  95182726.32306  22893274.982 6  91791150.56906
R12  24474263.981 3                                                  24474265.931 4                  24474254.503 4  98130109.30104
R14  21899747.050 5 116738038.66705  21899760.059 7  90796271.66807  21899760.397 7  90796329.66907
R18  20984117.871 5 112014646.68405  20984126.059 7  87122514.20307  20984125.919 7  87122510.20807
R19  20089921.037 6 107467547.73006  20089909.442 7  83585812.10707  20089909.600 7  83585812.10607  20089936.443 7  80551079.25107
R20  23119946.505 5 123632760.35105                                  23119942.777 6  96158792.68206  23119970.639 6  92700076.79706
> 2026 05 04 11 24 20.0000000  0 42
C01                                                                  37105705.463 7 193219150.93307                                  37105696.677 7 157006347.94907
C02                                                                  37993802.816 7 197843705.10507                                  37993781.925 6 160764128.16506
C03                                                                  36659031.884 7 190893201.87507                                  36659013.761 7 155116286.67007
C04                                                                  38000446.180 7 197878299.91807                                  38000428.464 6 160792251.59806
C06  36325259.785 7 190890532.84107  36325250.629 7 142548082.43107  36325260.903 8 189155166.00308                                  36325250.973 7 153704026.17107
C07  37178350.353 7 195373553.79607  37178342.896 6 145895800.52106  37178350.766 7 193597437.24107                                  37178342.037 7 157313746.88507
C08  40311024.152 5 211835891.40205  40311039.011 4 158189170.44704  40311025.624 5 209910103.36905                                  40311033.191 5 170569186.04205
C09                                                                  37336795.025 7 194422494.05207  37336784.602 7 150339760.74707  37336787.845 6 157984171.74206
C10                                                                  38087558.172 7 198331929.98407  38087550.330 6 153362808.98906  38087551.244 6 161160922.54206
C13  23561600.584 7 123817055.09307  23561594.039 6  92460750.19306  23561602.921 7 122691447.15207                                  23561595.770 7  99696819.11307
C14  24685998.688 6 129725795.51706  24686011.669 6  96873203.91006  24685999.576 7 128546478.68407                                  24685982.894 6 104454469.49406
C21                                                                  26900377.061 5 140077323.29305                                  26900367.771 5 113824264.06105
C24  23562989.346 7 123824347.30107  23562983.733 7  92466207.92507  23562991.322 7 122698712.04507                                  23562983.528 7  99702732.38807
C26  24099511.708 7 126643789.53507  24099505.044 6  94571630.01106  24099512.364 7 125492493.96607                                  24099506.015 7 101972906.45107
C27  26133519.370 6 137332565.43806  26133517.349 5 102553526.73205  26133523.677 6 136084105.10206                                  26133516.193 6 110579462.55006
C28  23767513.787 7 124899129.73907  23767508.702 6  93268805.67106  23767516.424 7 123763697.69107                                  23767508.827 6 100568111.44406
C33  22958876.402 7 120649714.59207  22958893.843 7  90095626.18207  22958877.617 8 119552902.66408                                  22958881.966 7  97146548.40707
C38  23792114.267 6 125028396.18606  23792115.045 6  93365368.29906  23792116.452 7 123891777.88907                                  23792112.826 6 100672196.21006
C41  26050106.497 6 136894220.35206  26050115.603 6 102226245.87206  26050107.194 6 135649757.93406                                  26050110.439 6 110226557.24506
C42  23399051.583 7 122962846.45907  23399054.636 7  91822912.75807  23399053.029 7 121845010.00307                                  23399053.083 7  99009053.25507
E07  24371734.912 7 128074336.03007  24371729.017 7  95639896.94507  24371724.637 7  98134836.31807  24371728.490 8  96887374.16708
E08  28473877.599 6 149631235.28006  28473873.597 5 111737601.97305  28473869.248 5 114652477.23505  28473872.875 6 113195048.14306
E13  26181146.240 6 137582836.42706  26181155.876 6 102740442.45206  26181149.714 6 105420613.21406  26181154.038 7 104080532.87107
E19  26069857.723 5                  26069861.487 5 102303761.11805  26069856.439 6 104972536.63606  26069860.364 6 103638155.91606
E26  23222544.510 7 122035293.01907  23222536.943 7  91130219.29407  23222533.123 8  93507512.95308  23222536.683 8  92318876.66008
E29  23829029.164 7 125222395.98407  23829021.992 7  93510203.97407  23829017.993 7  95949584.97307  23829021.391 8  94729903.50708
E33  24754455.313 7 130085547.00707  24754447.889 7  97141774.69607  24754443.741 7  99675891.35107  24754447.623 7  98408842.55907
G05  22800338.764 6 119816581.82706  22800338.568 5  22800325.891 5  93363508.81605  22800333.070 6  93363563.70206
G10  25290219.047 6 132900999.54606  25290218.730 3  25290234.635 3 103559225.37703  25290215.211 5 103559200.47205  25290215.079 6  99244230.41006
G15  20611941.159 7 108316477.65507  20611940.958 6  20611948.006 6  84402387.47706  20611931.381 6  84402407.60706
G18  20607187.353 7 108291503.27207  20607187.327 5  20607195.449 5  84382921.52505  20607178.507 7  84382967.63907  20607181.839 7  80867003.08907
G20  22613671.797 6 118835652.24506  22613671.721 4  22613668.933 4  92599136.11704  22613663.982 6  92599174.07206  22613666.984 6  88740884.19206
G21  25010305.120 5 131430008.39005  25010304.834 1  25010306.591 1 102412981.00701                                  25010317.694 5  98145853.11105
G23  21873688.617 7 114947016.01007  21873688.483 4  21873698.078 4  89569035.03904  21873679.616 7  89569060.17507  21873684.158 7  85837031.89907
G24  19944065.628 7 104806781.45007  19944065.454 6  19944077.546 6  81667559.77306  19944058.540 7  81667596.92507  19944058.574 7  78264767.36307
R04  20506283.443 6 109810240.72106  20506269.950 7  85407895.23007  20506269.738 7  85407894.25107  20506254.240 7  82220320.06207
R05  22893014.151 5 122376323.10005  22893019.705 6  95181577.04906  22893019.301 6  95181597.06406  22893003.166 6  91790061.54406
R12  24474818.615 4                                                  24474821.973 4                  24474809.899 4  98132336.86104
R14  21899226.317 5 116735264.60405  21899239.710 7  90794114.08107  21899239.916 7  90794172.12307
R18  20984869.810 5 112018659.08105  20984877.712 7  87125634.95607  20984877.672 7  87125630.96007
R19  20089974.636 6 107467830.59206  20089962.350 7  83586032.11607  20089962.562 7  83586032.14607  20089989.190 7  80551291.23807
R20  23119382.479 5 123629754.84505                                  23119380.593 6  96156455.07406  23119408.509 6  92697823.28106
> 2026 05 04 11 24 21.0000000  0 42
C01                                                                  37105778.422 7 193219531.07207                                  37105769.618 7 157006656.84507
C02                                                                  37993868.692 7 197844048.73007                                  37993847.854 6 160764407.39306
C03                                                                  36659100.783 7 190893560.81007                                  36659082.695 7 155116578.33907
C04                                                                  38000519.327 7 197878680.97407                                  38000501.589 6 160792561.26406
C06  36325245.564 7 190890458.17607  36325236.303 7 142548026.67207  36325246.635 8 189155092.01908                                  36325236.731 7 153703966.05407
C07  37178172.426 7 195372618.73707  37178164.895 6 145895102.27606  37178172.760 7 193596510.67807                                  37178164.148 7 157312993.98707
C08  40311411.036 5 211837923.49205  40311425.405 4 158190687.98204  40311412.321 5 209912116.99605                                  40311419.861 5 170570822.32305
C09                                                                  37336759.467 7 194422308.95407  37336748.983 7 150339617.61807  37336752.250 6 157984021.32406
C10                                                                  38087368.745 7 198330943.73707  38087360.952 6 153362046.35406  38087361.885 6 161160121.13306
C13  23561938.985 7 123818832.74807  23561932.113 6  92462077.67206  23561941.144 7 122693208.65007                                  23561934.067 7  99698250.47707
C14  24686391.102 7 129727857.67507  24686404.010 6  96874743.80506  24686391.821 7 128548522.08707                                  24686375.292 6 104456129.92306
C21                                                                  26900812.983 5 140079593.64005                                  26900803.826 5 113826108.93105
C24  23562651.016 7 123822569.22207  23562645.262 7  92464880.14907  23562652.938 7 122696950.13307                                  23562645.142 7  99701300.69107
C26  24099617.440 7 126644344.91507  24099610.655 6  94572044.74906  24099618.043 7 125493044.29107                                  24099611.744 7 101973353.63307
C27  26133220.665 6 137330994.52506  26133218.256 5 102552353.64205  26133224.833 6 136082548.44806                                  26133217.160 6 110578197.66106
C28  23767558.241 7 124899363.09307  23767553.104 6  93268979.93406  23767560.899 7 123763928.93407                                  23767553.255 6 100568299.33306
C33  22958799.877 7 120649312.59507  22958817.267 7  90095325.99907  22958801.114 8 119552504.32508                                  22958805.464 7  97146224.72807
C38  23792655.861 6 125031241.98006  23792656.549 6  93367493.39006  23792657.946 7 123894597.80707                                  23792654.348 6 100674487.60506
C41  26049830.671 6 136892769.96806  26049839.600 6 102225162.78806  26049831.171 6 135648320.73106                                  26049834.324 6 110225389.39606
C42  23399333.117 7 122964325.55707  23399336.066 7  91824017.28107  23399334.404 7 121846475.65207                                  23399334.513 7  99010244.21707
E07  24372111.421 7 128076314.79207  24372105.490 7  95641374.59307  24372101.180 7  98136352.51007  24372104.978 8  96888871.08708
E08  28474386.335 6 149633908.88806  28474382.271 5 111739598.51405  28474378.098 5 114654525.85605  28474381.607 6 113197070.72406
E13  26181752.009 6 137586019.80706  26181761.559 6 102742819.63106  26181755.471 6 105423052.42106  26181759.742 7 104082941.06407
E19  26069562.144 5                  26069565.957 5 102302601.61905  26069560.776 6 104971346.89106  26069564.807 6 103636981.28806
E26  23222771.561 7 122036485.78907  23222763.853 7  91131110.00007  23222760.108 8  93508426.89508  23222763.600 8  92319778.98308
E29  23829011.466 7 125222303.01107  23829004.173 7  93510134.54507  23829000.314 7  95949513.73307  23829003.643 8  94729833.17208
E33  24754176.364 7 130084080.83207  24754168.883 7  97140679.83207  24754164.725 7  99674767.91507  24754168.553 7  98407733.41107
G05  22800822.587 6 119819124.55306  22800822.391 5  22800809.748 5  93365490.15205  22800817.182 6  93365545.03906
G10  25289776.164 6 132898671.91406  25289775.847 3  25289791.640 3 103557411.63503  25289772.367 5 103557386.76805  25289772.121 6  99242492.22606
G15  20612292.693 7 108318324.78507  20612292.492 6  20612299.413 6  84403826.79506  20612282.977 6  84403846.93106
G18  20607198.624 7 108291562.58907  20607198.598 5  20607206.731 5  84382967.74505  20607189.879 7  84383013.85507  20607193.048 7  80867047.38607
G20  22614187.489 6 118838362.47306  22614187.413 4  22614184.171 4  92601247.98204  22614179.742 6  92601285.95106  22614182.680 6  88742908.07306
G21  25010864.258 5 131432947.51605  25010863.963 1  25010865.866 1 102415271.25701                                  25010876.785 5  98148047.87505
G23  21873310.289 7 114945027.19507  21873310.155 4  21873319.510 4  89567485.31304  21873301.267 7  89567510.45407  21873305.652 7  85835546.75207
G24  19943923.503 7 104806034.28407  19943923.334 6  19943935.299 6  81666977.56706  19943916.395 7  81667014.70907  19943916.314 7  78264209.42107
R04  20506316.648 6 109810419.88806  20506303.397 7  85408034.59907  20506303.242 7  85408033.61607  20506287.596 7  82220454.21507
R05  22892740.557 5 122374871.90805  22892748.099 6  95180448.37206  22892747.811 6  95180468.40506  22892731.684 6  91788973.08506
R12  24475375.260 4                                                  24475377.470 4                  24475365.630 4  98134565.31504
R14  21898707.156 5 116732491.51705  21898719.387 7  90791957.29307  21898719.587 7  90792015.32407
R18  20985621.727 5 112022672.54005  20985629.530 6  87128756.55806  20985629.524 6  87128752.53506
R19  20090029.128 6 107468115.04106  20090015.491 7  83586253.34807  20090015.702 7  83586253.35107  20090042.245 7  80551504.39407
R20  23118818.704 5 123626750.45005  23118818.308 6  96154106.35316  23118818.775 6  96154118.35206  23118846.599 6  92695570.58506
> 2026 05 04 11 24 22.0000000  0 42
C01                                                                  37105851.524 7 193219911.75807                                  37105842.630 7 157006966.18807
C02                                                                  37993934.751 7 197844392.90607                                  37993913.985 6 160764687.06106
C03                                                                  36659169.811 7 190893920.30607                                  36659151.786 7 155116870.46707
C04                                                                  38000592.389 7 197879062.60407                                  38000574.865 6 160792871.35706
C06  36325231.473 7 190890384.03707  36325222.111 7 142547971.31907  36325232.463 8 189155018.54908                                  36325222.582 7 153703906.36107
C07  37177994.569 7 195371684.35807  37177987.059 6 145894404.54106  37177994.962 7 193595584.80207                                  37177986.340 7 157312241.64107
C08  40311798.032 5 211839956.05405  40311812.140 5 158192205.83005  40311799.409 5 209914131.14205                                  40311806.339 5 170572458.96105
C09                                                                  37336724.063 7 194422124.32907  37336713.633 7 150339474.87007  37336716.771 6 157983871.31406
C10                                                                  38087179.254 7 198329958.13407  38087171.542 6 153361284.24306  38087172.498 6 161159320.27406
C13  23562277.505 7 123820611.40607  23562270.507 6  92463405.89406  23562279.596 7 122694971.14007                                  23562272.547 7  99699682.64207
C14  24686783.616 6 129729920.40106  24686796.409 6  96876284.17406  24686784.234 7 128550566.06507                                  24686767.740 6 104457790.82606
C21                                                                  26901249.307 5 140081864.53705                                  26901239.628 5 113827954.18905
C24  23562312.793 7 123820792.01307  23562306.957 7  92463553.02507  23562314.744 7 122695189.08707                                  23562306.937 7  99699869.71307
C26  24099723.392 7 126644901.38007  24099716.608 6  94572460.30506  24099723.906 7 125493595.68907                                  24099717.699 7 101973801.70807
C27  26132921.902 6 137329424.56206  26132919.565 5 102551181.30005  26132926.127 6 136080992.76206                                  26132918.260 6 110576933.55406
C28  23767602.848 7 124899597.53907  23767597.706 6  93269155.01006  23767605.584 7 123764161.23507                                  23767597.861 6 100568488.11606
C33  22958723.531 7 120648911.23507  22958740.812 7  90095026.29007  22958724.766 8 119552106.61708                                  22958729.086 7  97145901.56207
C38  23793197.430 6 125034088.54206  23793198.323 6  93369619.05806  23793199.664 7 123897418.50607                                  23793196.051 6 100676779.64806
C41  26049554.809 6 136891320.15806  26049563.566 6 102224080.14006  26049555.352 6 135646884.09306                                  26049558.456 6 110224222.02806
C42  23399614.739 7 122965805.25907  23399617.628 7  91825122.26207  23399616.025 7 121847941.91407                                  23399616.059 7  99011435.67107
E07  24372488.104 7 128078294.19307  24372482.048 7  95642852.72107  24372477.831 7  98137869.20407  24372481.614 8  96890368.50008
E08  28474895.211 6 149636582.94306  28474891.207 5 111741595.37205  28474886.571 5 114656574.81105  28474890.459 6 113199093.63606
E13  26182357.965 6 137589203.90806  26182367.375 6 102745197.41306  26182361.394 6 105425492.20106  26182365.651 7 104085349.84107
E19  26069267.281 5                  26069270.439 5 102301442.67305  26069265.418 6 104970157.73106  26069269.421 6 103635807.24306
E26  23222998.718 7 122037679.57207  23222990.987 7  91132001.46807  23222987.213 8  93509341.61808  23222990.749 8  92320682.08008
E29  23828993.870 7 125222210.83307  23828986.603 7  93510065.72107  23828982.724 7  95949443.11207  23828986.078 8  94729763.45108
E33  24753897.516 7 130082615.53107  24753889.991 7  97139585.63007  24753885.869 7  99673645.17007  24753889.680 7  98406624.93607
G05  22801306.603 6 119821668.11206  22801306.411 5  22801293.756 5  93367472.13705  22801301.167 6  93367527.04306
G10  25289333.302 6 132896344.68806  25289332.985 3  25289348.614 3 103555598.21403  25289329.154 5 103555573.38305  25289329.018 6  99240754.38906
G15  20612644.361 7 108320172.69207  20612644.160 6  20612650.958 6  84405266.72006  20612634.483 6  84405286.86806
G18  20607210.233 7 108291623.13607  20607210.207 5  20607218.210 5  84383014.92205  20607201.427 7  84383061.06307  20607204.505 7  80867092.60807
G20  22614703.390 6 118841073.29406  22614703.314 4  22614699.512 4  92603360.30804  22614695.504 6  92603398.30206  22614698.510 6  88744932.38306
G21  25011423.497 5 131435887.34905  25011423.220 1  25011425.279 1 102417562.06001                                  25011436.257 5  98150243.21405
G23  21872931.943 7 114943039.00307  21872931.809 4  21872941.037 4  89565936.07704  21872923.023 7  89565961.23507  21872927.216 7  85834062.07707
G24  19943781.687 7 104805288.36607  19943781.513 6  19943793.258 6  81666396.33106  19943774.406 7  81666433.50807  19943774.225 7  78263652.41507
R04  20506350.353 6 109810599.73506  20506337.028 7  85408174.49807  20506336.710 7  85408173.51107  20506321.133 7  82220588.89407
R05  22892469.499 5 122373421.41905  22892476.841 6  95179320.25806  22892476.426 6  95179340.27106  22892460.243 6  91787885.15806
R12  24475929.361 3                                                  24475932.152 4                  24475921.626 4  98136794.63304
R14  21898187.242 5 116729719.39005  21898199.324 7  90789801.22707  21898199.662 7  90789859.25307
R18  20986373.617 5 112026686.92805  20986381.532 6  87131878.88506  20986381.586 6  87131874.88906
R19  20090083.668 6 107468400.95206  20090069.030 7  83586475.74507  20090069.182 7  83586475.75607  20090095.652 7  80551718.68907
R20  23118254.623 5 123623747.10505  23118256.636 6  96151770.45106  23118256.877 6  96151782.45306  23118284.971 6  92693318.71506
> 2026 05 04 11 24 23.0000000  0 42
C01                                                                  37105924.716 7 193220293.00407                                  37105915.938 7 157007275.99107
C02                                                                  37994000.909 7 197844737.63807                                  37993980.170 6 160764967.18606
C03                                                                  36659238.920 7 190894280.36807                                  36659220.962 7 155117163.05407
C04                                                                  38000665.572 7 197879444.79407                                  38000648.231 6 160793181.91206
C06  36325217.479 7 190890310.42207  36325208.030 7 142547916.34907  36325218.468 8 189154945.60808                                  36325208.547 7 153703847.08007
C07  37177816.928 7 195370750.68007  37177809.363 6 145893707.31206  37177817.203 7 193594659.60207                                  37177808.656 7 157311489.84507
C08  40312185.023 5 211841989.11105  40312198.793 4 158193724.04304  40312186.227 5 209916145.69205                                  40312193.258 5 170574095.92905
C09                                                                  37336688.715 7 194421940.19707  37336678.177 7 150339332.48807  37336681.449 6 157983721.69306
C10                                                                  38086989.999 7 198328973.18907  38086982.139 6 153360522.63906  38086983.309 6 161158519.92106
C13  23562616.152 7 123822391.05207  23562609.175 6  92464734.86506  23562618.174 7 122696734.60407                                  23562611.163 7  99701115.59907
C14  24687176.307 6 129731983.72506  24687189.030 6  96877824.97506  24687176.814 7 128552610.63507                                  24687160.333 6 104459452.19806
C21                                                                  26901685.501 5 140084135.99905                                  26901675.895 5 113829799.93705
C24  23561974.690 7 123819015.67207  23561968.886 7  92462226.55907  23561976.559 7 122693428.89007                                  23561968.937 7  99698439.41907
C26  24099829.550 7 126645458.93907  24099822.718 6  94572876.65306  24099829.903 7 125494148.18607                                  24099823.787 7 101974250.64207
C27  26132623.470 6 137327855.56206  26132620.775 5 102550009.64605  26132627.594 6 136079438.03406                                  26132619.802 6 110575670.18406
C28  23767647.649 7 124899833.06607  23767642.393 6  93269330.89406  23767650.292 7 123764394.62907                                  23767642.638 6 100568677.76506
C33  22958647.267 7 120648510.50107  22958664.531 7  90094727.05007  22958648.495 8 119551709.53208                                  22958652.828 7  97145578.89807
C38  23793739.103 6 125036935.89106  23793740.207 6  93371745.33106  23793741.541 7 123900239.96307                                  23793737.828 6 100679072.32206
C41  26049279.023 6 136889870.92806  26049287.708 6 102222997.94206  26049279.394 6 135645448.03406                                  26049282.763 6 110223055.11106
C42  23399896.515 7 122967285.57507  23399899.305 7  91826227.69207  23399897.637 7 121849408.77107                                  23399897.799 7  99012627.61807
E07  24372864.923 7 128080274.26107  24372858.801 7  95644331.34807  24372854.524 7  98139386.40007  24372858.407 8  96891866.41208
E08  28475404.259 6 149639257.47206  28475400.060 5 111743592.58105  28475395.524 5 114658624.12705  28475399.388 6 113201116.89406
E13  26182964.059 6 137592388.80906  26182973.348 6 102747575.70706  26182967.357 6 105427932.55406  26182971.717 7 104087759.17007
E19  26068972.082 5                  26068975.291 5 102300284.31205  26068970.014 6 104968969.14106  26068974.222 6 103634633.76506
E26  23223226.039 7 122038874.35407  23223218.258 7  91132893.68107  23223214.477 8  93510257.10608  23223218.100 8  92321585.93108
E29  23828976.405 7 125222119.45407  23828969.180 7  93509997.49007  23828965.206 7  95949373.10407  23828968.679 8  94729694.33208
E33  24753618.852 7 130081151.11807  24753611.278 7  97138492.08407  24753607.145 7  99672523.09407  24753611.004 7  98405517.12707
G05  22801790.810 6 119824212.50106  22801790.618 5  22801777.966 5  93369454.77505  22801785.448 6  93369509.69206
G10  25288890.523 6 132894017.91506  25288890.215 3  25288905.736 3 103553785.15503  25288886.347 5 103553760.30405  25288886.160 6  99239016.86906
G15  20612996.083 7 108322021.38107  20612995.882 6  20613002.696 6  84406707.26706  20612986.251 6  84406727.40806
G18  20607221.941 7 108291684.94507  20607221.915 5  20607229.916 5  84383063.09405  20607213.199 7  84383109.21107  20607216.229 7  80867138.76307
G20  22615219.444 6 118843784.70306  22615219.368 4  22615215.028 4  92605473.10604  22615211.586 6  92605511.08306  22615214.391 6  88746957.14406
G21  25011982.886 5 131438827.90405  25011982.614 1  25011984.858 1 102419853.39301                                  25011995.921 5  98152439.06705
G23  21872553.641 7 114941051.45107  21872553.507 4  21872562.742 4  89564387.34604  21872545.049 6  89564412.49706  21872548.952 7  85832577.87207
G24  19943639.899 7 104804543.70707  19943639.725 6  19943651.481 6  81665816.09006  19943632.913 7  81665853.25407  19943632.500 7  78263096.35007
R04  20506384.534 6 109810780.30506  20506370.740 7  85408314.92007  20506370.478 7  85408313.93507  20506354.796 7  82220724.08207
R05  22892198.792 5 122371971.69605  22892205.517 6  95178192.68106  22892205.207 6  95178212.70006  22892188.982 6  91786797.75706
R12  24476487.362 4                                                  24476489.285 4                  24476477.624 4  98139024.83004
R14  21897667.400 5 116726948.14905  21897679.426 7  90787645.86307  21897679.733 7  90787703.87307
R18  20987126.161 5 112030702.43705  20987133.695 7  87135002.02007  20987134.017 7  87134998.00207
R19  20090138.077 6 107468688.39206  20090122.712 7  83586699.28407  20090122.805 7  83586699.30207  20090149.394 7  80551934.11007
R20  23117691.830 5 123620744.86305  23117695.130 6  96149435.37206  23117695.690 6  96149447.37106  23117723.547 6  92691067.61406
> 2026 05 04 11 24 24.0000000  0 42
C01                                                                  37105997.961 7 193220674.98707                                  37105989.380 7 157007586.37907
C02                                                                  37994067.138 7 197845083.12607                                  37994046.569 6 160765247.91006
C03                                                                  36659308.091 7 190894641.16107                                  36659290.259 7 155117456.22307
C04                                                                  38000739.040 7 197879827.72507                                  38000721.829 6 160793493.07606
C06  36325203.587 7 190890237.50707  36325194.127 7 142547861.90507  36325204.534 8 189154873.36108                                  36325194.702 7 153703788.38107
C07  37177639.440 7 195369817.86007  37177631.795 6 145893010.72306  37177639.610 7 193593735.27407                                  37177631.209 7 157310738.75007
C08  40312572.022 5 211844022.82705  40312586.007 4 158195242.71604  40312573.199 5 209918160.88105                                  40312579.998 5 170575733.47505
C09                                                                  37336653.466 7 194421756.71707  37336642.927 7 150339190.60707  37336646.278 6 157983572.59806
C10                                                                  38086800.912 7 198327989.08107  38086792.946 6 153359761.66306  38086794.375 6 161157720.26206
C13  23562955.077 7 123824171.87507  23562947.971 6  92466064.68806  23562957.078 7 122698499.24907                                  23562949.967 7  99702549.51307
C14  24687569.092 6 129734047.81606  24687581.783 6  96879366.33806  24687569.730 7 128554655.96607                                  24687553.114 6 104461114.20906
C21                                                                  26902121.655 5 140086408.14205                                  26902112.333 5 113831646.24105
C24  23561636.870 7 123817240.39007  23561631.055 7  92460900.86807  23561638.501 7 122691669.74807                                  23561631.149 7  99697009.97907
C26  24099935.952 7 126646017.75307  24099928.992 6  94573293.95506  24099936.196 7 125494701.92707                                  24099930.096 7 101974700.60507
C27  26132325.092 6 137326287.70606  26132322.264 5 102548838.82005  26132329.199 6 136077884.44006                                  26132321.356 6 110574407.76006
C28  23767692.751 7 124900069.85607  23767687.411 6  93269507.71206  23767695.257 7 123764629.27007                                  23767687.661 6 100568868.42406
C33  22958571.210 7 120648110.59507  22958588.440 7  90094428.41507  22958572.305 8 119551313.25308                                  22958576.760 7  97145256.89007
C38  23794281.097 6 125039784.20006  23794282.087 6  93373872.30606  23794283.391 7 123903062.38207                                  23794279.918 6 100681365.76306
C41  26049003.384 6 136888422.44006  26049012.029 6 102221916.30306  26049003.709 6 135644012.72306                                  26049007.185 6 110221888.80806
C42  23400178.424 7 122968766.68407  23400181.054 7  91827333.71807  23400179.459 7 121850876.42307                                  23400179.623 7  99013820.19307
E07  24373241.816 7 128082255.14707  24373235.704 7  95645810.58607  24373231.453 7  98140904.22207  24373235.369 8  96893364.94008
E08  28475913.320 6 149641932.63106  28475908.886 5 111745590.26105  28475904.656 6 114660673.93306  28475908.491 6 113203140.64406
E13  26183570.310 6 137595574.60706  26183579.590 6 102749954.69306  26183573.566 6 105430373.61406  26183577.948 7 104090169.19407
E19  26068677.094 5                  26068680.246 5 102299126.60405  26068674.998 6 104967781.22306  26068679.176 6 103633460.94906
E26  23223453.603 7 122040070.33207  23223445.856 7  91133786.78507  23223442.076 8  93511173.50308  23223445.696 8  92322490.68108
E29  23828959.244 7 125222029.05307  23828951.948 7  93509929.97807  23828947.992 7  95949303.83507  23828951.486 8  94729625.94408
E33  24753340.371 7 130079687.76807  24753332.801 7  97137399.31607  24753328.691 7  99671401.82507  24753332.543 7  98404410.10607
G05  22802275.261 7 119826757.90707  22802275.069 5  22802262.368 5  93371438.20905  22802269.923 6  93371493.10806
G10  25288447.962 6 132891691.74506  25288447.654 3  25288463.041 3 103551972.55103  25288443.542 5 103551947.70505  25288443.496 6  99237279.79906
G15  20613348.050 7 108323871.02307  20613347.849 6  20613354.644 6  84408148.54406  20613338.174 6  84408168.69106
G18  20607233.954 7 108291748.17007  20607233.932 5  20607241.927 5  84383112.35705  20607225.168 7  84383158.47807  20607228.235 7  80867185.97607
G20  22615735.620 7 118846496.88807  22615735.544 4  22615730.758 4  92607586.50004  22615727.538 6  92607624.47206  22615730.425 6  88748982.47806
G21  25012542.657 5 131441769.36305  25012542.389 1  25012544.643 1 102422145.40401                                  25012555.394 5  98154635.55605
G23  21872175.643 7 114939064.71207  21872175.509 4  21872184.617 4  89562839.24404  21872166.993 7  89562864.38807  21872170.810 7  85831094.26707
G24  19943498.456 7 104803800.47207  19943498.287 6  19943510.021 6  81665236.94406  19943491.449 7  81665274.11207  19943491.094 7  78262541.34807
R04  20506418.997 7 109810961.71407  20506404.626 7  85408456.01807  20506404.507 7  85408455.04807  20506388.690 7  82220859.92207
R05  22891927.979 5 122370522.86005  22891934.536 6  95177065.82306  22891934.346 6  95177085.81906  22891917.992 6  91785711.04906
R12  24477044.991 4                                                  24477046.212 4                  24477034.193 4  98141256.08804
R14  21897147.553 5 116724178.05405  21897159.752 7  90785491.37207  21897159.780 7  90785549.38707
R18  20987878.895 5 112034719.09305  20987886.242 6  87138126.07206  20987886.296 6  87138122.08606
R19  20090192.751 6 107468977.47706  20090176.698 7  83586924.14107  20090177.007 7  83586924.14507  20090203.494 7  80552150.78807
R20  23117129.845 5 123617743.83905  23117133.950 6  96147101.25106  23117134.563 6  96147113.25006  23117162.344 6  92688817.45606
> 2026 05 04 11 24 25.0000000  0 42
C01                                                                  37106071.510 7 193221057.74107                                  37106062.916 7 157007897.39507
C02                                                                  37994133.604 7 197845429.37007                                  37994113.004 6 160765529.27106
C03                                                                  36659377.531 7 190895002.74007                                  36659359.717 7 155117750.02907
C04                                                                  38000812.822 7 197880211.41507                                  38000795.611 6 160793804.87606
C06  36325189.889 7 190890165.34307  36325180.376 7 142547808.01107  36325190.774 8 189154801.85108                                  36325180.950 7 153703730.27007
C07  37177462.121 7 195368885.94007  37177454.438 6 145892314.81706  37177462.217 7 193592811.82607                                  37177453.895 7 157309988.38207
C08  40312959.226 5 211846057.22205  40312973.274 4 158196761.91104  40312960.529 5 209920176.77605                                  40312967.140 5 170577371.54205
C09                                                                  37336618.340 7 194421573.90307  37336607.765 7 150339049.24807  37336611.223 6 157983424.05406
C10                                                                  38086611.932 7 198327005.81807  38086604.289 6 153359001.36606  38086605.579 6 161156921.28906
C13  23563294.219 7 123825953.91807  23563287.093 6  92467395.42506  23563296.077 7 122700265.09207                                  23563289.126 7  99703984.39707
C14  24687962.032 6 129736112.71806  24687974.690 6  96880908.30206  24687962.601 7 128556702.09307                                  24687946.113 6 104462776.84506
C21                                                                  26902558.118 5 140088681.07905                                  26902548.888 5 113833493.17705
C24  23561299.254 7 123815466.19607  23561293.417 7  92459575.99907  23561300.756 7 122689911.69407                                  23561293.547 7  99695581.41407
C26  24100042.574 7 126646577.88107  24100035.576 6  94573712.25706  24100042.750 7 125495256.96607                                  24100036.732 7 101975151.62407
C27  26132026.985 6 137324721.00906  26132023.915 5 102547668.89705  26132030.972 6 136076331.99206                                  26132023.286 6 110573146.28906
C28  23767738.039 7 124900307.95007  23767732.691 6  93269685.52406  23767740.459 7 123764865.19207                                  23767732.972 6 100569060.14206
C33  22958495.329 7 120647711.53207  22958512.457 7  90094130.41407  22958496.359 8 119550917.81908                                  22958500.829 7  97144935.56607
C38  23794823.409 6 125042633.51106  23794824.354 6  93376000.01806  23794825.426 7 123905885.78207                                  23794822.096 6 100683659.99306
C41  26048727.899 6 136886974.75206  26048736.531 6 102220835.23806  26048728.230 6 135642578.19706                                  26048731.680 6 110220723.14306
C42  23400460.495 7 122970248.61707  23400463.022 7  91828440.35107  23400461.344 7 121852344.88907                                  23400461.632 7  99015013.44207
E07  24373618.898 7 128084236.89707  24373612.733 7  95647290.45807  24373608.603 8  98142422.70608  24373612.501 8  96894864.12108
E08  28476422.416 6 149644608.46206  28476418.083 5 111747588.44405  28476414.058 6 114662724.23306  28476417.747 6 113205164.88606
E13  26184176.938 6 137598761.36506  26184185.834 6 102752334.41406  26184180.026 6 105432815.41906  26184184.399 7 104092579.95507
E19  26068382.338 5                  26068385.273 5 102297969.62805  26068380.137 6 104966594.07006  26068384.344 6 103632288.88806
E26  23223681.381 7 122041267.52407  23223673.602 7  91134680.78907  23223669.923 8  93512090.83108  23223673.521 8  92323396.34808
E29  23828942.222 7 125221939.66507  23828934.855 7  93509863.23307  23828931.033 7  95949235.34707  23828934.494 8  94729558.32908
E33  24753062.109 7 130078225.52107  24753054.546 7  97136307.37007  24753050.440 7  99670281.40507  24753054.314 7  98403303.92707
G05  22802759.880 7 119829304.35207  22802759.693 5  22802746.935 5  93373422.45005  22802754.181 6  93373477.35906
G10  25288005.443 6 132889366.24006  25288005.130 3  25288020.484 3 103550160.46403  25288000.883 5 103550135.62105  25288000.916 6  99235543.23106
G15  20613700.184 7 108325721.66707  20613699.979 6  20613706.776 6  84409590.59906  20613689.997 6  84409610.73906
G18  20607246.257 7 108291812.85407  20607246.235 5  20607254.246 5  84383162.75405  20607237.230 7  84383208.88907  20607240.499 7  80867234.28707
G20  22616252.004 7 118849209.87807  22616251.928 4  22616246.510 4  92609700.52204  22616243.855 6  92609738.48306  22616246.644 6  88751008.40906
G21  25013102.383 5 131444711.73105  25013102.097 1  25013104.539 1 102424438.13601                                  25013115.330 5  98156832.81405
G23  21871797.719 7 114937078.82107  21871797.585 4  21871806.662 4  89561291.79104  21871788.810 7  89561316.94207  21871792.881 7  85829611.29807
G24  19943357.255 7 104803058.71107  19943357.086 6  19943368.861 6  81664658.94606  19943350.260 7  81664696.12407  19943349.931 7  78261987.42707
R04  20506453.749 6 109811144.08406  20506438.659 7  85408597.86607  20506438.596 7  85408596.88207  20506422.795 7  82220996.46607
R05  22891656.709 5 122369074.94505  22891663.601 6  95175939.67106  22891663.668 6  95175959.67106  22891647.149 6  91784625.02006
R12  24477601.985 4                                                  24477602.907 4                  24477590.805 4  98143488.27504
R14  21896626.939 5 116721409.16805  21896640.239 7  90783337.79307  21896640.114 7  90783395.81207
R18  20988632.002 5 112038737.03505  20988638.906 7  87141251.11807  20988639.096 7  87141247.11807
R19  20090247.652 6 107469268.23806  20090231.086 7  83587150.29807  20090231.408 7  83587150.30207  20090257.887 7  80552368.76707
R20  23116568.502 5 123614744.06905  23116573.003 7  96144768.12807  23116573.751 6  96144780.13306  23116601.404 6  92686568.23906
> 2026 05 04 11 24 26.0000000  0 42
C01                                                                  37106145.225 7 193221441.33807                                  37106136.595 7 157008209.09607
C02                                                                  37994200.084 7 197845776.45907                                  37994179.680 6 160765811.31506
C03                                                                  36659446.976 7 190895365.15907                                  36659429.268 7 155118044.52707
C04                                                                  38000886.827 7 197880595.96607                                  38000869.509 6 160794117.34506
C06  36325176.295 7 190890093.96907  36325166.802 7 142547754.72407  36325177.154 8 189154731.13008                                  36325167.379 7 153703672.80507
C07  37177285.023 7 195367954.99407  37177277.159 6 145891619.64406  37177285.017 7 193591889.34307                                  37177276.751 7 157309238.79107
C08  40313346.723 5 211848092.35905  40313360.650 4 158198281.70404  40313347.528 5 209922193.42305                                  40313354.320 5 170579010.27805
C09                                                                  37336583.448 7 194421391.86907  37336572.748 7 150338908.49207  37336576.254 6 157983276.13406
C10                                                                  38086423.172 7 198326023.50807  38086415.794 6 153358241.77806  38086416.949 6 161156123.07406
C13  23563633.586 7 123827737.24307  23563626.495 6  92468727.12406  23563635.484 7 122702032.20507                                  23563628.448 7  99705420.31907
C14  24688355.124 6 129738178.49306  24688367.710 6  96882450.92306  24688355.673 7 128558749.09007                                  24688339.242 6 104464440.18806
C21                                                                  26902994.970 5 140090954.80505                                  26902985.385 5 113835340.76505
C24  23560961.843 7 123813693.16007  23560956.034 7  92458251.99507  23560963.275 7 122688154.77707                                  23560956.152 7  99694153.78407
C26  24100149.440 7 126647139.37607  24100142.334 6  94574131.54106  24100149.636 7 125495813.36407                                  24100143.513 7 101975603.74407
C27  26131729.042 6 137323155.58806  26131726.090 5 102546499.91505  26131733.158 6 136074780.78906                                  26131725.397 6 110571885.80306
C28  23767783.653 7 124900547.40707  23767778.232 6  93269864.32306  23767785.947 7 123765102.48107                                  23767778.526 6 100569252.93606
C33  22958419.553 7 120647313.37607  22958436.620 7  90093833.09207  22958420.556 8 119550523.29208                                  22958425.011 7  97144614.97607
C38  23795365.838 6 125045483.85906  23795366.753 6  93378128.54206  23795367.777 7 123908710.24507                                  23795364.499 6 100685955.09706
C41  26048452.634 6 136885527.91506  26048461.220 6 102219754.82306  26048452.798 6 135641144.52106                                  26048456.273 6 110219558.16006
C42  23400742.696 7 122971731.46107  23400745.166 7  91829547.66307  23400743.537 7 121853814.24307                                  23400743.817 7  99016207.40607
E07  24373996.148 7 128086219.58107  24373990.003 7  95648771.03707  24373985.971 7  98143941.90307  24373989.803 8  96896364.00808
E08  28476931.733 6 149647285.03106  28476927.364 5 111749587.21605  28476923.510 6 114664775.15006  28476927.087 6 113207189.72406
E13  26184783.467 6 137601949.16706  26184792.475 6 102754714.91606  26184786.761 6 105435258.00406  26184791.059 7 104094991.50207
E19  26068087.685 5                  26068090.528 5 102296813.39705  26068085.626 6 104965407.68206  26068089.731 6 103631117.57906
E26  23223909.406 7 122042466.00507  23223901.695 7  91135575.75907  23223898.041 8  93513009.15008  23223901.610 8  92324302.99208
E29  23828925.408 7 125221851.36007  23828918.060 7  93509797.30007  23828914.250 7  95949167.68307  23828917.698 8  94729491.52908
E33  24752784.132 7 130076764.44207  24752776.465 7  97135216.32007  24752772.488 7  99669161.87007  24752776.304 7  98402198.63307
G05  22803244.816 7 119831851.92207  22803244.629 5  22803231.690 5  93375407.56805  22803238.917 6  93375462.46606
G10  25287563.268 6 132887041.44406  25287562.955 3  25287578.192 3 103548348.94003  25287558.332 5 103548324.09805  25287558.422 6  99233807.18606
G15  20614052.525 7 108327573.37407  20614052.324 6  20614059.130 6  84411033.48506  20614042.692 6  84411053.63506
G18  20607258.883 7 108291879.07607  20607258.861 5  20607266.847 5  84383214.35205  20607249.785 7  84383260.49007  20607253.040 7  80867283.73507
G20  22616768.372 7 118851923.73707  22616768.292 4  22616762.406 4  92611815.21804  22616760.439 6  92611853.18706  22616762.991 6  88753034.99206
G21  25013662.415 5 131447655.05105  25013662.080 1  25013664.708 1 102426731.62701                                  25013675.181 5  98159030.78205
G23  21871420.005 7 114935093.84907  21871419.867 4  21871428.895 4  89559745.06104  21871410.940 7  89559770.21207  21871415.067 7  85828129.01507
G24  19943216.480 7 104802318.47507  19943216.311 6  19943227.991 6  81664082.14006  19943209.389 7  81664119.33807  19943209.008 7  78261434.65907
R04  20506487.944 6 109811327.48206  20506472.867 7  85408740.50607  20506472.927 7  85408739.51907  20506457.111 7  82221133.78707
R05  22891386.116 5 122367627.98805  22891392.777 6  95174814.27206  22891392.667 6  95174834.29606  22891376.422 6  91783539.74106
R12  24478158.814 4                                                  24478159.601 4                  24478147.746 4  98145721.52904
R14  21896107.263 5 116718641.51205  21896120.972 7  90781185.20107  21896120.943 7  90781243.21707
R18  20989384.745 5 112042756.25205  20989391.833 7  87144377.15807  20989392.012 7  87144373.17007
R19  20090302.692 6 107469560.79206  20090285.671 7  83587377.83207  20090286.120 7  83587377.84107  20090312.647 7  80552588.07007
R20  23116007.816 5 123611745.68905  23116012.355 6  96142436.04906  23116013.094 6  96142448.05806  23116040.697 6  92684320.07706
> 2026 05 04 11 24 27.0000000  0 42
C01                                                                  37106218.935 7 193221825.74007                                  37106210.480 7 157008521.45007
C02                                                                  37994266.823 7 197846124.36507                                  37994246.432 6 160766094.00906
C03                                                                  36659516.791 7 190895728.37307                                  36659499.021 7 155118339.67307
C04                                                                  38000960.833 7 197880981.31307                                  38000943.564 6 160794430.46206
C06  36325162.871 7 190890023.38707  36325153.342 7 142547702.01707  36325163.758 8 189154661.18808                                  36325153.936 7 153703615.97607
C07  37177108.024 7 195367024.98507  37177100.106 6 145890925.16106  37177108.068 7 193590967.79607                                  37177099.804 7 157308489.96507
C08  40313734.240 5 211850128.23705  40313748.099 4 158199801.95904  40313734.925 5 209924210.77305                                  40313741.862 5 170580649.52205
C09                                                                  37336548.646 7 194421210.59107  37336537.906 7 150338768.32007  37336541.419 6 157983128.83606
C10                                                                  38086234.727 7 198325042.08107  38086227.525 6 153357482.89706  38086228.531 6 161155325.59306
C13  23563973.167 7 123829521.81007  23563966.132 6  92470059.75906  23563975.059 7 122703800.54207                                  23563968.117 7  99706857.24007
C14  24688748.322 6 129740245.10206  24688760.911 6  96883994.16606  24688748.996 7 128560796.91707                                  24688732.493 6 104466104.22206
C21                                                                  26903431.856 5 140093229.33005                                  26903422.733 4 113837189.02004
C24  23560624.703 7 123811921.25207  23560618.786 7  92456928.83207  23560626.025 7 122686398.98207                                  23560618.929 7  99692727.07007
C26  24100256.546 7 126647702.20607  24100249.429 6  94574551.84006  24100256.679 7 125496371.07307                                  24100250.609 7 101976056.92207
C27  26131431.416 6 137321591.36806  26131428.608 5 102545331.81705  26131435.312 6 136073230.79406                                  26131427.852 6 110570626.30406
C28  23767829.442 7 124900788.20507  23767824.041 6  93270044.13906  23767831.775 7 123765341.08507                                  23767824.415 6 100569446.83606
C33  22958343.979 7 120646916.11307  22958360.965 7  90093536.43107  22958344.929 8 119550129.64008                                  22958349.446 7  97144295.10807
C38  23795908.446 6 125048335.27406  23795909.351 6  93380257.82506  23795910.257 7 123911535.72607                                  23795907.084 6 100688251.03406
C41  26048177.409 6 136884081.92606  26048185.966 6 102218675.02406  26048177.569 6 135639711.66906                                  26048181.047 6 110218393.87206
C42  23401025.041 7 122973215.14507  23401027.521 7  91830655.61307  23401025.800 7 121855284.44107                                  23401026.152 7  99017402.06507
E07  24374373.649 7 128088203.16907  24374367.528 7  95650252.28607  24374363.448 7  98145461.80307  24374367.284 8  96897864.58108
E08  28477441.241 6 149649962.31206  28477436.665 5 111751586.47105  28477433.010 6 114666826.56406  28477436.516 6 113209215.05606
E13  26185390.205 6 137605137.96506  26185399.275 6 102757096.17606  26185393.636 6 105437701.37306  26185397.890 7 104097403.81107
E19  26067793.309 5                  26067796.144 5 102295657.92705  26067791.339 6 104964222.07206  26067795.315 6 103629947.04306
E26  23224137.749 7 122043665.74407  23224129.990 7  91136471.66207  23224126.364 8  93513928.43008  23224129.935 8  92325210.58408
E29  23828908.835 7 125221764.11007  23828901.395 7  93509732.13907  23828897.657 7  95949100.83007  23828901.095 8  94729425.52008
E33  24752506.330 7 130075304.49807  24752498.712 6  97134126.09506  24752494.649 7  99668043.21807  24752498.500 7  98401094.19307
G05  22803729.925 7 119834400.57707  22803729.733 5  22803716.665 5  93377393.52805  22803723.933 6  93377448.43006
G10  25287120.949 6 132884717.33106  25287120.636 3  25287135.975 3 103546537.94703  25287115.751 5 103546513.08505  25287116.161 6  99232071.65806
G15  20614405.226 7 108329426.11407  20614405.025 6  20614411.709 6  84412477.17806  20614395.360 6  84412497.32406
G18  20607271.789 7 108291946.78807  20607271.767 5  20607279.748 5  84383267.11305  20607262.593 7  84383313.25207  20607265.900 7  80867334.29507
G20  22617285.095 7 118854638.45607  22617285.019 4  22617278.502 4  92613930.59204  22617276.828 6  92613968.53606  22617279.530 6  88755062.21606
G21  25014222.457 5 131450599.39705  25014222.118 1  25014225.043 1 102429025.90401                                  25014235.355 5  98161229.45805
G23  21871042.477 7 114933109.76207  21871042.339 4  21871051.306 4  89558199.02004  21871033.427 6  89558224.16606  21871037.503 7  85826647.39807
G24  19943075.913 7 104801579.74907  19943075.744 6  19943087.439 6  81663506.50806  19943068.592 7  81663543.68807  19943068.341 7  78260883.00907
R04  20506522.550 6 109811511.86206  20506507.227 7  85408883.90807  20506507.486 7  85408882.91507  20506491.557 7  82221271.83707
R05  22891115.800 5 122366182.00405  22891122.288 6  95173689.60806  22891122.199 6  95173709.60706  22891105.955 6  91782455.15206
R12  24478717.476 4                                                  24478716.041 4                  24478705.322 4  98147955.78404
R14  21895587.795 5 116715875.03205  21895601.982 7  90779033.49907  21895601.967 7  90779091.53907
R18  20990137.745 5 112046776.73805  20990145.055 7  87147504.23907  20990145.183 7  87147500.21807
R19  20090357.611 6 107469855.06706  20090340.676 7  83587606.71307  20090341.022 7  83587606.72007  20090367.730 7  80552808.68207
R20  23115448.517 5 123608748.64705  23115451.918 6  96140104.98606  23115452.517 6  96140117.00406  23115480.239 6  92682072.85906
> 2026 05 04 11 24 28.0000000  0 42
C01                                                                  37106292.905 7 193222211.12107                                  37106284.427 7 157008834.61107
C02                                                                  37994333.901 7 197846473.25707                                  37994313.574 6 160766377.52406
C03                                                                  36659586.767 7 190896092.60207                                  36659568.980 7 155118635.63507
C04                                                                  38001035.111 7 197881367.65507                                  38001017.717 6 160794744.40706
C06  36325149.514 7 190889953.75607  36325140.104 7 142547650.02307  36325150.470 8 189154592.19208                                  36325140.715 7 153703559.91107
C07  37176931.191 7 195366096.11007  37176923.268 6 145890231.52506  37176931.310 7 193590047.35607                                  37176923.037 7 157307742.03907
C08  40314121.659 5 211852164.98905  40314135.554 4 158201322.96804  40314122.700 5 209926229.03805                                  40314129.460 5 170582289.51105
C09                                                                  37336513.973 7 194421030.20807  37336503.276 7 150338628.82007  37336506.796 6 157982982.23906
C10                                                                  38086046.369 7 198324061.74707  38086039.089 6 153356724.84306  38086040.247 6 161154529.00206
C13  23564313.034 7 123831307.80807  23564306.020 6  92471393.45706  23564314.875 7 122705570.30707                                  23564308.007 7  99708295.32007
C14  24689141.720 6 129742312.73806  24689154.341 6  96885538.17806  24689142.571 7 128562845.75507                                  24689125.908 6 104467769.05206
C21                                                                  26903868.433 5 140095504.84205                                  26903859.686 5 113839038.07505
C24  23560287.827 7 123810150.66207  23560281.769 7  92455606.65307  23560289.146 7 122684644.47407                                  23560281.969 7  99691301.40807
C26  24100363.964 6 126648266.57106  24100356.777 6  94574973.29006  24100364.119 7 125496930.30707                                  24100357.937 7 101976511.35207
C27  26131134.058 6 137320028.53506  26131131.121 5 102544164.77705  26131137.903 6 136071682.16506                                  26131130.435 6 110569367.93006
C28  23767875.551 6 124901030.52406  23767870.115 6  93270225.10106  23767877.914 7 123765581.20307                                  23767870.560 6 100569641.94706
C33  22958268.579 7 120646519.91807  22958285.596 7  90093240.57707  22958269.535 7 119549737.04407                                  22958274.051 7  97143976.09407
C38  23796451.212 6 125051187.89706  23796452.220 6  93382388.02406  23796453.103 7 123914362.41207                                  23796449.902 6 100690547.93106
C41  26047902.445 6 136882636.93306  26047911.115 6 102217595.98706  26047902.537 6 135638279.81506                                  26047906.199 6 110217230.38506
C42  23401307.601 7 122974699.89007  23401310.051 7  91831764.35507  23401308.301 7 121856755.68807                                  23401308.639 7  99018597.57807
E07  24374751.346 7 128090187.84307  24374745.172 7  95651734.33907  24374741.130 7  98146982.52307  24374744.957 8  96899365.97108
E08  28477950.802 6 149652640.49106  28477946.071 5 111753586.42505  28477942.622 6 114668878.66806  28477946.165 6 113211241.08006
E13  26185997.261 6 137608327.97506  26186006.294 6 102759478.30506  26186000.683 6 105440145.65506  26186004.953 7 104099817.01207
E19  26067499.170 5                  26067501.945 5 102294503.34205  26067496.894 6 104963037.34706  26067501.082 6 103628777.38306
E26  23224366.360 7 122044866.92607  23224358.553 7  91137368.64507  23224355.005 8  93514848.81608  23224358.525 8  92326119.26908
E29  23828892.469 7 125221678.08807  23828884.956 7  93509667.91507  23828881.352 7  95949034.92407  23828884.738 8  94729360.45708
E33  24752228.690 7 130073845.87107  24752221.186 6  97133036.87306  24752217.138 7  99666925.57707  24752220.942 7  98399990.76007
G05  22804215.156 6 119836950.50106  22804214.964 5  22804201.867 5  93379380.47905  22804209.548 6  93379435.37306
G10  25286678.822 6 132882394.08206  25286678.505 3  25286693.883 3 103544727.62603  25286674.047 5 103544702.77305  25286674.010 6  99230336.78106
G15  20614758.017 7 108331280.06807  20614757.816 6  20614764.529 6  84413921.81906  20614748.417 6  84413941.96806
G18  20607285.040 7 108292016.18007  20607285.023 5  20607292.998 5  84383321.18305  20607275.976 7  84383367.32107  20607279.099 7  80867386.11707
G20  22617801.805 6 118857354.19406  22617801.725 4  22617794.787 4  92616046.75004  22617793.665 6  92616084.69806  22617796.275 6  88757090.19206
G21  25014782.885 5 131453544.89205  25014782.590 1  25014785.596 1 102431321.11001                                  25014795.991 5  98163428.95705
G23  21870665.083 7 114931126.74307  21870664.940 4  21870673.893 4  89556653.81404  21870656.041 6  89556678.96806  21870660.206 7  85825166.57207
G24  19942935.723 7 104800842.70007  19942935.549 6  19942947.209 6  81662932.18606  19942928.532 7  81662969.36807  19942928.050 7  78260332.61907
R04  20506557.668 6 109811697.39006  20506541.891 7  85409028.20807  20506542.177 7  85409027.22607  20506526.233 7  82221410.75707
R05  22890845.703 5 122364737.13805  22890852.010 6  95172565.85406  22890851.688 6  95172585.84206  22890835.655 6  91781371.43106
R12  24479274.130 4                                                  24479273.393 4                  24479262.634 4  98150191.29704
R14  21895068.899 5 116713109.88705  21895083.243 7  90776882.87407  21895083.297 7  90776940.89407
R18  20990891.485 5 112050798.72705  20990898.582 7  87150632.39207  20990898.875 7  87150628.37607
R19  20090413.159 6 107470151.21606  20090396.013 7  83587837.05207  20090396.409 7  83587837.05107  20090423.101 7  80553030.73307
R20  23114888.608 5 123605753.07005  23114891.838 6  96137775.10406  23114892.353 6  96137787.12006  23114920.032 6  92679826.79806
> 2026 05 04 11 24 29.0000000  0 42
C01                                                                  37106367.201 7 193222597.71207                                  37106358.638 7 157009148.75007
C02                                                                  37994401.088 7 197846823.37607                                  37994380.711 6 160766662.01906
C03                                                                  36659656.829 7 190896458.03307                                  36659639.224 7 155118932.58307
C04                                                                  38001109.420 7 197881755.21307                                  38001092.120 6 160795059.32606
C06  36325136.502 7 190889885.31607  36325126.993 7 142547598.90007  36325137.363 8 189154524.37308                                  36325127.695 7 153703504.80007
C07  37176754.640 7 195365168.57407  37176746.658 6 145889538.88506  37176754.825 7 193589128.25507                                  37176746.510 7 157306995.19307
C08  40314509.360 5 211854202.90305  40314523.383 4 158202844.76304  40314510.468 5 209928248.43005                                  40314517.404 5 170583930.45205
C09                                                                  37336479.475 7 194420850.95507  37336469.013 7 150338490.23607  37336472.325 6 157982836.59406
C10                                                                  38085858.264 7 198323082.71307  38085851.207 6 153355967.79106  38085852.183 6 161153733.47406
C13  23564653.165 7 123833095.44407  23564646.178 6  92472728.37606  23564655.094 7 122707341.69507                                  23564648.185 7  99709734.71707
C14  24689535.435 6 129744381.61706  24689547.997 6  96887083.11706  24689536.334 7 128564895.82407                                  24689519.603 6 104469434.91706
C21                                                                  26904305.444 5 140097781.54205                                  26904296.765 5 113840888.04505
C24  23559951.198 7 123808381.59607  23559945.023 7  92454285.60107  23559952.329 7 122682891.49307                                  23559945.293 7  99689876.97707
C26  24100471.531 6 126648832.67306  24100464.441 6  94575396.03306  24100471.788 7 125497491.26807                                  24100465.705 7 101976967.17907
C27  26130836.985 6 137318467.33806  26130834.016 5 102542998.95605  26130840.678 6 136070135.15906                                  26130833.398 6 110568110.86006
C28  23767921.945 6 124901274.57406  23767916.666 6  93270407.34206  23767924.345 7 123765823.04307                                  23767917.018 6 100569838.46306
C33  22958193.390 7 120646125.01207  22958210.434 7  90092945.68407  22958194.434 7 119549345.72907                                  22958198.880 7  97143658.12107
C38  23796994.315 6 125054041.95206  23796995.300 6  93384519.27406  23796996.239 7 123917190.51007                                  23796993.021 6 100692845.99106
C41  26047627.569 6 136881193.18806  26047636.321 6 102216517.85406  26047627.684 6 135636849.19906                                  26047631.512 6 110216067.87306
C42  23401590.343 7 122976185.90907  23401592.877 7  91832874.04207  23401591.058 7 121858228.19307                                  23401591.327 7  99019794.10807
E07  24375129.327 7 128092173.82007  24375123.120 7  95653217.38407  24375119.041 7  98148504.25207  24375122.885 8  96900868.35708
E08  28478460.616 6 149655319.75506  28478455.921 5 111755587.16805  28478452.430 6 114670931.63206  28478455.997 6 113213267.94506
E13  26186604.402 6 137611519.37306  26186613.540 6 102761861.47406  26186607.999 6 105442591.00206  26186612.271 7 104102231.27507
E19  26067205.000 5                  26067208.148 5 102293349.81505  26067203.005 6 104961853.73706  26067207.099 6 103627608.81606
E26  23224595.237 7 122046069.76607  23224587.476 7  91138266.87807  23224583.904 8  93515770.47408  23224587.431 8  92327029.21308
E29  23828876.385 7 125221593.52307  23828868.936 7  93509604.76107  23828865.298 7  95948970.13407  23828868.649 8  94729296.48508
E33  24751951.498 7 130072388.79407  24751943.862 7  97131948.79007  24751939.884 7  99665809.11007  24751943.666 7  98398888.48807
G05  22804700.673 6 119839501.91306  22804700.481 5  22804687.369 5  93381368.58505  22804695.004 6  93381423.47806
G10  25286236.845 6 132880071.92206  25286236.528 3  25286251.993 3 103542918.15203  25286231.881 5 103542893.30205  25286232.177 6  99228602.69006
G15  20615111.032 7 108333135.45907  20615110.827 6  20615117.617 6  84415367.57706  20615101.262 6  84415387.73106
G18  20607298.681 7 108292087.47707  20607298.659 5  20607306.605 5  84383376.73905  20607289.412 7  84383422.88107  20607292.620 7  80867439.36207
G20  22618318.738 6 118860071.18106  22618318.658 4  22618311.336 4  92618163.88404  22618310.611 6  92618201.83206  22618313.331 6  88759119.11106
G21  25015343.468 5 131456491.74205  25015343.196 1  25015346.356 1 102433617.38401                                  25015356.871 5  98165629.54305
G23  21870287.789 7 114929145.02707  21870287.651 4  21870296.698 4  89555109.61704  21870279.057 6  89555134.76906  21870283.119 7  85823686.71907
G24  19942795.826 7 104800107.56807  19942795.652 6  19942807.332 6  81662359.35806  19942788.783 7  81662396.53707  19942788.170 7  78259783.66207
R04  20506592.487 6 109811884.26806  20506576.788 7  85409173.57707  20506576.969 7  85409172.57407  20506561.111 7  82221550.68807
R05  22890576.085 5 122363293.67105  22890581.956 6  95171443.11106  22890581.597 6  95171463.12906  22890565.576 6  91780288.72006
R12  24479831.840 4                                                  24479831.528 4                  24479820.458 4  98152428.14804
R14  21894549.326 5 116710346.31205  21894564.821 7  90774733.46107  21894564.814 7  90774791.47507
R18  20991644.590 5 112054822.36805  20991652.354 7  87153761.88207  20991652.724 7  87153757.87807
R19  20090468.501 6 107470449.51206  20090451.787 7  83588069.03707  20090452.100 7  83588069.05807  20090478.898 7  80553254.36107
R20  23114330.068 5 123602759.27005  23114331.821 6  96135446.58806  23114332.187 6  96135458.59006  23114360.098 6  92677582.02206
> 2026 05 04 11 24 30.0000000  0 42
C01                                                                  37106441.640 7 193222985.13407                                  37106433.032 7 157009463.56507
C02                                                                  37994468.506 7 197847174.32207                                  37994448.120 6 160766947.18306
C03                                                                  36659727.051 7 190896824.29807                                  36659709.581 7 155119230.20007
C04                                                                  38001184.114 7 197882143.60407                                  38001166.734 6 160795374.92806
C06  36325123.573 7 190889817.67207  36325114.117 7 142547548.39507  36325124.535 8 189154457.33908                                  36325114.809 7 153703450.33007
C07  37176578.278 7 195364241.99907  37176570.414 6 145888846.97906  37176578.584 7 193588210.10607                                  37176570.233 7 157306249.13007
C08  40314897.148 5 211856241.55105  40314911.596 4 158204367.12504  40314898.279 5 209930268.52705                                  40314905.064 5 170585571.97805
C09                                                                  37336445.290 7 194420672.45707  37336434.656 7 150338352.19707  37336438.076 6 157982691.54806
C10                                                                  38085670.313 7 198322104.61307  38085663.367 6 153355211.47006  38085664.308 6 161152938.67706
C13  23564993.549 7 123834884.38607  23564986.631 6  92474064.26506  23564995.587 7 122709114.36807                                  23564988.606 7  99711175.15907
C14  24689929.211 6 129746451.36006  24689941.884 6  96888628.70906  24689930.178 7 128566946.75507                                  24689913.451 6 104471101.46406
C21                                                                  26904742.750 5 140100059.07105                                  26904733.985 5 113842738.72405
C24  23559614.833 7 123806613.68107  23559608.594 7  92452965.42507  23559615.895 7 122681139.66507                                  23559608.880 7  99688453.47107
C26  24100579.412 6 126649400.14506  24100572.383 6  94575819.78206  24100579.779 7 125498053.56507                                  24100573.759 7 101977424.11307
C27  26130540.149 6 137316907.37706  26130537.343 5 102541834.04605  26130543.731 6 136068589.37506                                  26130536.415 6 110566854.77006
C28  23767968.637 6 124901519.99906  23767963.311 6  93270590.61606  23767970.933 7 123766066.23107                                  23767963.673 6 100570036.06206
C33  22958118.364 7 120645731.01707  22958135.433 7  90092651.47207  22958119.445 7 119548955.31507                                  22958123.936 7  97143340.88007
C38  23797537.651 6 125056897.05906  23797538.582 6  93386651.33806  23797539.569 7 123920019.67107                                  23797536.444 6 100695144.90206
C41  26047352.996 6 136879750.29706  26047361.840 6 102215440.37406  26047353.026 6 135635419.41006                                  26047356.897 6 110214906.07506
C42  23401873.343 7 122977672.80607  23401875.869 7  91833984.38007  23401874.090 7 121859701.57207                                  23401874.301 7  99020991.34507
E07  24375507.423 7 128094160.73007  24375501.281 7  95654701.11507  24375497.131 7  98150026.68407  24375501.006 8  96902371.43808
E08  28478970.513 5 149657999.79005  28478965.848 5 111757588.50705  28478962.397 6 114672985.16106  28478965.981 6 113215295.37006
E13  26187211.958 6 137614711.81906  26187221.155 6 102764245.44406  26187215.514 6 105445037.14506  26187219.785 7 104104646.33207
E19  26066911.120 5                  26066914.090 5 102292197.04605  26066909.289 6 104960670.87106  26066913.323 6 103626440.99706
E26  23224824.412 7 122047273.90007  23224816.628 7  91139166.06007  23224813.055 8  93516693.12008  23224816.575 8  92327940.12908
E29  23828860.487 7 125221510.03807  23828853.051 7  93509542.41707  23828849.383 7  95948906.16107  23828852.770 8  94729233.32508
E33  24751674.421 7 130070932.86407  24751666.811 6  97130861.59606  24751662.826 7  99664693.53807  24751666.622 7  98397787.10307
G05  22805186.309 6 119842054.44906  22805186.117 5  22805173.095 5  93383357.57305  22805180.500 6  93383412.46406
G10  25285794.986 6 132877750.48206  25285794.669 3  25285810.300 3 103541109.24803  25285790.170 5 103541084.39405  25285790.360 6  99226869.16706
G15  20615464.313 7 108334991.90607  20615464.112 6  20615470.898 6  84416814.15906  20615454.573 6  84416834.31706
G18  20607312.488 7 108292160.29707  20607312.466 5  20607320.538 5  84383433.48405  20607303.340 7  84383479.63007  20607306.538 7  80867493.74107
G20  22618835.976 6 118862789.03306  22618835.896 4  22618828.027 4  92620281.69504  22618827.839 6  92620319.63206  22618830.596 6  88761148.68406
G21  25015904.509 5 131459439.57405  25015904.228 1  25015907.316 1 102435914.40701                                  25015917.830 5  98167830.85205
G23  21869910.931 7 114927164.21107  21869910.793 4  21869919.700 4  89553566.12704  21869902.044 6  89553591.27806  21869906.177 7  85822207.54807
G24  19942656.152 7 104799373.95807  19942655.983 6  19942667.746 6  81661787.72106  19942649.352 6  81661824.89206  19942648.592 7  78259235.84007
R04  20506627.706 6 109812072.10606  20506611.881 6  85409319.67906  20506611.995 7  85409318.70507  20506596.258 7  82221691.33107
R05  22890306.606 5 122361851.14005  22890311.986 5  95170321.19205  22890311.983 6  95170341.20106  22890295.728 6  91779206.73406
R12  24480390.055 4                                                  24480390.284 4                  24480378.590 4  98154666.11504
R14  21894030.889 5 116707583.96005  21894046.609 6  90772585.04406  21894046.649 7  90772643.03107
R18  20992398.399 5 112058847.27905  20992406.350 6  87156892.38006  20992406.695 6  87156888.37406
R19  20090524.220 6 107470749.50606  20090507.924 6  83588302.41506  20090508.424 7  83588302.42807  20090535.006 7  80553479.32407
R20  23113770.924 5 123599766.76805  23113772.162 6  96133119.12306  23113772.567 6  96133131.11306  23113800.531 6  92675338.25406
> 2026 05 04 11 24 31.0000000  0 42
C01                                                                  37106516.124 7 193223373.28507                                  37106507.579 7 157009778.97907
C02                                                                  37994536.184 7 197847525.99107                                  37994515.714 6 160767232.97106
C03                                                                  36659797.595 7 190897191.28707                                  36659780.107 7 155119528.42207
C04                                                                  38001258.969 7 197882532.72807                                  38001241.405 6 160795691.14406
C06  36325110.830 7 190889750.72507  36325101.444 7 142547498.41307  36325111.893 8 189154391.00108                                  36325102.091 7 153703396.43907
C07  37176402.190 7 195363316.29907  37176394.276 6 145888155.71406  37176402.543 7 193587292.80807                                  37176394.112 7 157305503.76507
C08  40315284.993 5 211858280.83405  40315299.410 4 158205889.97304  40315286.608 5 209932289.28505                                  40315293.468 5 170587214.03505
C09                                                                  37336411.192 7 194420494.59007  37336400.415 7 150338214.68507  37336403.934 6 157982547.03006
C10                                                                  38085482.563 7 198321127.31807  38085475.751 6 153354455.79206  38085476.578 6 161152144.57906
C13  23565334.203 7 123836674.48007  23565327.091 6  92475401.03306  23565336.331 7 122710888.18507                                  23565329.219 7  99712616.53707
C14  24690323.179 6 129748521.89106  24690335.827 6  96890174.87606  24690324.283 7 128568998.44007                                  24690307.462 6 104472768.62406
C21                                                                  26905180.287 5 140102337.29505                                  26905171.490 5 113844589.97905
C24  23559278.665 7 123804846.82807  23559272.352 6  92451646.03006  23559279.727 7 122679388.86207                                  23559272.651 7  99687030.82207
C26  24100687.619 6 126649968.87706  24100680.650 6  94576244.50106  24100688.152 7 125498617.12207                                  24100682.048 7 101977882.05007
C27  26130243.430 6 137315348.54606  26130240.660 5 102540669.97805  26130247.250 6 136067044.71906                                  26130239.726 6 110565599.62806
C28  23768015.580 6 124901766.67606  23768010.216 6  93270774.83106  23768017.855 7 123766310.66107                                  23768010.627 6 100570234.69406
C33  22958043.529 7 120645337.83207  22958060.636 7  90092357.86107  22958044.717 7 119548565.69607                                  22958049.141 7  97143024.28907
C38  23798081.167 6 125059753.12506  23798081.970 6  93388784.12206  23798083.164 7 123922849.75907                                  23798079.998 6 100697444.59006
C41  26047078.565 6 136878308.13006  26047087.331 6 102214363.46906  26047078.678 6 135633990.36706                                  26047082.480 6 110213744.88206
C42  23402156.364 7 122979160.48007  23402158.975 7  91835095.31607  23402157.329 7 121861175.72707                                  23402157.464 7  99022189.23107
E07  24375885.646 7 128096148.46007  24375879.532 7  95656185.46307  24375875.399 7  98151549.76307  24375879.283 8  96903875.15308
E08  28479480.390 5 149660680.43905  28479475.915 5 111759590.33705  28479472.519 6 114675039.19106  28479476.140 6 113217323.30306
E13  26187819.705 6 137617905.16106  26187828.803 6 102766630.07606  26187823.179 6 105447484.00506  26187827.474 7 104107062.07907
E19  26066617.572 5                  26066620.632 5 102291044.95605  26066615.694 6 104959488.74606  26066619.738 6 103625273.89706
E26  23225053.776 7 122048479.20807  23225045.980 7  91140066.13207  23225042.399 8  93517616.67708  23225045.961 8  92328851.94308
E29  23828844.793 7 125221427.52407  23828837.369 6  93509480.80706  23828833.698 7  95948842.94707  23828837.088 8  94729170.91408
E33  24751397.551 7 130069478.00907  24751389.812 6  97129775.15806  24751385.937 7  99663578.78107  24751389.789 7  98396686.51107
G05  22805672.079 6 119844607.97306  22805671.887 5  22805658.999 5  93385347.32505  22805666.841 6  93385402.19906
G10  25285353.123 6 132875429.66806  25285352.810 3  25285368.714 3 103539300.82603  25285348.987 5 103539275.94705  25285348.845 6  99225136.09206
G15  20615817.786 7 108336849.31707  20615817.585 6  20615824.344 6  84418261.49006  20615808.391 6  84418281.62906
G18  20607326.604 7 108292234.53707  20607326.587 5  20607334.713 5  84383491.33205  20607317.658 7  84383537.45407  20607320.675 7  80867549.18307
G20  22619353.482 6 118865507.66606  22619353.402 4  22619344.942 4  92622400.11604  22619345.534 6  92622438.01906  22619347.853 6  88763178.82506
G21  25016465.651 5 131462388.32205  25016465.388 1  25016468.478 1 102438212.16501                                  25016478.948 5  98170032.83805
G23  21869534.048 7 114925184.20107  21869533.905 4  21869542.907 4  89552023.26304  21869525.563 6  89552048.41106  21869529.424 7  85820728.98207
G24  19942516.764 7 104798641.78107  19942516.595 6  19942528.410 6  81661217.19606  19942510.330 6  81661254.35906  19942509.296 7  78258689.09207
R04  20506662.550 7 109812260.83807  20506647.122 7  85409466.46407  20506646.999 7  85409465.47907  20506631.477 7  82221832.65007
R05  22890036.803 5 122360409.50805  22890042.177 6  95169199.89006  22890041.969 6  95169219.90306  22890026.061 6  91778125.42506
R12  24480950.327 4                                                  24480949.657 4                  24480936.765 4  98156904.97904
R14  21893512.974 5 116704822.72405  21893528.603 7  90770437.38907  21893528.583 7  90770495.41807
R18  20993152.893 6 112062873.41206  20993160.543 6  87160023.77706  20993160.615 7  87160019.78907
R19  20090580.203 6 107471051.16806  20090564.316 7  83588537.00007  20090564.533 7  83588537.01907  20090591.382 7  80553705.48607
R20  23113212.581 5 123596775.53905  23113212.758 6  96130792.59206  23113212.934 6  96130804.57306  23113241.184 6  92673095.42606
> 2026 05 04 11 24 32.0000000  0 42
C01                                                                  37106590.746 7 193223761.81207                                  37106582.232 7 157010094.68907
C02                                                                  37994603.764 7 197847878.04507                                  37994583.365 6 160767519.03806
C03                                                                  36659868.162 7 190897558.65707                                  36659850.674 7 155119826.94607
C04                                                                  38001333.677 7 197882922.22507                                  38001316.314 6 160796007.63706
C06  36325098.251 7 190889684.12107  36325088.736 7 142547448.65707  36325099.228 8 189154324.99508                                  36325089.483 7 153703342.79907
C07  37176226.101 7 195362391.08707  37176218.276 6 145887464.80506  37176226.583 7 193586376.00407                                  37176218.046 7 157304758.78907
C08  40315673.080 5 211860320.40505  40315687.621 4 158207413.04504  40315674.567 5 209934310.30805                                  40315681.746 5 170588856.27305
C09                                                                  37336377.105 7 194420317.04307  37336366.293 7 150338077.38107  37336369.884 6 157982402.75506
C10                                                                  38085294.999 7 198320150.49307  38085288.158 6 153353700.45606  38085288.983 6 161151350.82206
C13  23565675.060 7 123838465.38307  23565667.934 6  92476738.39906  23565677.115 7 122712662.80407                                  23565670.096 7  99714058.56007
C14  24690717.284 6 129750592.80806  24690729.908 6  96891721.34006  24690718.278 7 128571050.52807                                  24690701.552 6 104474436.11706
C21                                                                  26905617.837 5 140104615.89105                                  26905609.072 5 113846441.50505
C24  23558942.537 7 123803080.64407  23558936.271 7  92450327.15207  23558943.673 7 122677638.73007                                  23558936.583 7  99685608.71307
C26  24100796.060 6 126650538.50206  24100789.029 6  94576669.88306  24100796.592 7 125499181.57307                                  24100790.467 7 101978340.71807
C27  26129947.018 6 137313790.50206  26129944.046 5 102539506.50605  26129950.654 6 136065500.82906                                  26129943.163 6 110564345.07906
C28  23768062.640 7 124902014.26007  23768057.343 6  93270959.69706  23768064.939 7 123766555.98807                                  23768057.807 6 100570434.03706
C33  22957968.786 7 120644945.09207  22957985.919 7  90092064.58307  22957970.056 7 119548176.53007                                  22957974.445 7  97142708.06107
C38  23798624.895 6 125062609.76606  23798625.515 6  93390917.31406  23798626.941 7 123925680.44507                                  23798623.696 6 100699744.75606
C41  26046804.346 6 136876866.37206  26046812.929 6 102213286.83106  26046804.570 6 135632561.70006                                  26046808.061 6 110212583.96706
C42  23402439.567 7 122980648.59207  23402442.126 7  91836206.56307  23402440.569 7 121862650.30507                                  23402440.630 7  99023387.44607
E07  24376264.138 7 128098136.65207  24376257.797 7  95657670.15307  24376253.760 7  98153073.17707  24376257.640 8  96905379.20308
E08  28479990.544 6 149663361.36506  28479986.018 5 111761592.29905  28479982.797 6 114677093.41106  28479986.316 6 113219351.40506
E13  26188427.440 6 137621099.09906  26188436.632 6 102769015.15206  26188430.983 6 105449931.28306  26188435.280 7 104109478.25307
E19  26066324.345 5                  26066326.973 5 102289893.28205  26066322.203 6 104958307.03206  26066326.270 6 103624107.19906
E26  23225283.288 7 122049685.32907  23225275.499 7  91140966.80907  23225271.958 8  93518540.84708  23225275.502 8  92329764.36708
E29  23828829.225 7 125221345.61407  23828821.746 6  93509419.64506  23828818.168 7  95948780.18707  23828821.514 8  94729108.95308
E33  24751120.936 7 130068023.83307  24751113.061 6  97128689.25106  24751109.212 7  99662464.54607  24751113.085 7  98395586.43707
G05  22806158.033 6 119847162.13906  22806157.846 5  22806144.979 5  93387337.57405  22806153.029 6  93387392.46306
G10  25284911.604 6 132873109.07406  25284911.291 3  25284927.101 3 103537492.57703  25284908.417 5 103537467.69705  25284907.124 6  99223403.18706
G15  20616171.441 7 108338707.30507  20616171.240 6  20616177.852 6  84419709.27006  20616162.375 6  84419729.40406
G18  20607340.921 7 108292309.83307  20607340.904 5  20607349.014 5  84383550.00005  20607332.463 7  84383596.12707  20607334.968 7  80867605.40107
G20  22619870.962 6 118868226.68406  22619870.882 4  22619861.929 4  92624518.82504  22619863.254 6  92624556.74506  22619865.238 6  88765209.25506
G21  25017026.751 5 131465337.53305  25017026.461 1  25017029.662 1 102440510.27101                                  25017040.099 5  98172235.14705
G23  21869157.330 7 114923204.64607  21869157.192 4  21869166.178 4  89550480.75304  21869149.316 6  89550505.89006  21869152.686 7  85819250.73507
G24  19942377.618 7 104797910.66307  19942377.444 6  19942389.200 6  81660647.49706  19942371.480 7  81660684.66307  19942370.197 7  78258143.12107
R04  20506697.713 7 109812450.08607  20506682.421 7  85409613.64007  20506682.463 7  85409612.64507  20506666.833 7  82221974.33607
R05  22889767.796 5 122358968.38005  22889772.757 6  95168079.00706  22889772.314 6  95168099.03406  22889756.578 6  91777044.50606
R12  24481510.666 4                                                  24481507.062 4                  24481495.422 4  98159144.56404
R14  21892995.617 6 116702062.23106  21893010.704 7  90768290.34107  21893010.871 7  90768348.35707
R18  20993907.692 6 112066900.37806  20993914.942 7  87163155.84607  20993915.049 7  87163151.82507
R19  20090636.225 6 107471354.01606  20090621.038 7  83588772.58607  20090621.213 7  83588772.57107  20090648.033 7  80553932.57207
R20  23112654.078 5 123593785.14505  23112653.572 6  96128466.75006  23112653.772 6  96128478.72106  23112681.945 6  92670853.24406
> 2026 05 04 11 24 33.0000000  0 42
C01                                                                  37106665.458 7 193224150.91307                                  37106656.958 7 157010410.86707
C02                                                                  37994671.487 7 197848230.68907                                  37994651.070 6 160767805.58706
C03                                                                  36659938.841 7 190897926.61107                                  36659921.384 7 155120125.94107
C04                                                                  38001408.590 7 197883312.31307                                  38001391.187 6 160796324.61306
C06  36325085.687 7 190889618.05307  36325076.207 7 142547399.33907  36325086.593 8 189154259.54108                                  36325076.971 7 153703289.61207
C07  37176050.220 7 195361466.58007  37176042.349 6 145886774.43906  37176050.726 7 193585459.91007                                  37176042.070 7 157304014.39007
C08  40316061.098 5 211862360.48205  40316075.915 4 158208936.51104  40316062.940 5 209936331.83905                                  40316069.879 5 170590498.92405
C09                                                                  37336343.152 7 194420139.97407  37336332.301 7 150337940.46907  37336335.945 6 157982258.88206
C10                                                                  38085107.531 7 198319174.35607  38085100.801 6 153352945.65206  38085101.594 6 161150557.62806
C13  23566016.091 7 123840257.31107  23566008.926 6  92478076.51406  23566018.226 7 122714438.44307                                  23566011.124 7  99715501.40407
C14  24691111.440 6 129752664.31606  24691124.073 6  96893268.24206  24691112.470 7 128573103.22507                                  24691095.818 6 104476104.08606
C21                                                                  26906055.713 5 140106895.04705                                  26906046.832 5 113848293.54005
C24  23558606.534 7 123801315.37207  23558600.315 6  92449008.92606  23558607.871 7 122675889.51507                                  23558600.696 7  99684187.32807
C26  24100904.675 6 126651109.24206  24100897.634 6  94577096.08506  24100905.300 7 125499747.13807                                  24100899.131 7 101978800.27507
C27  26129650.845 6 137312233.41806  26129647.784 5 102538343.76605  26129654.506 6 136063957.91506                                  26129646.809 6 110563091.34406
C28  23768109.977 7 124902262.93807  23768104.709 6  93271145.41406  23768112.258 7 123766802.41307                                  23768105.170 6 100570634.28606
C33  22957894.233 7 120644553.00907  22957911.257 7  90091771.79307  22957895.482 7 119547788.01007                                  22957899.799 7  97142392.35607
C38  23799168.693 6 125065467.23506  23799169.329 6  93393051.12806  23799170.836 7 123928511.93107                                  23799167.506 6 100702045.55006
C41  26046530.224 6 136875425.19206  26046538.643 6 102212210.63806  26046530.519 6 135631133.63706                                  26046533.848 6 110211423.56506
C42  23402722.861 7 122982137.33407  23402725.362 7  91837318.28907  23402723.971 7 121864125.52007                                  23402723.989 7  99024586.17407
E07  24376642.589 7 128100125.51207  24376636.224 7  95659155.34407  24376632.286 7  98154597.11307  24376636.123 8  96906883.76908
E08  28480500.821 6 149666042.75906  28480496.341 5 111763594.66805  28480493.103 6 114679147.97906  28480496.577 6 113221379.86406
E13  26189035.558 6 137624293.79506  26189044.599 6 102771400.77706  26189038.972 6 105452379.16406  26189043.237 7 104111895.00707
E19  26066031.065 5                  26066033.842 5 102288742.17205  26066028.831 6 104957125.88406  26066032.910 6 103622941.07006
E26  23225513.035 7 122050892.48807  23225505.172 7  91141868.25807  23225501.716 8  93519465.80608  23225505.228 8  92330677.57308
E29  23828813.779 7 125221264.53207  23828806.279 6  93509359.09906  23828802.811 7  95948718.05407  23828806.096 8  94729047.61308
E33  24750844.423 7 130066570.58907  24750836.471 6  97127604.03606  24750832.721 7  99661351.01707  24750836.550 7  98394487.06507
G05  22806644.460 6 119849717.15306  22806644.268 5  22806631.152 5  93389328.48305  22806639.848 6  93389383.39906
G10  25284470.234 6 132870788.95706  25284469.926 3  25284485.497 3 103535684.70003  25284466.911 5 103535659.82905  25284465.474 6  99221670.62406
G15  20616525.224 7 108340566.09607  20616525.023 6  20616531.468 6  84421157.68106  20616516.154 6  84421177.82606
G18  20607355.513 7 108292386.39507  20607355.496 5  20607363.484 5  84383609.65905  20607347.259 7  84383655.79107  20607349.516 7  80867662.58107
G20  22620388.536 6 118870946.32106  22620388.456 4  22620379.045 4  92626638.02404  22620380.618 6  92626675.94906  22620382.817 6  88767240.15506
G21  25017587.917 5 131468287.54205  25017587.636 1  25017591.124 1 102442808.96801                                  25017601.419 5  98174438.09205
G23  21868780.877 7 114921225.74307  21868780.739 4  21868789.452 4  89548938.76004  21868772.994 6  89548963.89606  21868776.112 7  85817772.98307
G24  19942238.816 7 104797180.83307  19942238.647 6  19942250.168 6  81660078.80306  19942232.931 7  81660115.97407  19942231.296 7  78257598.13107
R04  20506733.338 6 109812640.09606  20506717.881 7  85409761.41707  20506718.002 7  85409760.42707  20506702.319 7  82222116.60907
R05  22889498.408 5 122357528.01405  22889503.279 6  95166958.74806  22889502.964 6  95166978.76406  22889487.111 6  91775964.14706
R12  24482068.863 4                                                  24482065.237 4                  24482053.944 4  98161385.07604
R14  21892478.647 5 116699302.67005  21892493.019 7  90766144.03707  21892493.116 7  90766202.05707
R18  20994662.963 6 112070928.35406  20994669.550 7  87166288.73607  20994669.850 7  87166284.70707
R19  20090692.368 6 107471658.35706  20090677.944 7  83589009.25307  20090678.263 7  83589009.25907  20090704.895 7  80554160.74107
R20  23112095.489 5 123590795.87305  23112094.673 6  96126141.72006  23112094.528 6  96126153.73806  23112123.050 6  92668611.85406
> 2026 05 04 11 24 34.0000000  0 42
C01                                                                  37106740.335 7 193224540.98607                                  37106731.826 7 157010727.83107
C02                                                                  37994739.527 7 197848584.29407                                  37994719.025 6 160768092.92906
C03                                                                  36660009.734 7 190898295.55807                                  36659992.192 7 155120425.72507
C04                                                                  38001483.583 7 197883703.38107                                  38001466.305 6 160796642.38606
C06  36325073.313 7 190889552.94207  36325063.795 7 142547350.71207  36325074.194 8 189154195.01708                                  36325064.637 7 153703237.18207
C07  37175874.547 7 195360543.19007  37175866.603 6 145886084.89106  37175874.976 7 193584544.92307                                  37175866.348 7 157303270.87707
C08  40316449.636 5 211864401.41305  40316464.103 4 158210460.62604  40316451.273 5 209938354.23705                                  40316458.266 5 170592142.28005
C09                                                                  37336309.267 7 194419963.82507  37336298.515 7 150337804.25507  37336302.088 6 157982115.74306
C10                                                                  38084920.077 7 198318199.28307  38084913.606 6 153352191.66606  38084914.295 6 161149765.31806
C13  23566357.383 7 123842050.64807  23566350.246 6  92479415.67906  23566359.643 7 122716215.47907                                  23566352.433 7  99716945.38807
C14  24691505.870 6 129754736.84806  24691518.504 6  96894815.90806  24691506.926 7 128575156.91607                                  24691490.231 6 104477772.88106
C21                                                                  26906493.348 5 140109175.17505                                  26906484.838 5 113850146.31505
C24  23558270.873 7 123799551.38907  23558264.579 6  92447691.68206  23558272.241 7 122674141.57207                                  23558265.069 7  99682766.97907
C26  24101013.602 6 126651681.48806  24101006.580 6  94577523.40806  24101014.241 7 125500314.18407                                  24101008.052 7 101979261.04807
C27  26129354.864 6 137310677.72406  26129351.823 5 102537182.05305  26129358.368 6 136062416.35306                                  26129350.895 6 110561838.69906
C28  23768157.662 7 124902513.12507  23768152.273 6  93271332.23506  23768159.830 7 123767050.33307                                  23768152.844 6 100570835.73406
C33  22957819.850 7 120644161.97407  22957836.745 7  90091479.78207  22957821.152 7 119547400.53207                                  22957825.402 7  97142077.49807
C38  23799712.623 6 125068325.89906  23799713.274 6  93395185.81806  23799714.749 7 123931344.60207                                  23799711.515 6 100704347.31906
C41  26046256.327 6 136873985.03806  26046264.549 6 102211135.18406  26046256.439 6 135629706.58006                                  26046259.762 6 110210263.94506
C42  23403006.346 7 122983627.10907  23403008.854 7  91838430.78007  23403007.428 7 121865601.75307                                  23403007.466 7  99025785.72707
E07  24377021.246 7 128102115.44407  24377014.849 7  95660641.32907  24377011.002 7  98156121.86507  24377014.798 8  96908389.13708
E08  28481011.256 5 149668725.03305  28481006.753 5 111765597.65505  28481003.550 6 114681203.26506  28481006.977 6 113223409.01306
E13  26189643.660 6 137627489.65106  26189652.783 6 102773787.28506  26189647.085 6 105454827.93006  26189651.395 7 104114312.65007
E19  26065737.731 5                  26065740.601 5 102287591.93005  26065735.573 6 104955945.63406  26065739.790 6 103621775.83106
E26  23225743.034 7 122052101.06407  23225735.083 7  91142770.76107  23225731.738 8  93520391.86108  23225735.208 8  92331591.85108
E29  23828798.658 7 125221184.65807  23828791.018 6  93509299.44806  23828787.618 7  95948656.85607  23828790.905 8  94728987.19108
E33  24750568.101 7 130065118.62707  24750560.159 6  97126519.78006  24750556.448 7  99660238.47407  24750560.249 7  98393388.66507
G05  22807130.905 6 119852273.44206  22807130.713 5  22807117.607 5  93391320.39205  22807126.221 6  93391375.27606
G10  25284028.850 6 132868469.67906  25284028.537 4  25284044.009 4 103533877.47804  25284025.817 5 103533852.62005  25284024.175 6  99219938.69306
G15  20616879.115 7 108342426.08707  20616878.914 6  20616885.326 6  84422607.02506  20616870.060 6  84422627.17306
G18  20607370.326 7 108292464.62107  20607370.309 5  20607378.298 5  84383670.61505  20607362.192 7  84383716.75407  20607364.427 7  80867720.99507
G20  22620906.266 6 118873666.96806  22620906.186 4  22620896.439 4  92628758.00504  22620898.449 6  92628795.94006  22620900.582 6  88769271.80706
G21  25018149.813 5 131471238.64405  25018149.518 1  25018152.719 1 102445108.54201                                  25018162.807 5  98176641.82505
G23  21868404.697 7 114919247.89307  21868404.559 4  21868412.928 4  89547397.58304  21868396.698 6  89547422.73206  21868399.671 7  85816296.02807
G24  19942100.266 7 104796452.66007  19942100.097 6  19942111.454 6  81659511.39706  19942094.386 7  81659548.56107  19942092.726 7  78257054.35907
R04  20506768.638 6 109812831.25306  20506753.591 7  85409910.10307  20506753.748 7  85409909.12007  20506738.001 7  82222259.73607
R05  22889228.867 5 122356088.80005  22889234.092 6  95165839.36506  22889234.222 6  95165859.38406  22889217.810 6  91774884.63506
R12  24482629.600 4                                                  24482626.122 4                  24482612.855 4  98163626.67304
R14  21891962.626 5 116696544.45705  21891975.581 7  90763998.82807  21891975.731 7  90764056.83307
R18  20995417.285 5 112074957.77805  20995424.486 6  87169422.70806  20995424.751 7  87169418.72307
R19  20090748.744 6 107471964.57206  20090735.163 7  83589247.43307  20090735.340 7  83589247.42907  20090762.145 7  80554390.33707
R20  23111537.740 5 123587808.10605  23111535.993 6  96123817.86106  23111535.990 6  96123829.88906  23111564.358 6  92666371.61606
> 2026 05 04 11 24 35.0000000  0 42
C01                                                                  37106815.378 7 193224931.97207                                  37106806.927 7 157011045.54007
C02                                                                  37994807.598 7 197848938.82407                                  37994787.141 6 160768381.00806
C03                                                                  36660080.824 7 190898665.39507                                  36660063.192 7 155120726.25407
C04                                                                  38001558.890 7 197884095.34707                                  38001541.563 6 160796960.90006
C06  36325061.117 7 190889488.70207  36325051.609 7 142547302.74207  36325061.931 8 189154131.36308                                  36325052.389 7 153703185.45507
C07  37175699.103 7 195359620.83607  37175691.101 6 145885396.12706  37175699.389 7 193583630.94407                                  37175690.842 7 157302528.20107
C08  40316838.224 5 211866443.21605  40316852.450 4 158211985.31304  40316839.786 5 209940377.45905                                  40316846.889 5 170593786.33805
C09                                                                  37336275.546 7 194419788.49607  37336265.053 7 150337668.68507  37336268.455 6 157981973.27706
C10                                                                  38084733.161 7 198317225.20207  38084726.258 6 153351438.46406  38084727.319 6 161148973.80706
C13  23566698.924 7 123843845.32507  23566691.808 6  92480755.86106  23566701.084 7 122717993.83907                                  23566693.940 7  99718390.45607
C14  24691900.439 6 129756810.32706  24691912.934 6  96896364.28106  24691901.463 7 128577211.53607                                  24691884.795 6 104479442.43906
C21                                                                  26906931.461 5 140111456.19805                                  26906922.691 4 113851999.83404
C24  23557935.482 7 123797788.64007  23557929.168 7  92446375.35807  23557936.846 7 122672394.84107                                  23557929.646 7  99681347.64107
C26  24101122.731 6 126652255.17806  24101115.749 6  94577951.81206  24101123.387 7 125500882.64907                                  24101117.184 6 101979722.98006
C27  26129059.105 6 137309123.35806  26129055.896 5 102536021.31805  26129062.610 6 136060876.11306                                  26129055.082 6 110560587.12706
C28  23768205.559 6 124902764.74406  23768200.101 6  93271520.13106  23768207.699 7 123767299.66007                                  23768200.796 6 100571038.33306
C33  22957745.679 7 120643771.93007  22957762.510 7  90091188.52607  22957746.893 7 119547014.03607                                  22957751.243 7  97141763.44307
C38  23800256.792 6 125071185.67506  23800257.469 6  93397321.35706  23800259.076 7 123934178.38407                                  23800255.782 6 100706650.00406
C41  26045982.441 6 136872545.79706  26045990.690 6 102210060.44106  26045982.621 6 135628280.41006                                  26045985.870 6 110209105.06906
C42  23403290.047 7 122985117.85107  23403292.495 7  91839543.99307  23403291.123 7 121867078.93207                                  23403291.180 7  99026986.05407
E07  24377400.086 7 128104106.38107  24377393.682 7  95662128.07007  24377389.891 7  98157647.38507  24377393.656 8  96909895.26708
E08  28481521.799 5 149671408.12005  28481517.303 5 111767601.25805  28481514.161 6 114683259.14606  28481517.529 6 113225438.75206
E13  26190252.072 6 137630686.60106  26190261.170 6 102776174.63306  26190255.533 6 105457277.55106  26190259.769 7 104116731.12907
E19  26065444.737 5                  26065447.851 5 102286442.56205  26065442.750 6 104954766.26406  26065446.886 6 103620611.45506
E26  23225973.266 7 122053310.99507  23225965.335 7  91143674.29107  23225961.972 8  93521318.95108  23225965.442 8  92332507.15908
E29  23828783.693 7 125221105.94007  23828776.061 6  93509240.67006  23828772.640 7  95948596.53807  23828775.926 8  94728927.64108
E33  24750292.038 7 130063667.90907  24750284.101 6  97125436.45406  24750280.414 7  99659126.89107  24750284.184 7  98392291.21007
G05  22807617.521 6 119854830.88806  22807617.329 5  22807604.276 5  93393313.20605  22807612.969 6  93393368.09906
G10  25283587.693 6 132866151.19706  25283587.380 4  25283602.754 4 103532070.87504  25283584.134 5 103532046.02105  25283582.740 6  99218207.36606
G15  20617233.255 7 108344287.20007  20617233.054 6  20617239.407 6  84424057.24106  20617224.298 6  84424077.39806
G18  20607385.605 7 108292544.44307  20607385.588 5  20607393.448 5  84383732.81005  20607377.211 7  84383778.95407  20607379.609 7  80867780.60407
G20  22621424.021 6 118876388.55906  22621423.941 4  22621413.980 4  92630878.72504  22621416.402 6  92630916.66206  22621418.499 6  88771304.15506
G21  25018711.617 5 131474190.84105  25018711.291 1  25018714.556 1 102447408.97801                                  25018724.637 5  98178846.36505
G23  21868028.555 7 114917271.03107  21868028.421 4  21868036.583 4  89545857.17104  21868020.476 6  89545882.33106  21868023.432 7  85814819.80307
G24  19941961.989 7 104795726.09807  19941961.820 6  19941973.066 6  81658945.24706  19941955.984 7  81658982.43007  19941954.432 7  78256511.80207
R04  20506804.160 6 109813023.45006  20506789.512 7  85410059.59307  20506789.507 7  85410058.61507  20506773.915 7  82222403.65707
R05  22888959.605 5 122354650.64405  22888965.012 6  95164720.79306  22888964.950 6  95164740.79206  22888948.788 6  91773805.91406
R12  24483189.993 4                                                  24483185.875 4                  24483172.372 4  98165869.54904
R14  21891446.422 5 116693787.59405  21891458.380 7  90761854.61407  21891458.530 7  90761912.62407
R18  20996172.168 5 112078988.57705  20996179.729 7  87172557.77407  20996179.870 7  87172553.77807
R19  20090805.751 6 107472272.59906  20090792.695 7  83589487.02107  20090792.910 7  83589487.01907  20090819.690 7  80554621.27207
R20  23110978.688 5 123584821.71505  23110977.505 6  96121495.12906  23110977.655 6  96121507.15106  23111005.858 6  92664132.42106
> 2026 05 04 11 24 36.0000000  0 42
C01                                                                  37106890.618 7 193225323.70107                                  37106882.189 7 157011363.84707
C02                                                                  37994875.826 7 197849294.10007                                  37994855.405 6 160768669.70906
C03                                                                  36660151.958 7 190899035.98307                                  36660134.331 7 155121027.39007
C04                                                                  38001634.335 7 197884488.06607                                  38001617.035 6 160797280.01506
C06  36325049.011 7 190889425.17007  36325039.516 7 142547255.30207  36325049.852 8 189154068.41208                                  36325040.274 7 153703134.29407
C07  37175523.754 7 195358699.35807  37175515.787 6 145884708.02206  37175523.992 7 193582717.84807                                  37175515.495 7 157301786.24707
C08  40317227.023 5 211868485.63705  40317241.058 4 158213510.54804  40317228.511 5 209942401.32105                                  40317235.723 5 170595430.88305
C09                                                                  37336241.933 7 194419613.82607  37336231.403 7 150337533.61707  37336234.841 6 157981831.34106
C10                                                                  38084546.380 7 198316251.97507  38084539.206 6 153350685.90706  38084540.353 6 161148182.97506
C13  23567040.688 7 123845641.18907  23567033.539 6  92482096.94806  23567042.814 7 122719773.38707                                  23567035.661 7  99719836.47507
C14  24692295.223 6 129758884.57206  24692307.670 6  96897913.22606  24692296.147 7 128579266.93107                                  24692279.516 6 104481112.59706
C21                                                                  26907369.572 5 140113737.92205                                  26907360.846 5 113853853.91505
C24  23557600.182 7 123796026.95107  23557593.915 7  92445059.82007  23557601.762 7 122670649.17007                                  23557594.441 7  99679929.14407
C26  24101232.139 6 126652830.13306  24101224.990 6  94578381.16906  24101232.804 7 125501452.39007                                  24101226.617 7 101980185.94507
C27  26128763.472 6 137307570.13206  26128760.340 5 102534861.45905  26128767.154 6 136059337.02406                                  26128759.444 6 110559336.47306
C28  23768253.695 7 124903017.64307  23768248.251 6  93271708.98606  23768255.893 7 123767550.25907                                  23768248.829 6 100571241.96606
C33  22957671.671 7 120643382.70007  22957688.497 7  90090897.87007  22957672.878 7 119546628.34607                                  22957677.157 7  97141450.03607
C38  23800801.099 6 125074046.43106  23800801.818 6  93399457.65206  23800803.427 7 123937013.12907                                  23800800.084 6 100708953.45506
C41  26045708.545 6 136871107.31106  26045716.902 6 102208986.25206  26045708.943 6 135626855.00806                                  26045712.222 6 110207946.83506
C42  23403573.900 7 122986609.38107  23403576.287 7  91840657.80407  23403574.917 7 121868556.90007                                  23403575.041 7  99028187.03307
E07  24377779.073 7 128106098.14907  24377772.713 7  95663615.43107  24377768.915 8  98159173.54508  24377772.680 8  96911402.02708
E08  28482032.403 5 149674091.87105  28482027.996 5 111769605.36505  28482024.800 6 114685315.50906  28482028.247 6 113227468.97906
E13  26190860.608 6 137633884.52206  26190869.577 6 102778562.67506  26190864.106 6 105459727.89306  26190868.316 7 104119150.32007
E19  26065151.859 5                  26065155.184 5 102285293.82405  26065150.058 6 104953587.55106  26065154.119 6 103619447.72806
E26  23226203.787 7 122054522.13207  23226195.846 7  91144578.70407  23226192.430 8  93522246.96808  23226195.919 8  92333423.37608
E29  23828768.929 7 125221028.20707  23828761.262 7  93509182.63007  23828757.882 7  95948536.98507  23828761.138 8  94728868.84408
E33  24750016.139 7 130062218.25607  24750008.262 6  97124353.92406  24750004.567 7  99658016.11807  24750008.330 7  98391194.56207
G05  22808104.424 6 119857389.37106  22808104.232 5  22808091.146 5  93395306.82505  22808099.842 6  93395361.73306
G10  25283146.744 6 132863833.30906  25283146.431 4  25283161.557 4 103530264.72104  25283142.459 5 103530239.90905  25283141.576 6  99216476.48906
G15  20617587.627 7 108346149.28507  20617587.426 6  20617593.684 6  84425508.21706  20617578.484 6  84425528.37906
G18  20607400.984 7 108292625.70607  20607400.962 5  20607408.893 5  84383796.13105  20607392.693 7  84383842.27807  20607395.121 7  80867841.28107
G20  22621941.934 7 118879110.93707  22621941.850 4  22621931.731 4  92633000.06104  22621934.523 6  92633037.99106  22621936.653 6  88773337.09706
G21  25019273.550 5 131477143.93505  25019273.273 1  25019276.509 1 102449710.06501                                  25019286.605 5  98181051.58405
G23  21867652.515 7 114915294.99507  21867652.377 4  21867660.471 4  89544317.40004  21867644.393 6  89544342.57006  21867647.301 7  85813344.19607
G24  19941824.041 7 104795000.97107  19941823.872 6  19941834.969 6  81658380.21306  19941817.904 6  81658417.40206  19941816.383 7  78255970.32007
R04  20506840.022 7 109813216.54607  20506825.634 6  85410209.78406  20506825.580 7  85410208.81307  20506810.001 7  82222548.24107
R05  22888689.958 5 122353213.29305  22888696.125 6  95163602.90106  22888696.038 6  95163622.90906  22888679.873 6  91772727.85906
R12  24483750.068 4                                                  24483745.400 4                  24483732.084 4  98168113.38504
R14  21890929.071 5 116691031.85905  21890941.393 6  90759711.28706  21890941.727 7  90759769.32207
R18  20996927.640 6 112083020.58306  20996935.044 6  87175693.74806  20996935.250 6  87175689.76906
R19  20090863.176 6 107472582.26606  20090850.571 6  83589727.85306  20090850.816 7  83589727.89407  20090877.580 7  80554853.43807
R20  23110421.235 5 123581836.58305  23110419.420 6  96119173.39606  23110419.768 6  96119185.39606  23110447.625 6  92661894.17706
> 2026 05 04 11 24 37.0000000  0 42
C01                                                                  37106965.960 7 193225716.06807                                  37106957.630 7 157011682.68507
C02                                                                  37994944.327 7 197849650.02407                                  37994923.673 6 160768958.91506
C03                                                                  36660223.316 7 190899407.22007                                  36660205.694 7 155121329.05207
C04                                                                  38001709.986 7 197884881.44807                                  38001692.655 6 160797599.66306
C06  36325037.086 7 190889362.25607  36325027.566 7 142547208.32507  36325037.787 8 189154006.06608                                  36325028.353 7 153703083.63307
C07  37175348.519 7 195357778.67207  37175340.531 6 145884020.49106  37175348.694 7 193581805.52007                                  37175340.274 7 157301044.90207
C08  40317615.926 5 211870528.63805  40317629.884 4 158215036.12704  40317617.295 5 209944425.73605                                  40317624.410 5 170597075.92105
C09                                                                  37336208.457 7 194419439.71607  37336198.132 7 150337398.97507  37336201.415 6 157981689.85506
C10                                                                  38084359.578 7 198315279.47907  38084352.364 6 153349933.90006  38084353.664 6 161147392.73706
C13  23567382.645 7 123847438.14807  23567375.506 6  92483438.81306  23567384.640 7 122721553.99707                                  23567377.626 7  99721283.36307
C14  24692690.069 6 129760959.50706  24692702.656 6  96899462.69506  24692691.018 7 128581322.99907                                  24692674.310 6 104482783.32106
C21                                                                  26907808.320 5 140116020.33305                                  26907799.238 5 113855708.51905
C24  23557265.149 7 123794266.22107  23557258.829 6  92443745.00806  23557266.593 7 122668904.45107                                  23557259.345 7  99678511.41907
C26  24101341.758 6 126653406.28306  24101334.723 6  94578811.40706  24101342.419 7 125502023.29307                                  24101336.253 7 101980649.84707
C27  26128467.983 6 137306017.95306  26128465.016 5 102533702.35605  26128471.588 6 136057798.96306                                  26128464.030 6 110558086.68606
C28  23768302.068 6 124903271.71006  23768296.648 6  93271898.71606  23768304.337 7 123767802.01707                                  23768297.292 6 100571446.53306
C33  22957597.766 7 120642994.19407  22957614.609 7  90090607.75307  22957598.970 7 119546243.37607                                  22957603.273 7  97141137.20707
C38  23801345.696 6 125076908.05306  23801346.198 6  93401594.53306  23801347.892 7 123939848.73507                                  23801344.617 6 100711257.60506
C41  26045434.957 6 136869669.49706  26045443.343 6 102207912.57206  26045435.445 6 135625430.28006                                  26045438.568 6 110206789.11106
C42  23403857.788 7 122988101.61707  23403860.274 7  91841772.13107  23403858.872 7 121870035.57907                                  23403859.071 7  99029388.57707
E07  24378158.150 7 128108090.66007  24378151.903 7  95665103.35307  24378148.061 7  98160700.27507  24378151.837 8  96912909.35208
E08  28482543.385 5 149676776.14505  28482539.080 5 111771609.86105  28482535.586 5 114687372.29205  28482539.022 6 113229499.62406
E13  26191469.436 6 137637083.26606  26191478.438 6 102780951.34006  26191472.711 6 105462178.87406  26191477.038 7 104121570.14507
E19  26064859.307 5                  26064862.626 5 102284145.72305  26064857.408 6 104952409.49706  26064861.555 6 103618284.64606
E26  23226434.490 7 122055734.36007  23226426.535 7  91145483.94707  23226423.100 8  93523175.80908  23226426.592 8  92334340.41708
E29  23828754.299 7 125220951.36807  23828746.642 6  93509125.25106  23828743.262 7  95948478.10507  23828746.502 7  94728810.71507
E33  24749740.440 7 130060769.58807  24749732.568 6  97123272.12906  24749728.957 7  99656906.09707  24749732.659 7  98390098.65207
G05  22808591.443 6 119859948.77906  22808591.251 5  22808578.182 5  93397301.16605  22808586.972 6  93397356.03506
G10  25282705.904 6 132861515.98606  25282705.591 4  25282720.476 4 103528459.02104  25282701.131 5 103528434.13905  25282700.633 6  99214746.02606
G15  20617942.121 7 108348012.24307  20617941.920 6  20617948.145 6  84426959.87206  20617933.015 6  84426979.99406
G18  20607416.710 7 108292708.29607  20607416.688 5  20607424.593 5  84383860.49105  20607408.368 7  84383906.60307  20607410.875 7  80867902.95907
G20  22622460.200 6 118881833.97806  22622460.116 4  22622449.603 4  92635121.91804  22622453.024 6  92635159.82106  22622454.860 6  88775370.54406
G21  25019835.735 5 131480097.80205  25019835.503 1  25019838.615 1 102452011.71901                                  25019848.887 5  98183257.37905
G23  21867276.754 7 114913319.68107  21867276.611 4  21867284.501 4  89542778.20204  21867268.202 7  89542803.33707  21867271.459 7  85811869.12707
G24  19941686.303 7 104794277.18907  19941686.134 6  19941697.127 6  81657816.23206  19941679.987 7  81657853.38607  19941678.679 7  78255429.83207
R04  20506875.701 7 109813410.45107  20506861.809 7  85410360.59407  20506861.822 7  85410359.60807  20506846.219 7  82222693.42507
R05  22888422.251 5 122351776.75005  22888427.336 6  95162485.60806  22888426.828 6  95162505.60906  22888411.162 6  91771650.38406
R12  24484311.498 4                                                  24484304.841 4                  24484292.050 4  98170358.03204
R14  21890411.959 5 116688277.11405  21890424.603 7  90757568.74107  21890425.071 7  90757626.74907
R18  20997683.607 6 112087053.64706  20997690.641 7  87178830.58707  20997690.663 7  87178826.57107
R19  20090920.946 6 107472893.48906  20090908.774 7  83589969.92707  20090909.171 7  83589969.93507  20090935.764 7  80555086.75207
R20  23109863.558 5 123578852.63505  23109861.460 6  96116852.52406  23109861.650 6  96116864.51806  23109889.598 6  92659656.79806
> 2026 05 04 11 24 38.0000000  0 42
C01                                                                  37107041.495 7 193226109.02907                                  37107033.155 7 157012002.00307
C02                                                                  37995012.823 7 197850006.52907                                  37994992.187 6 160769248.60806
C03                                                                  36660294.786 7 190899779.04907                                  36660277.133 7 155121631.20407
C04                                                                  38001785.740 7 197885275.40607                                  38001768.279 6 160797919.78906
C06  36325025.297 7 190889299.89507  36325015.666 7 142547161.75107  36325025.920 8 189153944.27308                                  36325016.491 7 153703033.42707
C07  37175173.489 7 195356858.68507  37175165.569 6 145883333.49206  37175173.595 7 193580893.90707                                  37175165.253 7 157300304.13307
C08  40318004.753 5 211872572.13405  40318018.618 4 158216562.11804  40318006.404 5 209946450.67905                                  40318013.099 5 170598721.33305
C09                                                                  37336174.991 7 194419266.12407  37336164.703 7 150337264.75107  37336168.039 6 157981548.80006
C10                                                                  38084172.977 7 198314307.64007  38084165.683 6 153349182.45006  38084167.042 6 161146603.06006
C13  23567724.847 7 123849236.12007  23567717.643 6  92484781.46006  23567726.758 7 122723335.63507                                  23567719.772 7  99722731.09407
C14  24693085.059 6 129763035.04806  24693097.722 6  96901012.62006  24693085.970 7 128583379.67507                                  24693069.337 6 104484454.53306
C21                                                                  26908246.665 5 140118303.26405                                  26908237.660 4 113857563.60804
C24  23556930.246 7 123792506.40207  23556923.990 7  92442430.86607  23556931.598 7 122667160.62207                                  23556924.485 7  99677094.43707
C26  24101451.499 6 126653983.54806  24101444.560 6  94579242.49106  24101452.249 7 125502595.30307                                  24101446.091 7 101981114.65007
C27  26128172.847 6 137304466.76706  26128169.834 5 102532543.99905  26128176.393 6 136056261.87606                                  26128168.866 6 110556837.68306
C28  23768350.663 7 124903526.89907  23768345.215 6  93272089.27406  23768352.932 7 123768054.88007                                  23768345.906 6 100571652.01006
C33  22957524.018 7 120642606.36107  22957540.846 7  90090318.13307  22957525.131 8 119545859.05808                                  22957529.477 7  97140824.92607
C38  23801890.461 6 125079770.49206  23801890.877 6  93403732.07506  23801892.539 7 123942685.15507                                  23801889.258 6 100713562.42606
C41  26045161.508 6 136868232.29606  26045169.876 6 102206839.33606  26045161.915 6 135624006.12806                                  26045165.081 6 110205631.89306
C42  23404141.883 7 122989594.50007  23404144.410 7  91842886.94207  23404142.871 7 121871514.88807                                  23404143.229 7  99030590.63707
E07  24378537.424 7 128110083.85007  24378531.209 7  95666591.76407  24378527.267 7  98162227.52107  24378531.116 8  96914417.18408
E08  28483054.436 5 149679460.90505  28483050.268 5 111773614.76205  28483046.447 5 114689429.46805  28483049.887 6 113231530.65706
E13  26192078.257 6 137640282.80506  26192087.292 6 102783340.58206  26192081.488 6 105464630.45006  26192085.885 6 104123990.55906
E19  26064566.930 5                  26064570.288 5 102282998.14505  26064564.748 6 104951232.02306  26064569.084 6 103617122.12606
E26  23226665.330 7 122056947.61907  23226657.403 7  91146389.94507  23226653.917 7  93524105.45907  23226657.448 8  92335258.24408
E29  23828739.786 7 125220875.35507  23828732.137 6  93509068.48906  23828728.712 7  95948419.86407  23828732.023 7  94728753.21607
E33  24749464.945 7 130059321.82607  24749457.107 6  97122191.00706  24749453.434 7  99655796.78307  24749457.135 7  98389003.43407
G05  22809078.600 6 119862509.04706  22809078.408 5  22809065.401 5  93399296.16105  22809074.517 6  93399351.05006
G10  25282265.030 6 132859199.09406  25282264.717 4  25282279.444 4 103526653.65204  25282260.747 5 103526628.75705  25282259.712 6  99213015.89006
G15  20618296.751 7 108349876.00907  20618296.555 6  20618302.700 6  84428412.15906  20618288.340 6  84428432.28006
G18  20607432.633 7 108292792.16307  20607432.611 5  20607440.485 5  84383925.84105  20607424.770 7  84383971.95807  20607426.806 7  80867965.58807
G20  22622978.446 7 118884557.66007  22622978.366 4  22622967.582 4  92637244.25604  22622971.455 6  92637282.16306  22622973.108 6  88777404.44906
G21  25020398.349 5 131483052.42305  25020398.117 1  25020400.854 1 102454314.03801                                  25020411.279 5  98185463.76505
G23  21866900.954 7 114911345.03207  21866900.811 4  21866908.639 4  89541239.51604  21866892.722 7  89541264.65207  21866895.728 7  85810394.54907
G24  19941548.833 7 104793554.68307  19941548.664 6  19941559.490 6  81657253.24406  19941542.844 7  81657290.38707  19941541.188 7  78254890.30107
R04  20506911.515 6 109813605.09606  20506898.199 7  85410511.98507  20506898.255 7  85410511.01207  20506882.546 7  82222839.17807
R05  22888153.667 5 122350340.97105  22888158.725 6  95161368.86906  22888158.301 6  95161388.86906  22888142.542 6  91770573.43906
R12  24484873.215 4                                                  24484863.002 4                  24484852.085 4  98172603.64404
R14  21889895.423 5 116685523.37405  21889908.100 7  90755426.95307  21889908.270 7  90755484.96207
R18  20998439.820 6 112091087.81106  20998446.448 7  87181968.23307  20998446.230 7  87181964.24807
R19  20090979.140 6 107473206.21506  20090967.289 7  83590213.16307  20090967.719 7  83590213.15507  20090994.197 7  80555321.15707
R20  23109305.984 5 123575869.75105  23109303.741 6  96114532.53706  23109303.962 6  96114544.51906  23109331.721 6  92657420.25306
> 2026 05 04 11 24 39.0000000  0 42
C01                                                                  37107117.119 7 193226502.62307                                  37107108.609 7 157012321.81707
C02                                                                  37995081.284 7 197850363.69207                                  37995060.684 6 160769538.83006
C03                                                                  36660366.292 7 190900151.52407                                  36660348.580 7 155121933.85507
C04                                                                  38001861.521 7 197885669.99907                                  38001843.992 6 160798240.43606
C06  36325013.509 7 190889238.14107  36325003.979 7 142547115.63207  36325014.221 8 189153883.07508                                  36325004.714 7 153702983.69907
C07  37174998.573 7 195355939.47007  37174990.706 6 145882647.07706  37174998.625 7 193579983.04707                                  37174990.260 7 157299564.00107
C08  40318393.794 5 211874616.22505  40318407.531 5 158218088.55205  40318395.258 5 209948476.15105                                  40318402.091 5 170600367.17605
C09                                                                  37336141.776 7 194419093.06407  37336131.495 7 150337130.95307  37336134.855 6 157981408.17806
C10                                                                  38083986.471 7 198313336.56207  38083979.469 6 153348431.57206  38083980.547 6 161145813.98606
C13  23568067.207 7 123851035.18707  23568060.104 6  92486124.91306  23568069.141 7 122725118.33607                                  23568062.198 7  99724179.66907
C14  24693480.221 6 129765111.27006  24693492.908 6  96902563.02306  24693481.003 7 128585437.02607                                  24693464.400 6 104486126.28906
C21                                                                  26908685.359 5 140120586.85005                                  26908675.809 4 113859419.24004
C24  23556595.515 7 123790747.55007  23556589.410 6  92441117.44006  23556596.950 7 122665417.75207                                  23556589.719 7  99675678.20907
C26  24101561.577 6 126654561.98306  24101554.718 6  94579674.43106  24101562.269 7 125503168.47607                                  24101556.141 6 101981580.39906
C27  26127877.876 6 137302916.66406  26127875.095 5 102531386.44605  26127881.371 6 136054725.84406                                  26127873.819 6 110555589.51906
C28  23768399.503 7 124903783.25807  23768394.050 6  93272280.71606  23768401.763 7 123768308.91207                                  23768394.669 6 100571858.42806
C33  22957450.359 7 120642219.23607  22957467.360 7  90090029.04407  22957451.405 8 119545475.45408                                  22957455.722 7  97140513.21007
C38  23802435.369 6 125082633.77506  23802435.798 6  93405870.23806  23802437.339 7 123945522.41307                                  23802434.126 6 100715867.91906
C41  26044888.010 6 136866795.74906  26044896.598 6 102205766.60706  26044888.497 6 135622582.64006                                  26044891.616 6 110204475.19306
C42  23404426.157 7 122991088.08607  23404428.728 7  91844002.27707  23404427.096 7 121872994.88807                                  23404427.440 7  99031793.24907
E07  24378916.866 7 128112077.77207  24378910.773 7  95668080.73307  24378906.688 7  98163755.34407  24378910.654 7  96915925.58307
E08  28483565.616 5 149682146.21305  28483561.279 5 111775620.04105  28483557.348 5 114691487.06005  28483561.003 5 113233562.09405
E13  26192687.152 6 137643483.17306  26192696.418 6 102785730.45006  26192690.389 6 105467082.67906  26192695.010 6 104126411.61006
E19  26064274.267 5                  26064278.017 5 102281851.25905  26064272.400 6 104950055.21206  26064276.903 6 103615960.28206
E26  23226896.437 7 122058161.97707  23226888.615 7  91147296.76307  23226884.948 7  93525035.94407  23226888.640 8  92336176.89808
E29  23828725.476 7 125220800.22907  23828718.013 6  93509012.37506  23828714.350 7  95948362.30907  23828717.826 7  94728696.38707
E33  24749189.592 7 130057875.04607  24749181.905 6  97121110.61206  24749178.010 7  99654688.21407  24749181.929 7  98387908.95807
G05  22809565.941 6 119865070.22506  22809565.754 5  22809552.807 5  93401291.87005  22809562.012 6  93401346.76206
G10  25281824.352 6 132856882.74006  25281824.031 4  25281838.399 4 103524848.70504  25281820.277 5 103524823.80905  25281819.009 6  99211286.14806
G15  20618651.592 7 108351740.64407  20618651.391 6  20618657.358 6  84429865.12006  20618643.484 6  84429885.22006
G18  20607448.792 7 108292877.36207  20607448.775 5  20607456.520 5  84383992.23105  20607441.270 7  84384038.32707  20607443.098 7  80868029.21107
G20  22623496.921 7 118887282.01807  22623496.841 4  22623485.736 4  92639367.11904  22623490.150 7  92639405.00907  22623491.626 6  88779438.87306
G21  25020960.351 5 131486007.87205  25020960.168 1  25020963.281 1 102456616.95801                                  25020973.943 5  98187670.73505
G23  21866525.376 7 114909371.10407  21866525.233 4  21866532.763 4  89539701.38904  21866517.374 7  89539726.50607  21866520.166 7  85808920.51107
G24  19941411.642 7 104792833.51007  19941411.473 7  19941422.006 7  81656691.29707  19941405.933 7  81656728.42107  19941404.063 7  78254351.77007
R04  20506947.836 6 109813800.56006  20506934.723 7  85410664.01807  20506934.826 7  85410663.03707  20506919.073 7  82222985.53207
R05  22887884.609 4 122348905.93804  22887890.383 6  95160252.70606  22887890.008 6  95160272.73706  22887874.154 6  91769497.10106
R12  24485431.734 4                                                  24485424.736 4                  24485412.319 4  98174850.11004
R14  21889379.540 5 116682770.59905  21889391.694 7  90753285.94707  21889391.898 7  90753343.96507
R18  20999196.085 5 112095123.06105  20999202.255 7  87185106.78507  20999202.269 7  87185102.77407
R19  20091037.106 6 107473520.49106  20091026.154 7  83590457.58707  20091026.471 7  83590457.59307  20091052.954 7  80555556.73207
R20  23108748.251 5 123572888.02705  23108746.206 6  96112213.41606  23108746.238 6  96112225.40406  23108774.150 6  92655184.57206
> 2026 05 04 11 24 40.0000000  0 42
C01                                                                  37107192.734 7 193226896.64207                                  37107184.166 7 157012641.99407
C02                                                                  37995149.874 7 197850721.27807                                  37995129.260 6 160769829.39806
C03                                                                  36660437.851 7 190900524.42407                                  36660420.166 7 155122236.87307
C04                                                                  38001937.435 7 197886065.03407                                  38001919.817 6 160798561.42206
C06  36325001.858 7 190889176.75807  36324992.258 7 142547069.81307  36325002.547 8 189153822.27008                                  36324992.982 7 153702934.29707
C07  37174823.735 7 195355020.78507  37174815.893 6 145881961.06506  37174823.785 7 193579072.73207                                  37174815.411 7 157298824.29107
C08  40318782.966 5 211876660.55505  40318796.637 4 158219615.18304  40318784.538 5 209950501.93105                                  40318790.902 5 170602013.32305
C09                                                                  37336108.619 7 194418920.36507  37336098.274 7 150336997.40307  37336101.729 6 157981267.85406
C10                                                                  38083799.964 7 198312365.99207  38083793.239 6 153347681.04606  38083794.118 6 161145025.31906
C13  23568409.701 7 123852835.07507  23568402.544 6  92487468.98306  23568411.571 7 122726901.88307                                  23568404.666 7  99725628.94807
C14  24693875.407 6 129767187.92106  24693888.094 6  96904113.79006  24693876.114 7 128587494.81607                                  24693859.505 6 104487798.41806
C21                                                                  26909124.167 5 140122870.84705                                  26909114.306 4 113861275.12704
C24  23556260.909 7 123788989.39507  23556254.891 6  92439804.57306  23556262.328 7 122663675.60607                                  23556255.072 7  99674262.58407
C26  24101671.836 6 126655141.33106  24101665.005 6  94580107.08406  24101672.236 7 125503742.58807                                  24101666.413 7 101982046.91407
C27  26127583.057 6 137301367.31606  26127580.175 5 102530229.47605  26127586.467 6 136053190.61406                                  26127579.071 6 110554342.02106
C28  23768448.418 6 124904040.53206  23768442.981 6  93272472.83606  23768450.795 7 123768563.87107                                  23768443.556 6 100572065.61506
C33  22957376.758 7 120641832.58207  22957393.735 7  90089740.33207  22957377.848 8 119545092.33408                                  22957382.133 7  97140201.90307
C38  23802980.292 6 125085497.68206  23802980.911 6  93408008.87606  23802982.296 7 123948360.30107                                  23802979.063 6 100718173.92306
C41  26044614.676 6 136865359.62706  26044623.315 6 102204694.18606  26044615.251 6 135621159.59306                                  26044618.266 6 110203318.85106
C42  23404710.490 7 122992582.11007  23404713.012 7  91845117.95407  23404711.325 7 121874475.35507                                  23404711.690 7  99032996.25107
E07  24379296.429 7 128114072.17907  24379290.302 7  95669570.07307  24379286.143 7  98165283.53007  24379290.223 8  96917434.34808
E08  28484076.842 5 149684831.79705  28484072.542 5 111777625.50905  28484068.288 5 114693544.86005  28484072.091 6 113235593.73506
E13  26193296.239 6 137646684.11806  26193305.674 6 102788120.78506  26193299.510 6 105469535.35906  26193304.206 7 104128833.11807
E19  26063981.997 5                  26063985.896 5 102280704.76905  26063980.160 6 104948878.79106  26063984.763 6 103614798.82606
E26  23227127.661 7 122059377.17107  23227119.930 7  91148204.22607  23227116.161 7  93525967.06407  23227119.944 8  92337096.19108
E29  23828711.291 7 125220725.72607  23828703.816 6  93508956.76506  23828700.091 7  95948305.23407  23828703.695 7  94728640.04107
E33  24748914.385 7 130056428.96707  24748906.662 6  97120030.77606  24748902.740 7  99653580.18707  24748906.786 7  98386815.02707
G05  22810053.432 6 119867632.08406  22810053.245 5  22810040.366 5  93403288.11305  22810049.661 6  93403343.01406
G10  25281383.653 6 132854566.64606  25281383.336 4  25281397.363 4 103523043.95104  25281379.973 5 103523019.10405  25281378.231 6  99209556.61306
G15  20619006.523 7 108353605.89007  20619006.322 6  20619012.110 6  84431318.55206  20618998.358 7  84431338.67707
G18  20607465.257 7 108292963.64707  20607465.235 5  20607472.775 5  84384059.46005  20607458.025 7  84384105.58107  20607459.529 7  80868093.65207
G20  22624015.449 6 118890006.78806  22624015.369 4  22624004.096 4  92641490.31004  22624008.919 7  92641528.22307  22624010.109 6  88781473.61706
G21  25021522.569 5 131488963.82405  25021522.413 1  25021525.785 1 102458920.27401                                  25021536.371 5  98189878.13505
G23  21866149.635 7 114907397.64507  21866149.492 4  21866156.986 4  89538163.62704  21866142.029 7  89538188.75907  21866144.598 7  85807446.84107
G24  19941274.579 7 104792113.42507  19941274.405 7  19941284.722 7  81656130.18607  19941268.922 7  81656167.33107  19941267.056 7  78253814.05207
R04  20506984.275 6 109813996.54606  20506971.373 7  85410816.45307  20506971.316 7  85410815.45907  20506955.728 7  82223132.28007
R05  22887615.464 5 122347471.45105  22887622.104 6  95159137.02006  22887621.651 6  95159157.03906  22887605.926 6  91768421.14006
R12  24485992.068 4                                                  24485986.408 4                  24485973.065 4  98177097.40004
R14  21888863.454 5 116680018.62205  21888875.539 7  90751145.54407  21888875.475 7  90751203.55707
R18  20999952.544 5 112099159.22905  20999958.389 7  87188245.97007  20999958.355 7  87188241.98007
R19  20091095.439 6 107473836.11106  20091085.161 7  83590703.06607  20091085.375 7  83590703.05707  20091112.027 7  80555793.27507
R20  23108191.621 5 123569907.22505  23108188.742 6  96109894.98906  23108188.767 6  96109906.99506  23108216.891 6  92652949.54306
> 2026 05 04 11 24 41.0000000  0 42
C01                                                                  37107268.385 7 193227290.99407                                  37107259.786 7 157012962.42707
C02                                                                  37995218.549 7 197851079.19407                                  37995197.958 6 160770120.23206
C03                                                                  36660509.406 7 190900897.65707                                  36660491.753 7 155122540.14607
C04                                                                  38002013.323 7 197886460.40607                                  38001995.705 6 160798882.68806
C06  36324990.135 7 190889115.69007  36324980.614 7 142547024.20607  36324990.921 8 189153761.75308                                  36324981.344 7 153702885.11107
C07  37174648.936 7 195354102.57607  37174641.130 6 145881275.40106  37174649.024 7 193578162.87607                                  37174640.665 7 157298084.96307
C08  40319171.848 5 211878705.18105  40319185.606 4 158221142.03704  40319173.179 5 209952527.97505                                  40319179.990 5 170603659.62905
C09                                                                  37336075.458 7 194418747.94207  37336065.194 7 150336864.06007  37336068.637 6 157981127.73306
C10                                                                  38083613.507 7 198311395.83907  38083607.006 6 153346930.87406  38083607.834 6 161144237.00806
C13  23568752.280 7 123854635.74807  23568745.142 6  92488813.64806  23568754.137 7 122728686.18207                                  23568747.322 7  99727078.83007
C14  24694270.619 6 129769264.95806  24694283.339 6  96905664.81306  24694271.260 7 128589552.96107                                  24694254.745 6 104489470.82906
C21                                                                  26909562.857 5 140125155.15405                                  26909552.845 4 113863131.34304
C24  23555926.328 7 123787231.92507  23555920.401 7  92438492.18307  23555927.895 7 122661934.10807                                  23555920.539 7  99672847.48407
C26  24101782.227 6 126655721.57606  24101775.342 6  94580540.39506  24101782.464 7 125504317.54907                                  24101776.843 7 101982514.11307
C27  26127288.272 6 137299818.75306  26127285.605 5 102529073.08105  26127291.645 6 136051656.11206                                  26127284.474 6 110553095.11006
C28  23768497.464 7 124904298.68907  23768492.228 6  93272665.62706  23768499.863 7 123768819.67607                                  23768492.589 6 100572273.46506
C33  22957303.224 7 120641446.36107  22957320.221 7  90089451.92007  22957304.251 8 119544709.62308                                  22957308.616 7  97139890.91207
C38  23803525.352 6 125088362.17506  23803526.168 6  93410147.93106  23803527.271 7 123951198.75007                                  23803524.138 6 100720480.39106
C41  26044341.341 6 136863923.87006  26044350.077 6 102203622.03606  26044341.853 6 135619736.88006                                  26044345.072 6 110202162.77706
C42  23404994.839 7 122994076.53707  23404997.356 7  91846233.93407  23404995.705 7 121875956.19207                                  23404995.994 7  99034199.54907
E07  24379675.999 7 128116067.03607  24379669.874 7  95671059.74107  24379665.757 7  98166812.04907  24379669.882 7  96918943.44007
E08  28484587.914 5 149687517.67705  28484583.550 5 111779631.17005  28484579.362 5 114695602.85205  28484583.225 6 113237625.55806
E13  26193905.313 6 137649885.62606  26193914.812 6 102790511.50606  26193908.704 6 105471988.43306  26193913.487 6 104131255.01406
E19  26063690.103 5                  26063693.701 5 102279558.68605  26063688.090 6 104947702.82706  26063692.766 6 103613637.80106
E26  23227359.023 7 122060593.16507  23227351.353 7  91149112.27707  23227347.553 7  93526898.79607  23227351.391 8  92338016.08208
E29  23828697.152 7 125220651.82307  23828689.728 6  93508901.57806  23828686.052 7  95948248.60307  23828689.686 7  94728584.13507
E33  24748639.313 7 130054983.58807  24748631.651 6  97118951.43106  24748627.733 7  99652472.68007  24748631.790 7  98385721.60107
G05  22810541.084 6 119870194.57006  22810540.897 5  22810528.126 5  93405284.84405  22810537.383 6  93405339.72906
G10  25280942.859 6 132852250.78306  25280942.542 4  25280956.362 4 103521239.39804  25280939.730 5 103521214.53005  25280937.531 6  99207827.24806
G15  20619361.488 7 108355471.71207  20619361.287 6  20619366.969 6  84432772.44606  20619353.507 7  84432792.55707
G18  20607481.896 7 108293050.97007  20607481.879 5  20607489.253 5  84384127.51105  20607475.056 7  84384173.61607  20607476.075 7  80868158.86907
G20  22624534.080 6 118892731.96406  22624533.996 4  22624522.522 4  92643613.82204  22624527.782 7  92643651.72307  22624528.714 6  88783508.64106
G21  25022084.490 5 131491920.30205  25022084.338 1  25022088.462 1 102461223.95601                                  25022098.980 5  98192085.88005
G23  21865774.094 7 114905424.62407  21865773.947 4  21865781.329 4  89536626.21904  21865766.750 7  89536651.32507  21865769.127 7  85805973.48007
G24  19941137.607 7 104791394.38807  19941137.438 7  19941147.658 7  81655569.91007  19941132.246 7  81655607.03907  19941130.202 7  78253277.11507
R04  20507020.957 6 109814193.01006  20507008.004 7  85410969.26207  20507008.096 6  85410968.27806  20506992.534 7  82223279.38307
R05  22887348.062 5 122346037.46505  22887353.999 6  95158021.74006  22887353.321 6  95158041.72406  22887337.718 6  91767345.56506
R12  24486550.395 4                                                  24486546.228 3                  24486534.010 4  98179345.30604
R14  21888346.968 5 116677267.36805  21888359.389 7  90749005.67407  21888359.409 7  90749063.69707
R18  21000708.374 5 112103196.14605  21000714.625 6  87191385.76506  21000714.732 6  87191381.78706
R19  20091154.117 6 107474152.99206                                  20091144.581 7  83590949.53707  20091171.324 7  80556030.75707
R20  23107634.726 5 123566927.26405  23107631.457 6  96107577.23406  23107631.483 6  96107589.24406  23107659.713 6  92650715.14806
